[{"code_insee":"04001","nom":"Aiglun","codes_postaux":["04510"],"code_dep":"04","code_region":"93","population":1399,"surface_km2":14.65,"lat":44.0632,"lon":6.1413,"fibre_pct":99.3,"securite":{"taux_pour_mille":12.8,"annee":2024},"socio":{"annee":2021,"revenu_median":24270.0},"vivrescore":80},{"code_insee":"04004","nom":"Allemagne-en-Provence","codes_postaux":["04500"],"code_dep":"04","code_region":"93","population":544,"surface_km2":33.13,"lat":43.7921,"lon":6.0257,"fibre_pct":97.3,"securite":{"taux_pour_mille":0.0,"annee":2024},"socio":{"annee":2021,"revenu_median":20340.0},"vivrescore":87},{"code_insee":"04005","nom":"Allons","codes_postaux":["04170"],"code_dep":"04","code_region":"93","population":126,"surface_km2":41.98,"lat":43.9769,"lon":6.5929,"fibre_pct":100.0,"securite":{"taux_pour_mille":0.0,"annee":2024},"vivrescore":100},{"code_insee":"04006","nom":"Allos","codes_postaux":["04260"],"code_dep":"04","code_region":"93","population":812,"surface_km2":117.23,"lat":44.269,"lon":6.6304,"fibre_pct":97.4,"securite":{"taux_pour_mille":41.7,"annee":2024},"socio":{"annee":2021,"revenu_median":20390.0},"vivrescore":60},{"code_insee":"04007","nom":"Angles","codes_postaux":["04170"],"code_dep":"04","code_region":"93","population":72,"surface_km2":9.98,"lat":43.9442,"lon":6.5531,"fibre_pct":100.0,"securite":{"taux_pour_mille":0.0,"annee":2024},"vivrescore":100},{"code_insee":"04008","nom":"Annot","codes_postaux":["04240"],"code_dep":"04","code_region":"93","population":1009,"surface_km2":29.89,"lat":43.9631,"lon":6.6631,"fibre_pct":96.9,"securite":{"taux_pour_mille":15.8,"annee":2024},"socio":{"annee":2021,"revenu_median":20850.0},"vivrescore":73},{"code_insee":"04009","nom":"Archail","codes_postaux":["04420"],"code_dep":"04","code_region":"93","population":14,"surface_km2":12.98,"lat":44.115,"lon":6.3309,"fibre_pct":100.0,"securite":{"taux_pour_mille":0.0,"annee":2024},"vivrescore":100},{"code_insee":"04012","nom":"Aubenas-les-Alpes","codes_postaux":["04110"],"code_dep":"04","code_region":"93","population":90,"surface_km2":7.97,"lat":43.9359,"lon":5.6757,"fibre_pct":100.0,"securite":{"taux_pour_mille":0.0,"annee":2024},"vivrescore":100},{"code_insee":"04013","nom":"Aubignosc","codes_postaux":["04200"],"code_dep":"04","code_region":"93","population":616,"surface_km2":15.02,"lat":44.1211,"lon":5.9542,"fibre_pct":91.7,"securite":{"taux_pour_mille":0.0,"annee":2024},"socio":{"annee":2021,"revenu_median":22860.0},"vivrescore":80},{"code_insee":"04016","nom":"Authon","codes_postaux":["04200"],"code_dep":"04","code_region":"93","population":57,"surface_km2":40.3,"lat":44.2475,"lon":6.1442,"fibre_pct":94.1,"securite":{"taux_pour_mille":0.0,"annee":2024},"vivrescore":90},{"code_insee":"04017","nom":"Auzet","codes_postaux":["04140"],"code_dep":"04","code_region":"93","population":102,"surface_km2":34.95,"lat":44.3041,"lon":6.3169,"fibre_pct":100.0,"securite":{"taux_pour_mille":0.0,"annee":2024},"vivrescore":100},{"code_insee":"04018","nom":"Banon","codes_postaux":["04150"],"code_dep":"04","code_region":"93","population":1072,"surface_km2":39.97,"lat":44.0244,"lon":5.6496,"fibre_pct":100.0,"securite":{"taux_pour_mille":8.4,"annee":2024},"socio":{"annee":2021,"revenu_median":19910.0},"vivrescore":73},{"code_insee":"04019","nom":"Barcelonnette","codes_postaux":["04400"],"code_dep":"04","code_region":"93","population":2518,"surface_km2":16.63,"lat":44.3751,"lon":6.6463,"fibre_pct":97.3,"securite":{"taux_pour_mille":55.0,"annee":2024},"socio":{"annee":2021,"taux_pauvrete":17.0,"revenu_median":21030.0},"vivrescore":60},{"code_insee":"04020","nom":"Barles","codes_postaux":["04140"],"code_dep":"04","code_region":"93","population":118,"surface_km2":59.7,"lat":44.2815,"lon":6.2532,"fibre_pct":100.0,"securite":{"taux_pour_mille":0.0,"annee":2024},"vivrescore":100},{"code_insee":"04021","nom":"Barras","codes_postaux":["04380"],"code_dep":"04","code_region":"93","population":139,"surface_km2":20.97,"lat":44.0949,"lon":6.0987,"fibre_pct":97.0,"securite":{"taux_pour_mille":0.0,"annee":2024},"socio":{"annee":2021,"revenu_median":21420.0},"vivrescore":87},{"code_insee":"04022","nom":"Barrême","codes_postaux":["04330"],"code_dep":"04","code_region":"93","population":413,"surface_km2":37.35,"lat":43.9467,"lon":6.386,"fibre_pct":100.0,"securite":{"taux_pour_mille":27.4,"annee":2024},"socio":{"annee":2021,"revenu_median":18260.0},"vivrescore":60},{"code_insee":"04023","nom":"Bayons","codes_postaux":["04250"],"code_dep":"04","code_region":"93","population":199,"surface_km2":126.43,"lat":44.3233,"lon":6.1832,"fibre_pct":98.8,"securite":{"taux_pour_mille":0.0,"annee":2024},"socio":{"annee":2021,"revenu_median":19430.0},"vivrescore":80},{"code_insee":"04024","nom":"Beaujeu","codes_postaux":["04420"],"code_dep":"04","code_region":"93","population":123,"surface_km2":46.07,"lat":44.2144,"lon":6.3714,"fibre_pct":98.3,"securite":{"taux_pour_mille":0.0,"annee":2024},"socio":{"annee":2021,"revenu_median":22100.0},"vivrescore":87},{"code_insee":"04025","nom":"Beauvezer","codes_postaux":["04370"],"code_dep":"04","code_region":"93","population":384,"surface_km2":27.03,"lat":44.1454,"lon":6.6051,"fibre_pct":98.0,"securite":{"taux_pour_mille":0.0,"annee":2024},"socio":{"annee":2021,"revenu_median":20620.0},"vivrescore":87},{"code_insee":"04026","nom":"Bellaffaire","codes_postaux":["04250"],"code_dep":"04","code_region":"93","population":159,"surface_km2":13.21,"lat":44.4074,"lon":6.1947,"fibre_pct":100.0,"securite":{"taux_pour_mille":0.0,"annee":2024},"socio":{"annee":2021,"revenu_median":20310.0},"vivrescore":87},{"code_insee":"04027","nom":"Bevons","codes_postaux":["04200"],"code_dep":"04","code_region":"93","population":260,"surface_km2":11.41,"lat":44.1753,"lon":5.8772,"fibre_pct":100.0,"securite":{"taux_pour_mille":0.0,"annee":2024},"socio":{"annee":2021,"revenu_median":25170.0},"vivrescore":93},{"code_insee":"04028","nom":"Beynes","codes_postaux":["04270"],"code_dep":"04","code_region":"93","population":120,"surface_km2":41.26,"lat":43.9802,"lon":6.2422,"fibre_pct":86.4,"securite":{"taux_pour_mille":0.0,"annee":2024},"socio":{"annee":2021,"revenu_median":17870.0},"vivrescore":73},{"code_insee":"04030","nom":"Blieux","codes_postaux":["04330"],"code_dep":"04","code_region":"93","population":60,"surface_km2":58.25,"lat":43.8772,"lon":6.3671,"fibre_pct":100.0,"securite":{"taux_pour_mille":0.0,"annee":2024},"vivrescore":100},{"code_insee":"04031","nom":"Bras-d'Asse","codes_postaux":["04270"],"code_dep":"04","code_region":"93","population":571,"surface_km2":26.25,"lat":43.9284,"lon":6.1278,"fibre_pct":99.6,"securite":{"taux_pour_mille":0.0,"annee":2024},"socio":{"annee":2021,"revenu_median":21210.0},"vivrescore":87},{"code_insee":"04032","nom":"Braux","codes_postaux":["04240"],"code_dep":"04","code_region":"93","population":139,"surface_km2":11.77,"lat":43.9902,"lon":6.6982,"fibre_pct":98.7,"securite":{"taux_pour_mille":0.0,"annee":2024},"socio":{"annee":2021,"revenu_median":21410.0},"vivrescore":87},{"code_insee":"04033","nom":"Ubaye-Serre-Ponçon","codes_postaux":["04340"],"code_dep":"04","code_region":"93","population":786,"surface_km2":67.58,"lat":44.4447,"lon":6.319,"fibre_pct":95.7,"securite":{"taux_pour_mille":0.0,"annee":2024},"socio":{"annee":2021,"revenu_median":19920.0},"vivrescore":80},{"code_insee":"04034","nom":"La Brillanne","codes_postaux":["04700"],"code_dep":"04","code_region":"93","population":1121,"surface_km2":6.94,"lat":43.93,"lon":5.8822,"fibre_pct":99.4,"securite":{"taux_pour_mille":41.3,"annee":2024},"socio":{"annee":2021,"revenu_median":20920.0},"vivrescore":60},{"code_insee":"04035","nom":"Brunet","codes_postaux":["04210"],"code_dep":"04","code_region":"93","population":299,"surface_km2":28.84,"lat":43.8854,"lon":6.0256,"fibre_pct":100.0,"securite":{"taux_pour_mille":0.0,"annee":2024},"socio":{"annee":2021,"revenu_median":22300.0},"vivrescore":87},{"code_insee":"04036","nom":"Le Brusquet","codes_postaux":["04420"],"code_dep":"04","code_region":"93","population":965,"surface_km2":22.3,"lat":44.1725,"lon":6.3036,"fibre_pct":84.9,"securite":{"taux_pour_mille":0.0,"annee":2024},"socio":{"annee":2021,"revenu_median":24340.0},"vivrescore":80},{"code_insee":"04037","nom":"Le Caire","codes_postaux":["04250"],"code_dep":"04","code_region":"93","population":80,"surface_km2":17.7,"lat":44.3776,"lon":6.0706,"fibre_pct":100.0,"securite":{"taux_pour_mille":0.0,"annee":2024},"vivrescore":100},{"code_insee":"04039","nom":"Castellane","codes_postaux":["04120"],"code_dep":"04","code_region":"93","population":1472,"surface_km2":122.17,"lat":43.8485,"lon":6.4871,"fibre_pct":95.2,"securite":{"taux_pour_mille":50.9,"annee":2024},"socio":{"annee":2021,"revenu_median":21120.0},"vivrescore":60},{"code_insee":"04040","nom":"Le Castellard-Mélan","codes_postaux":["04380"],"code_dep":"04","code_region":"93","population":64,"surface_km2":25.97,"lat":44.1995,"lon":6.135,"fibre_pct":75.8,"securite":{"taux_pour_mille":0.0,"annee":2024},"vivrescore":80},{"code_insee":"04041","nom":"Le Castellet","codes_postaux":["04700"],"code_dep":"04","code_region":"93","population":296,"surface_km2":18.96,"lat":43.9218,"lon":5.9798,"fibre_pct":100.0,"securite":{"taux_pour_mille":0.0,"annee":2024},"socio":{"annee":2021,"revenu_median":21410.0},"vivrescore":87},{"code_insee":"04042","nom":"Castellet-lès-Sausses","codes_postaux":["04320"],"code_dep":"04","code_region":"93","population":143,"surface_km2":54.5,"lat":44.0442,"lon":6.7436,"fibre_pct":92.6,"securite":{"taux_pour_mille":0.0,"annee":2024},"socio":{"annee":2021,"revenu_median":20510.0},"vivrescore":80},{"code_insee":"04043","nom":"Val-de-Chalvagne","codes_postaux":["04320"],"code_dep":"04","code_region":"93","population":81,"surface_km2":32.67,"lat":43.9036,"lon":6.7745,"fibre_pct":87.6,"securite":{"taux_pour_mille":0.0,"annee":2024},"vivrescore":90},{"code_insee":"04045","nom":"Céreste-en-Luberon","codes_postaux":["04280"],"code_dep":"04","code_region":"93","population":1219,"surface_km2":32.6,"lat":43.853,"lon":5.5883,"fibre_pct":91.6,"securite":{"taux_pour_mille":4.2,"annee":2024},"socio":{"annee":2021,"revenu_median":20500.0},"vivrescore":80},{"code_insee":"04046","nom":"Le Chaffaut-Saint-Jurson","codes_postaux":["04510"],"code_dep":"04","code_region":"93","population":693,"surface_km2":29.43,"lat":44.025,"lon":6.1459,"fibre_pct":97.2,"securite":{"taux_pour_mille":0.0,"annee":2024},"socio":{"annee":2021,"revenu_median":24180.0},"vivrescore":87},{"code_insee":"04047","nom":"Champtercier","codes_postaux":["04660"],"code_dep":"04","code_region":"93","population":750,"surface_km2":18.74,"lat":44.0977,"lon":6.145,"fibre_pct":97.5,"securite":{"taux_pour_mille":0.0,"annee":2024},"socio":{"annee":2021,"revenu_median":24420.0},"vivrescore":87},{"code_insee":"04049","nom":"Château-Arnoux-Saint-Auban","codes_postaux":["04160","04600"],"code_dep":"04","code_region":"93","population":5107,"surface_km2":18.53,"lat":44.0801,"lon":5.9942,"fibre_pct":100.0,"securite":{"taux_pour_mille":41.4,"annee":2024},"socio":{"annee":2021,"taux_pauvrete":17.0,"revenu_median":21080.0},"vivrescore":60},{"code_insee":"04050","nom":"Châteaufort","codes_postaux":["04250"],"code_dep":"04","code_region":"93","population":29,"surface_km2":13.81,"lat":44.2762,"lon":6.0263,"fibre_pct":96.5,"securite":{"taux_pour_mille":0.0,"annee":2024},"vivrescore":100},{"code_insee":"04051","nom":"Châteauneuf-Miravail","codes_postaux":["04200"],"code_dep":"04","code_region":"93","population":76,"surface_km2":19.64,"lat":44.1521,"lon":5.7142,"fibre_pct":98.9,"securite":{"taux_pour_mille":0.0,"annee":2024},"vivrescore":100},{"code_insee":"04053","nom":"Châteauneuf-Val-Saint-Donat","codes_postaux":["04200"],"code_dep":"04","code_region":"93","population":532,"surface_km2":21.21,"lat":44.0951,"lon":5.9289,"fibre_pct":97.3,"securite":{"taux_pour_mille":0.0,"annee":2024},"socio":{"annee":2021,"revenu_median":23770.0},"vivrescore":87},{"code_insee":"04054","nom":"Châteauredon","codes_postaux":["04270"],"code_dep":"04","code_region":"93","population":76,"surface_km2":10.64,"lat":44.0264,"lon":6.2239,"fibre_pct":100.0,"securite":{"taux_pour_mille":0.0,"annee":2024},"vivrescore":100},{"code_insee":"04055","nom":"Chaudon-Norante","codes_postaux":["04330"],"code_dep":"04","code_region":"93","population":175,"surface_km2":37.64,"lat":43.9884,"lon":6.3208,"fibre_pct":100.0,"securite":{"taux_pour_mille":0.0,"annee":2024},"socio":{"annee":2021,"revenu_median":20290.0},"vivrescore":87},{"code_insee":"04057","nom":"Clamensane","codes_postaux":["04250"],"code_dep":"04","code_region":"93","population":183,"surface_km2":23.95,"lat":44.3301,"lon":6.0784,"fibre_pct":89.0,"securite":{"taux_pour_mille":0.0,"annee":2024},"socio":{"annee":2021,"revenu_median":18900.0},"vivrescore":73},{"code_insee":"04058","nom":"Claret","codes_postaux":["05110"],"code_dep":"04","code_region":"93","population":298,"surface_km2":20.97,"lat":44.3728,"lon":5.9662,"fibre_pct":100.0,"securite":{"taux_pour_mille":0.0,"annee":2024},"socio":{"annee":2021,"revenu_median":19770.0},"vivrescore":80},{"code_insee":"04059","nom":"Clumanc","codes_postaux":["04330"],"code_dep":"04","code_region":"93","population":222,"surface_km2":53.98,"lat":44.022,"lon":6.3783,"fibre_pct":100.0,"securite":{"taux_pour_mille":0.0,"annee":2024},"socio":{"annee":2021,"revenu_median":19470.0},"vivrescore":80},{"code_insee":"04061","nom":"Colmars","codes_postaux":["04370"],"code_dep":"04","code_region":"93","population":583,"surface_km2":81.71,"lat":44.1602,"lon":6.6585,"fibre_pct":100.0,"securite":{"taux_pour_mille":0.0,"annee":2024},"socio":{"annee":2021,"revenu_median":20610.0},"vivrescore":87},{"code_insee":"04062","nom":"La Condamine-Châtelard","codes_postaux":["04530"],"code_dep":"04","code_region":"93","population":154,"surface_km2":56.64,"lat":44.4678,"lon":6.7054,"fibre_pct":85.6,"securite":{"taux_pour_mille":0.0,"annee":2024},"socio":{"annee":2021,"revenu_median":21340.0},"vivrescore":80},{"code_insee":"04063","nom":"Corbières-en-Provence","codes_postaux":["04220"],"code_dep":"04","code_region":"93","population":1317,"surface_km2":18.79,"lat":43.7593,"lon":5.7481,"fibre_pct":100.0,"securite":{"taux_pour_mille":9.3,"annee":2024},"socio":{"annee":2021,"revenu_median":24550.0},"vivrescore":80},{"code_insee":"04065","nom":"Cruis","codes_postaux":["04230"],"code_dep":"04","code_region":"93","population":655,"surface_km2":36.6,"lat":44.0845,"lon":5.8397,"fibre_pct":100.0,"securite":{"taux_pour_mille":0.0,"annee":2024},"socio":{"annee":2021,"revenu_median":20490.0},"vivrescore":87},{"code_insee":"04066","nom":"Curbans","codes_postaux":["05110"],"code_dep":"04","code_region":"93","population":575,"surface_km2":29.09,"lat":44.4132,"lon":6.0189,"fibre_pct":100.0,"securite":{"taux_pour_mille":0.0,"annee":2024},"socio":{"annee":2021,"revenu_median":23750.0},"vivrescore":87},{"code_insee":"04067","nom":"Curel","codes_postaux":["04200"],"code_dep":"04","code_region":"93","population":65,"surface_km2":10.65,"lat":44.1765,"lon":5.6717,"fibre_pct":100.0,"securite":{"taux_pour_mille":0.0,"annee":2024},"vivrescore":100},{"code_insee":"04068","nom":"Dauphin","codes_postaux":["04300"],"code_dep":"04","code_region":"93","population":838,"surface_km2":9.83,"lat":43.8947,"lon":5.7765,"fibre_pct":100.0,"securite":{"taux_pour_mille":0.0,"annee":2024},"socio":{"annee":2021,"revenu_median":24570.0},"vivrescore":87},{"code_insee":"04069","nom":"Demandolx","codes_postaux":["04120"],"code_dep":"04","code_region":"93","population":112,"surface_km2":20.55,"lat":43.8685,"lon":6.5768,"fibre_pct":98.7,"securite":{"taux_pour_mille":0.0,"annee":2024},"socio":{"annee":2021,"revenu_median":22910.0},"vivrescore":87},{"code_insee":"04070","nom":"Digne-les-Bains","codes_postaux":["04000"],"code_dep":"04","code_region":"93","population":17979,"surface_km2":105.42,"lat":44.0954,"lon":6.2495,"fibre_pct":89.3,"securite":{"taux_pour_mille":49.0,"annee":2024},"socio":{"annee":2021,"taux_pauvrete":18.0,"revenu_median":21480.0},"vivrescore":53},{"code_insee":"04072","nom":"Draix","codes_postaux":["04420"],"code_dep":"04","code_region":"93","population":114,"surface_km2":23.15,"lat":44.1331,"lon":6.375,"fibre_pct":100.0,"securite":{"taux_pour_mille":0.0,"annee":2024},"vivrescore":100},{"code_insee":"04073","nom":"Enchastrayes","codes_postaux":["04400"],"code_dep":"04","code_region":"93","population":399,"surface_km2":44.55,"lat":44.3684,"lon":6.7129,"fibre_pct":96.7,"securite":{"taux_pour_mille":0.0,"annee":2024},"socio":{"annee":2021,"revenu_median":22140.0},"vivrescore":87},{"code_insee":"04074","nom":"Entrages","codes_postaux":["04000","04270"],"code_dep":"04","code_region":"93","population":100,"surface_km2":22.62,"lat":44.0398,"lon":6.2732,"fibre_pct":100.0,"securite":{"taux_pour_mille":0.0,"annee":2024},"socio":{"annee":2021,"revenu_median":20030.0},"vivrescore":87},{"code_insee":"04075","nom":"Entrepierres","codes_postaux":["04200"],"code_dep":"04","code_region":"93","population":414,"surface_km2":48.57,"lat":44.195,"lon":6.0254,"fibre_pct":86.3,"securite":{"taux_pour_mille":0.0,"annee":2024},"socio":{"annee":2021,"revenu_median":25900.0},"vivrescore":87},{"code_insee":"04076","nom":"Entrevaux","codes_postaux":["04320"],"code_dep":"04","code_region":"93","population":769,"surface_km2":60.88,"lat":43.9522,"lon":6.8067,"fibre_pct":96.3,"securite":{"taux_pour_mille":61.9,"annee":2024},"socio":{"annee":2021,"revenu_median":20970.0},"vivrescore":60},{"code_insee":"04077","nom":"Entrevennes","codes_postaux":["04700"],"code_dep":"04","code_region":"93","population":163,"surface_km2":29.91,"lat":43.9393,"lon":6.0366,"fibre_pct":100.0,"securite":{"taux_pour_mille":0.0,"annee":2024},"socio":{"annee":2021,"revenu_median":21150.0},"vivrescore":87},{"code_insee":"04079","nom":"L'Escale","codes_postaux":["04160"],"code_dep":"04","code_region":"93","population":1427,"surface_km2":20.29,"lat":44.0777,"lon":6.0363,"fibre_pct":98.9,"securite":{"taux_pour_mille":16.4,"annee":2024},"socio":{"annee":2021,"revenu_median":23510.0},"vivrescore":73},{"code_insee":"04081","nom":"Esparron-de-Verdon","codes_postaux":["04800"],"code_dep":"04","code_region":"93","population":379,"surface_km2":36.4,"lat":43.74,"lon":5.9948,"fibre_pct":100.0,"securite":{"taux_pour_mille":0.0,"annee":2024},"socio":{"annee":2021,"revenu_median":20650.0},"vivrescore":87},{"code_insee":"04084","nom":"Estoublon","codes_postaux":["04270"],"code_dep":"04","code_region":"93","population":469,"surface_km2":34.42,"lat":43.9487,"lon":6.2004,"fibre_pct":100.0,"securite":{"taux_pour_mille":0.0,"annee":2024},"socio":{"annee":2021,"revenu_median":23060.0},"vivrescore":87},{"code_insee":"04085","nom":"Faucon-du-Caire","codes_postaux":["04250"],"code_dep":"04","code_region":"93","population":60,"surface_km2":20.06,"lat":44.3952,"lon":6.0998,"fibre_pct":100.0,"securite":{"taux_pour_mille":0.0,"annee":2024},"vivrescore":100},{"code_insee":"04086","nom":"Faucon-de-Barcelonnette","codes_postaux":["04400"],"code_dep":"04","code_region":"93","population":295,"surface_km2":17.13,"lat":44.4137,"lon":6.684,"fibre_pct":100.0,"securite":{"taux_pour_mille":0.0,"annee":2024},"socio":{"annee":2021,"revenu_median":21400.0},"vivrescore":87},{"code_insee":"04087","nom":"Fontienne","codes_postaux":["04230"],"code_dep":"04","code_region":"93","population":129,"surface_km2":8.22,"lat":44.0076,"lon":5.7897,"fibre_pct":100.0,"securite":{"taux_pour_mille":0.0,"annee":2024},"socio":{"annee":2021,"revenu_median":21610.0},"vivrescore":87},{"code_insee":"04088","nom":"Forcalquier","codes_postaux":["04300"],"code_dep":"04","code_region":"93","population":5222,"surface_km2":43.31,"lat":43.9582,"lon":5.7842,"fibre_pct":98.9,"securite":{"taux_pour_mille":34.4,"annee":2024},"socio":{"annee":2021,"taux_pauvrete":20.0,"revenu_median":20570.0},"vivrescore":67},{"code_insee":"04090","nom":"Le Fugeret","codes_postaux":["04240"],"code_dep":"04","code_region":"93","population":196,"surface_km2":28.42,"lat":44.0183,"lon":6.6627,"fibre_pct":98.8,"securite":{"taux_pour_mille":0.0,"annee":2024},"socio":{"annee":2021,"revenu_median":18110.0},"vivrescore":80},{"code_insee":"04091","nom":"Ganagobie","codes_postaux":["04310"],"code_dep":"04","code_region":"93","population":89,"surface_km2":10.58,"lat":44.0026,"lon":5.9113,"fibre_pct":100.0,"securite":{"taux_pour_mille":0.0,"annee":2024},"vivrescore":100},{"code_insee":"04092","nom":"La Garde","codes_postaux":["04120"],"code_dep":"04","code_region":"93","population":121,"surface_km2":16.79,"lat":43.8256,"lon":6.5662,"fibre_pct":93.2,"securite":{"taux_pour_mille":0.0,"annee":2024},"vivrescore":90},{"code_insee":"04093","nom":"Gigors","codes_postaux":["04250"],"code_dep":"04","code_region":"93","population":58,"surface_km2":13.8,"lat":44.4243,"lon":6.1422,"fibre_pct":77.6,"securite":{"taux_pour_mille":0.0,"annee":2024},"vivrescore":80},{"code_insee":"04094","nom":"Gréoux-les-Bains","codes_postaux":["04800"],"code_dep":"04","code_region":"93","population":3084,"surface_km2":69.59,"lat":43.7628,"lon":5.8597,"fibre_pct":92.1,"securite":{"taux_pour_mille":50.8,"annee":2024},"socio":{"annee":2021,"revenu_median":22240.0,"taux_pauvrete":16.0},"vivrescore":53},{"code_insee":"04095","nom":"L'Hospitalet","codes_postaux":["04150"],"code_dep":"04","code_region":"93","population":99,"surface_km2":19.64,"lat":44.1068,"lon":5.7078,"fibre_pct":100.0,"securite":{"taux_pour_mille":0.0,"annee":2024},"vivrescore":100},{"code_insee":"04096","nom":"Jausiers","codes_postaux":["04850"],"code_dep":"04","code_region":"93","population":1146,"surface_km2":108.3,"lat":44.3795,"lon":6.7745,"fibre_pct":97.9,"securite":{"taux_pour_mille":7.9,"annee":2024},"socio":{"annee":2021,"revenu_median":21510.0},"vivrescore":80},{"code_insee":"04097","nom":"La Javie","codes_postaux":["04000","04420"],"code_dep":"04","code_region":"93","population":376,"surface_km2":37.42,"lat":44.197,"lon":6.3183,"fibre_pct":98.0,"securite":{"taux_pour_mille":0.0,"annee":2024},"socio":{"annee":2021,"revenu_median":21710.0},"vivrescore":87},{"code_insee":"04099","nom":"Lambruisse","codes_postaux":["04170"],"code_dep":"04","code_region":"93","population":92,"surface_km2":21.97,"lat":44.0484,"lon":6.4538,"fibre_pct":97.5,"securite":{"taux_pour_mille":0.0,"annee":2024},"socio":{"annee":2021,"revenu_median":19760.0},"vivrescore":80},{"code_insee":"04101","nom":"Lardiers","codes_postaux":["04230"],"code_dep":"04","code_region":"93","population":143,"surface_km2":30.22,"lat":44.0846,"lon":5.7228,"fibre_pct":100.0,"securite":{"taux_pour_mille":0.0,"annee":2024},"socio":{"annee":2021,"revenu_median":16780.0},"vivrescore":80},{"code_insee":"04102","nom":"Le Lauzet-Ubaye","codes_postaux":["04340"],"code_dep":"04","code_region":"93","population":229,"surface_km2":67.33,"lat":44.4255,"lon":6.4052,"fibre_pct":97.0,"securite":{"taux_pour_mille":0.0,"annee":2024},"socio":{"annee":2021,"revenu_median":18050.0},"vivrescore":80},{"code_insee":"04104","nom":"Limans","codes_postaux":["04300"],"code_dep":"04","code_region":"93","population":385,"surface_km2":20.97,"lat":43.986,"lon":5.7188,"fibre_pct":90.3,"securite":{"taux_pour_mille":0.0,"annee":2024},"socio":{"annee":2021,"revenu_median":18550.0},"vivrescore":73},{"code_insee":"04106","nom":"Lurs","codes_postaux":["04700"],"code_dep":"04","code_region":"93","population":385,"surface_km2":22.51,"lat":43.9674,"lon":5.878,"fibre_pct":91.1,"securite":{"taux_pour_mille":0.0,"annee":2024},"socio":{"annee":2021,"revenu_median":23840.0},"vivrescore":80},{"code_insee":"04107","nom":"Majastres","codes_postaux":["04270"],"code_dep":"04","code_region":"93","population":5,"surface_km2":30.19,"lat":43.8937,"lon":6.2773,"fibre_pct":71.5,"securite":{"taux_pour_mille":0.0,"annee":2024},"vivrescore":80},{"code_insee":"04108","nom":"Malijai","codes_postaux":["04350","04510"],"code_dep":"04","code_region":"93","population":2020,"surface_km2":26.64,"lat":44.0392,"lon":6.052,"fibre_pct":99.5,"securite":{"taux_pour_mille":24.3,"annee":2024},"socio":{"annee":2021,"revenu_median":21250.0},"vivrescore":73},{"code_insee":"04109","nom":"Mallefougasse-Augès","codes_postaux":["04230"],"code_dep":"04","code_region":"93","population":327,"surface_km2":19.49,"lat":44.0766,"lon":5.8998,"fibre_pct":100.0,"securite":{"taux_pour_mille":0.0,"annee":2024},"socio":{"annee":2021,"revenu_median":23980.0},"vivrescore":87},{"code_insee":"04110","nom":"Mallemoisson","codes_postaux":["04510"],"code_dep":"04","code_region":"93","population":957,"surface_km2":6.45,"lat":44.0432,"lon":6.1201,"fibre_pct":93.0,"securite":{"taux_pour_mille":18.6,"annee":2024},"socio":{"annee":2021,"revenu_median":23800.0},"vivrescore":67},{"code_insee":"04111","nom":"Mane","codes_postaux":["04300"],"code_dep":"04","code_region":"93","population":1410,"surface_km2":21.93,"lat":43.9426,"lon":5.7419,"fibre_pct":99.9,"securite":{"taux_pour_mille":39.6,"annee":2024},"socio":{"annee":2021,"revenu_median":21340.0},"vivrescore":67},{"code_insee":"04112","nom":"Manosque","codes_postaux":["04100"],"code_dep":"04","code_region":"93","population":22718,"surface_km2":56.76,"lat":43.8293,"lon":5.7896,"fibre_pct":99.1,"securite":{"taux_pour_mille":60.5,"annee":2024},"socio":{"annee":2021,"taux_pauvrete":21.0,"revenu_median":21170.0},"vivrescore":60},{"code_insee":"04113","nom":"Marcoux","codes_postaux":["04420"],"code_dep":"04","code_region":"93","population":466,"surface_km2":32.86,"lat":44.1287,"lon":6.2818,"fibre_pct":89.8,"securite":{"taux_pour_mille":0.0,"annee":2024},"socio":{"annee":2021,"revenu_median":24140.0},"vivrescore":80},{"code_insee":"04115","nom":"Méailles","codes_postaux":["04240"],"code_dep":"04","code_region":"93","population":124,"surface_km2":32.88,"lat":44.0432,"lon":6.6475,"fibre_pct":96.2,"securite":{"taux_pour_mille":0.0,"annee":2024},"socio":{"annee":2021,"revenu_median":18740.0},"vivrescore":80},{"code_insee":"04116","nom":"Les Mées","codes_postaux":["04190"],"code_dep":"04","code_region":"93","population":4099,"surface_km2":64.7,"lat":43.9956,"lon":5.9679,"fibre_pct":97.4,"securite":{"taux_pour_mille":27.1,"annee":2024},"socio":{"annee":2021,"taux_pauvrete":17.0,"revenu_median":21460.0},"vivrescore":67},{"code_insee":"04118","nom":"Melve","codes_postaux":["04250"],"code_dep":"04","code_region":"93","population":131,"surface_km2":14.2,"lat":44.3546,"lon":5.9895,"fibre_pct":96.4,"securite":{"taux_pour_mille":0.0,"annee":2024},"socio":{"annee":2021,"revenu_median":19170.0},"vivrescore":80},{"code_insee":"04120","nom":"Val d'Oronaye","codes_postaux":["04530"],"code_dep":"04","code_region":"93","population":87,"surface_km2":110.94,"lat":44.43,"lon":6.8559,"fibre_pct":93.1,"securite":{"taux_pour_mille":0.0,"annee":2024},"vivrescore":90},{"code_insee":"04121","nom":"Mézel","codes_postaux":["04270"],"code_dep":"04","code_region":"93","population":611,"surface_km2":21.71,"lat":43.9979,"lon":6.1799,"fibre_pct":88.7,"securite":{"taux_pour_mille":25.9,"annee":2024},"socio":{"annee":2021,"revenu_median":22540.0},"vivrescore":60},{"code_insee":"04122","nom":"Mirabeau","codes_postaux":["04510"],"code_dep":"04","code_region":"93","population":522,"surface_km2":19.06,"lat":44.0608,"lon":6.0826,"fibre_pct":100.0,"securite":{"taux_pour_mille":0.0,"annee":2024},"socio":{"annee":2021,"revenu_median":24700.0},"vivrescore":87},{"code_insee":"04123","nom":"Mison","codes_postaux":["04200"],"code_dep":"04","code_region":"93","population":1112,"surface_km2":31.64,"lat":44.2629,"lon":5.8676,"fibre_pct":98.0,"securite":{"taux_pour_mille":15.2,"annee":2024},"socio":{"annee":2021,"revenu_median":22860.0},"vivrescore":73},{"code_insee":"04124","nom":"Montagnac-Montpezat","codes_postaux":["04500"],"code_dep":"04","code_region":"93","population":401,"surface_km2":35.09,"lat":43.7631,"lon":6.0944,"fibre_pct":97.6,"securite":{"taux_pour_mille":0.0,"annee":2024},"socio":{"annee":2021,"revenu_median":20900.0},"vivrescore":87},{"code_insee":"04126","nom":"Montclar","codes_postaux":["04140"],"code_dep":"04","code_region":"93","population":394,"surface_km2":23.38,"lat":44.4004,"lon":6.3428,"fibre_pct":95.1,"securite":{"taux_pour_mille":0.0,"annee":2024},"socio":{"annee":2021,"revenu_median":21240.0},"vivrescore":87},{"code_insee":"04127","nom":"Montfort","codes_postaux":["04600"],"code_dep":"04","code_region":"93","population":343,"surface_km2":12.49,"lat":44.0551,"lon":5.9505,"fibre_pct":100.0,"securite":{"taux_pour_mille":0.0,"annee":2024},"socio":{"annee":2021,"revenu_median":21530.0},"vivrescore":87},{"code_insee":"04128","nom":"Montfuron","codes_postaux":["04110"],"code_dep":"04","code_region":"93","population":217,"surface_km2":18.91,"lat":43.8289,"lon":5.6901,"fibre_pct":93.3,"securite":{"taux_pour_mille":0.0,"annee":2024},"socio":{"annee":2021,"revenu_median":24830.0},"vivrescore":80},{"code_insee":"04129","nom":"Montjustin","codes_postaux":["04110"],"code_dep":"04","code_region":"93","population":54,"surface_km2":10.18,"lat":43.8436,"lon":5.6584,"fibre_pct":100.0,"securite":{"taux_pour_mille":0.0,"annee":2024},"vivrescore":100},{"code_insee":"04130","nom":"Montlaux","codes_postaux":["04230"],"code_dep":"04","code_region":"93","population":209,"surface_km2":19.83,"lat":44.0405,"lon":5.8443,"fibre_pct":94.3,"securite":{"taux_pour_mille":0.0,"annee":2024},"socio":{"annee":2021,"revenu_median":20150.0},"vivrescore":80},{"code_insee":"04132","nom":"Montsalier","codes_postaux":["04150"],"code_dep":"04","code_region":"93","population":167,"surface_km2":23.96,"lat":44.0232,"lon":5.5896,"fibre_pct":85.2,"securite":{"taux_pour_mille":0.0,"annee":2024},"socio":{"annee":2021,"revenu_median":21960.0},"vivrescore":80},{"code_insee":"04133","nom":"Moriez","codes_postaux":["04170"],"code_dep":"04","code_region":"93","population":238,"surface_km2":37.38,"lat":43.963,"lon":6.462,"fibre_pct":100.0,"securite":{"taux_pour_mille":0.0,"annee":2024},"socio":{"annee":2021,"revenu_median":19020.0},"vivrescore":80},{"code_insee":"04134","nom":"La Motte-du-Caire","codes_postaux":["04250"],"code_dep":"04","code_region":"93","population":546,"surface_km2":27.35,"lat":44.3412,"lon":6.0406,"fibre_pct":89.0,"securite":{"taux_pour_mille":23.9,"annee":2024},"socio":{"annee":2021,"revenu_median":20990.0},"vivrescore":67},{"code_insee":"04135","nom":"Moustiers-Sainte-Marie","codes_postaux":["04360"],"code_dep":"04","code_region":"93","population":683,"surface_km2":90.47,"lat":43.837,"lon":6.2289,"fibre_pct":99.3,"securite":{"taux_pour_mille":74.8,"annee":2024},"socio":{"annee":2021,"revenu_median":20670.0},"vivrescore":60},{"code_insee":"04136","nom":"La Mure-Argens","codes_postaux":["04170"],"code_dep":"04","code_region":"93","population":345,"surface_km2":34.98,"lat":44.0186,"lon":6.5295,"fibre_pct":100.0,"securite":{"taux_pour_mille":0.0,"annee":2024},"socio":{"annee":2021,"revenu_median":23340.0},"vivrescore":87},{"code_insee":"04137","nom":"Nibles","codes_postaux":["04250"],"code_dep":"04","code_region":"93","population":54,"surface_km2":12.34,"lat":44.2882,"lon":6.0095,"fibre_pct":100.0,"securite":{"taux_pour_mille":0.0,"annee":2024},"vivrescore":100},{"code_insee":"04138","nom":"Niozelles","codes_postaux":["04300"],"code_dep":"04","code_region":"93","population":274,"surface_km2":10.61,"lat":43.933,"lon":5.8445,"fibre_pct":79.0,"securite":{"taux_pour_mille":0.0,"annee":2024},"socio":{"annee":2021,"revenu_median":22130.0},"vivrescore":73},{"code_insee":"04139","nom":"Noyers-sur-Jabron","codes_postaux":["04200"],"code_dep":"04","code_region":"93","population":525,"surface_km2":56.74,"lat":44.1644,"lon":5.8078,"fibre_pct":99.7,"securite":{"taux_pour_mille":13.3,"annee":2024},"socio":{"annee":2021,"revenu_median":22230.0},"vivrescore":80},{"code_insee":"04140","nom":"Les Omergues","codes_postaux":["04200"],"code_dep":"04","code_region":"93","population":135,"surface_km2":34.34,"lat":44.1513,"lon":5.5933,"fibre_pct":90.6,"securite":{"taux_pour_mille":0.0,"annee":2024},"socio":{"annee":2021,"revenu_median":23990.0},"vivrescore":80},{"code_insee":"04141","nom":"Ongles","codes_postaux":["04230"],"code_dep":"04","code_region":"93","population":358,"surface_km2":31.71,"lat":44.039,"lon":5.7249,"fibre_pct":100.0,"securite":{"taux_pour_mille":0.0,"annee":2024},"socio":{"annee":2021,"revenu_median":21230.0},"vivrescore":87},{"code_insee":"04142","nom":"Oppedette","codes_postaux":["04110"],"code_dep":"04","code_region":"93","population":43,"surface_km2":8.59,"lat":43.9304,"lon":5.5906,"fibre_pct":100.0,"securite":{"taux_pour_mille":0.0,"annee":2024},"vivrescore":100},{"code_insee":"04143","nom":"Oraison","codes_postaux":["04700"],"code_dep":"04","code_region":"93","population":6155,"surface_km2":38.68,"lat":43.9116,"lon":5.9232,"fibre_pct":99.1,"securite":{"taux_pour_mille":39.7,"annee":2024},"socio":{"annee":2021,"revenu_median":23050.0,"taux_pauvrete":12.0},"vivrescore":67},{"code_insee":"04144","nom":"La Palud-sur-Verdon","codes_postaux":["04120"],"code_dep":"04","code_region":"93","population":347,"surface_km2":81.73,"lat":43.801,"lon":6.323,"fibre_pct":97.4,"securite":{"taux_pour_mille":0.0,"annee":2024},"socio":{"annee":2021,"revenu_median":18290.0},"vivrescore":80},{"code_insee":"04145","nom":"Peipin","codes_postaux":["04200"],"code_dep":"04","code_region":"93","population":1506,"surface_km2":13.48,"lat":44.1407,"lon":5.9447,"fibre_pct":99.2,"securite":{"taux_pour_mille":12.7,"annee":2024},"socio":{"annee":2021,"revenu_median":21980.0},"vivrescore":80},{"code_insee":"04148","nom":"Peyroules","codes_postaux":["04120"],"code_dep":"04","code_region":"93","population":255,"surface_km2":33.44,"lat":43.8168,"lon":6.6495,"fibre_pct":94.7,"securite":{"taux_pour_mille":0.0,"annee":2024},"socio":{"annee":2021,"revenu_median":19750.0},"vivrescore":73},{"code_insee":"04149","nom":"Peyruis","codes_postaux":["04310"],"code_dep":"04","code_region":"93","population":2798,"surface_km2":23.35,"lat":44.0351,"lon":5.9306,"fibre_pct":99.4,"securite":{"taux_pour_mille":24.0,"annee":2024},"socio":{"annee":2021,"revenu_median":22080.0,"taux_pauvrete":14.0},"vivrescore":73},{"code_insee":"04150","nom":"Piégut","codes_postaux":["05130"],"code_dep":"04","code_region":"93","population":201,"surface_km2":11.11,"lat":44.4546,"lon":6.1321,"fibre_pct":100.0,"securite":{"taux_pour_mille":43.3,"annee":2024},"socio":{"annee":2021,"revenu_median":18730.0},"vivrescore":53},{"code_insee":"04151","nom":"Pierrerue","codes_postaux":["04300"],"code_dep":"04","code_region":"93","population":529,"surface_km2":10.97,"lat":43.9645,"lon":5.8394,"fibre_pct":97.9,"securite":{"taux_pour_mille":0.0,"annee":2024},"socio":{"annee":2021,"revenu_median":23110.0},"vivrescore":87},{"code_insee":"04152","nom":"Pierrevert","codes_postaux":["04860"],"code_dep":"04","code_region":"93","population":3945,"surface_km2":27.87,"lat":43.808,"lon":5.725,"fibre_pct":100.0,"securite":{"taux_pour_mille":18.3,"annee":2024},"socio":{"annee":2021,"revenu_median":27990.0,"taux_pauvrete":7.0},"vivrescore":80},{"code_insee":"04154","nom":"Pontis","codes_postaux":["05160"],"code_dep":"04","code_region":"93","population":96,"surface_km2":16.1,"lat":44.4984,"lon":6.3704,"fibre_pct":57.3,"securite":{"taux_pour_mille":0.0,"annee":2024},"vivrescore":70},{"code_insee":"04155","nom":"Prads-Haute-Bléone","codes_postaux":["04420"],"code_dep":"04","code_region":"93","population":172,"surface_km2":166.93,"lat":44.2135,"lon":6.4598,"fibre_pct":97.5,"securite":{"taux_pour_mille":0.0,"annee":2024},"socio":{"annee":2021,"revenu_median":19160.0},"vivrescore":80},{"code_insee":"04156","nom":"Puimichel","codes_postaux":["04700"],"code_dep":"04","code_region":"93","population":246,"surface_km2":37.11,"lat":43.9803,"lon":6.0245,"fibre_pct":97.7,"securite":{"taux_pour_mille":0.0,"annee":2024},"socio":{"annee":2021,"revenu_median":22910.0},"vivrescore":87},{"code_insee":"04157","nom":"Puimoisson","codes_postaux":["04410"],"code_dep":"04","code_region":"93","population":694,"surface_km2":35.53,"lat":43.8687,"lon":6.1216,"fibre_pct":99.1,"securite":{"taux_pour_mille":0.0,"annee":2024},"socio":{"annee":2021,"revenu_median":21770.0},"vivrescore":87},{"code_insee":"04158","nom":"Quinson","codes_postaux":["04500"],"code_dep":"04","code_region":"93","population":368,"surface_km2":28.52,"lat":43.7048,"lon":6.0236,"fibre_pct":95.6,"securite":{"taux_pour_mille":0.0,"annee":2024},"socio":{"annee":2021,"revenu_median":18920.0},"vivrescore":80},{"code_insee":"04159","nom":"Redortiers","codes_postaux":["04150"],"code_dep":"04","code_region":"93","population":88,"surface_km2":46.1,"lat":44.0982,"lon":5.6111,"fibre_pct":86.6,"securite":{"taux_pour_mille":0.0,"annee":2024},"vivrescore":90},{"code_insee":"04160","nom":"Reillanne","codes_postaux":["04110"],"code_dep":"04","code_region":"93","population":1730,"surface_km2":39.1,"lat":43.8884,"lon":5.6565,"fibre_pct":98.9,"securite":{"taux_pour_mille":13.3,"annee":2024},"socio":{"annee":2021,"revenu_median":21480.0},"vivrescore":80},{"code_insee":"04161","nom":"Méolans-Revel","codes_postaux":["04340"],"code_dep":"04","code_region":"93","population":321,"surface_km2":128.03,"lat":44.3688,"lon":6.4988,"fibre_pct":99.8,"securite":{"taux_pour_mille":0.0,"annee":2024},"socio":{"annee":2021,"revenu_median":20160.0},"vivrescore":87},{"code_insee":"04162","nom":"Revest-des-Brousses","codes_postaux":["04150"],"code_dep":"04","code_region":"93","population":267,"surface_km2":23.06,"lat":43.9805,"lon":5.6742,"fibre_pct":94.6,"securite":{"taux_pour_mille":0.0,"annee":2024},"socio":{"annee":2021,"revenu_median":20230.0},"vivrescore":80},{"code_insee":"04163","nom":"Revest-du-Bion","codes_postaux":["04150"],"code_dep":"04","code_region":"93","population":480,"surface_km2":43.8,"lat":44.1024,"lon":5.5439,"fibre_pct":99.3,"securite":{"taux_pour_mille":0.0,"annee":2024},"socio":{"annee":2021,"revenu_median":20790.0},"vivrescore":87},{"code_insee":"04164","nom":"Revest-Saint-Martin","codes_postaux":["04230"],"code_dep":"04","code_region":"93","population":79,"surface_km2":7.56,"lat":44.0228,"lon":5.8258,"fibre_pct":100.0,"securite":{"taux_pour_mille":0.0,"annee":2024},"vivrescore":100},{"code_insee":"04166","nom":"Riez","codes_postaux":["04500"],"code_dep":"04","code_region":"93","population":1610,"surface_km2":40.37,"lat":43.8358,"lon":6.0849,"fibre_pct":98.7,"securite":{"taux_pour_mille":46.8,"annee":2024},"socio":{"annee":2021,"revenu_median":20130.0},"vivrescore":60},{"code_insee":"04167","nom":"La Robine-sur-Galabre","codes_postaux":["04000"],"code_dep":"04","code_region":"93","population":301,"surface_km2":60.77,"lat":44.1883,"lon":6.2328,"fibre_pct":99.1,"securite":{"taux_pour_mille":0.0,"annee":2024},"socio":{"annee":2021,"revenu_median":23480.0},"vivrescore":87},{"code_insee":"04169","nom":"La Rochegiron","codes_postaux":["04150"],"code_dep":"04","code_region":"93","population":109,"surface_km2":30.17,"lat":44.1061,"lon":5.6654,"fibre_pct":97.2,"securite":{"taux_pour_mille":0.0,"annee":2024},"vivrescore":100},{"code_insee":"04170","nom":"La Rochette","codes_postaux":["06260"],"code_dep":"04","code_region":"93","population":74,"surface_km2":18.68,"lat":43.9097,"lon":6.875,"fibre_pct":96.2,"securite":{"taux_pour_mille":0.0,"annee":2024},"vivrescore":100},{"code_insee":"04171","nom":"Rougon","codes_postaux":["04120"],"code_dep":"04","code_region":"93","population":115,"surface_km2":36.0,"lat":43.7866,"lon":6.3951,"fibre_pct":83.1,"securite":{"taux_pour_mille":0.0,"annee":2024},"vivrescore":90},{"code_insee":"04172","nom":"Roumoules","codes_postaux":["04500"],"code_dep":"04","code_region":"93","population":725,"surface_km2":26.2,"lat":43.8196,"lon":6.1526,"fibre_pct":98.7,"securite":{"taux_pour_mille":0.0,"annee":2024},"socio":{"annee":2021,"revenu_median":20550.0},"vivrescore":87},{"code_insee":"04173","nom":"Saint-André-les-Alpes","codes_postaux":["04170"],"code_dep":"04","code_region":"93","population":1029,"surface_km2":49.2,"lat":43.9711,"lon":6.5043,"fibre_pct":99.3,"securite":{"taux_pour_mille":21.4,"annee":2024},"socio":{"annee":2021,"revenu_median":23120.0},"vivrescore":73},{"code_insee":"04174","nom":"Saint-Benoît","codes_postaux":["04240"],"code_dep":"04","code_region":"93","population":166,"surface_km2":20.95,"lat":43.96,"lon":6.7282,"fibre_pct":100.0,"securite":{"taux_pour_mille":0.0,"annee":2024},"socio":{"annee":2021,"revenu_median":24060.0},"vivrescore":87},{"code_insee":"04175","nom":"Sainte-Croix-à-Lauze","codes_postaux":["04110"],"code_dep":"04","code_region":"93","population":87,"surface_km2":8.69,"lat":43.9054,"lon":5.6152,"fibre_pct":95.1,"securite":{"taux_pour_mille":0.0,"annee":2024},"vivrescore":100},{"code_insee":"04176","nom":"Sainte-Croix-du-Verdon","codes_postaux":["04500"],"code_dep":"04","code_region":"93","population":113,"surface_km2":19.89,"lat":43.762,"lon":6.1502,"fibre_pct":86.0,"securite":{"taux_pour_mille":0.0,"annee":2024},"socio":{"annee":2021,"revenu_median":23000.0},"vivrescore":80},{"code_insee":"04177","nom":"Hautes-Duyes","codes_postaux":["04380"],"code_dep":"04","code_region":"93","population":53,"surface_km2":23.07,"lat":44.1969,"lon":6.1719,"fibre_pct":100.0,"securite":{"taux_pour_mille":0.0,"annee":2024},"vivrescore":100},{"code_insee":"04178","nom":"Saint-Étienne-les-Orgues","codes_postaux":["04230"],"code_dep":"04","code_region":"93","population":1286,"surface_km2":48.75,"lat":44.0648,"lon":5.7798,"fibre_pct":99.7,"securite":{"taux_pour_mille":14.6,"annee":2024},"socio":{"annee":2021,"revenu_median":20660.0},"vivrescore":80},{"code_insee":"04179","nom":"Saint-Geniez","codes_postaux":["04200"],"code_dep":"04","code_region":"93","population":112,"surface_km2":38.93,"lat":44.2368,"lon":6.0526,"fibre_pct":99.5,"securite":{"taux_pour_mille":0.0,"annee":2024},"socio":{"annee":2021,"revenu_median":18700.0},"vivrescore":80},{"code_insee":"04180","nom":"Saint-Jacques","codes_postaux":["04330"],"code_dep":"04","code_region":"93","population":67,"surface_km2":4.7,"lat":43.9759,"lon":6.369,"fibre_pct":100.0,"securite":{"taux_pour_mille":0.0,"annee":2024},"vivrescore":100},{"code_insee":"04181","nom":"Saint-Jeannet","codes_postaux":["04270"],"code_dep":"04","code_region":"93","population":50,"surface_km2":29.14,"lat":43.9778,"lon":6.1119,"fibre_pct":98.5,"securite":{"taux_pour_mille":0.0,"annee":2024},"vivrescore":100},{"code_insee":"04182","nom":"Saint-Julien-d'Asse","codes_postaux":["04270"],"code_dep":"04","code_region":"93","population":232,"surface_km2":25.69,"lat":43.9386,"lon":6.071,"fibre_pct":37.3,"securite":{"taux_pour_mille":0.0,"annee":2024},"socio":{"annee":2021,"revenu_median":21920.0},"vivrescore":60},{"code_insee":"04183","nom":"Saint-Julien-du-Verdon","codes_postaux":["04170"],"code_dep":"04","code_region":"93","population":179,"surface_km2":7.51,"lat":43.9122,"lon":6.5472,"fibre_pct":100.0,"securite":{"taux_pour_mille":0.0,"annee":2024},"socio":{"annee":2021,"revenu_median":20650.0},"vivrescore":87},{"code_insee":"04184","nom":"Saint-Jurs","codes_postaux":["04410"],"code_dep":"04","code_region":"93","population":140,"surface_km2":33.55,"lat":43.8972,"lon":6.1987,"fibre_pct":91.9,"securite":{"taux_pour_mille":0.0,"annee":2024},"socio":{"annee":2021,"revenu_median":18850.0},"vivrescore":73},{"code_insee":"04186","nom":"Saint-Laurent-du-Verdon","codes_postaux":["04500"],"code_dep":"04","code_region":"93","population":82,"surface_km2":9.54,"lat":43.721,"lon":6.0702,"fibre_pct":100.0,"securite":{"taux_pour_mille":0.0,"annee":2024},"vivrescore":100},{"code_insee":"04187","nom":"Saint-Lions","codes_postaux":["04330"],"code_dep":"04","code_region":"93","population":38,"surface_km2":11.56,"lat":43.978,"lon":6.4045,"fibre_pct":100.0,"securite":{"taux_pour_mille":0.0,"annee":2024},"vivrescore":100},{"code_insee":"04188","nom":"Saint-Maime","codes_postaux":["04300"],"code_dep":"04","code_region":"93","population":923,"surface_km2":7.65,"lat":43.8981,"lon":5.7988,"fibre_pct":100.0,"securite":{"taux_pour_mille":0.0,"annee":2024},"socio":{"annee":2021,"revenu_median":22120.0},"vivrescore":87},{"code_insee":"04189","nom":"Saint-Martin-de-Brômes","codes_postaux":["04800"],"code_dep":"04","code_region":"93","population":625,"surface_km2":21.28,"lat":43.782,"lon":5.9622,"fibre_pct":98.4,"securite":{"taux_pour_mille":0.0,"annee":2024},"socio":{"annee":2021,"revenu_median":21530.0},"vivrescore":87},{"code_insee":"04190","nom":"Saint-Martin-les-Eaux","codes_postaux":["04300"],"code_dep":"04","code_region":"93","population":120,"surface_km2":9.2,"lat":43.8693,"lon":5.7429,"fibre_pct":100.0,"securite":{"taux_pour_mille":0.0,"annee":2024},"socio":{"annee":2021,"revenu_median":21630.0},"vivrescore":87},{"code_insee":"04191","nom":"Saint-Martin-lès-Seyne","codes_postaux":["04140"],"code_dep":"04","code_region":"93","population":7,"surface_km2":12.22,"lat":44.3858,"lon":6.2527,"fibre_pct":84.5,"securite":{"taux_pour_mille":0.0,"annee":2024},"vivrescore":90},{"code_insee":"04192","nom":"Saint-Michel-l'Observatoire","codes_postaux":["04870"],"code_dep":"04","code_region":"93","population":1329,"surface_km2":28.21,"lat":43.9135,"lon":5.7276,"fibre_pct":99.4,"securite":{"taux_pour_mille":0.0,"annee":2024},"socio":{"annee":2021,"revenu_median":22620.0},"vivrescore":87},{"code_insee":"04193","nom":"Saint-Paul-sur-Ubaye","codes_postaux":["04530"],"code_dep":"04","code_region":"93","population":215,"surface_km2":206.11,"lat":44.5647,"lon":6.8188,"fibre_pct":98.0,"securite":{"taux_pour_mille":0.0,"annee":2024},"socio":{"annee":2021,"revenu_median":21560.0},"vivrescore":87},{"code_insee":"04194","nom":"Saint-Pierre","codes_postaux":["06260"],"code_dep":"04","code_region":"93","population":99,"surface_km2":5.48,"lat":43.9114,"lon":6.922,"fibre_pct":100.0,"securite":{"taux_pour_mille":0.0,"annee":2024},"socio":{"annee":2021,"revenu_median":19380.0},"vivrescore":80},{"code_insee":"04195","nom":"Saint-Pons","codes_postaux":["04400"],"code_dep":"04","code_region":"93","population":631,"surface_km2":32.08,"lat":44.416,"lon":6.6163,"fibre_pct":93.2,"securite":{"taux_pour_mille":0.0,"annee":2024},"socio":{"annee":2021,"revenu_median":23310.0},"vivrescore":80},{"code_insee":"04197","nom":"Sainte-Tulle","codes_postaux":["04220"],"code_dep":"04","code_region":"93","population":3558,"surface_km2":17.09,"lat":43.7822,"lon":5.7662,"fibre_pct":99.2,"securite":{"taux_pour_mille":32.9,"annee":2024},"socio":{"annee":2021,"taux_pauvrete":16.0,"revenu_median":22180.0},"vivrescore":67},{"code_insee":"04199","nom":"Saint-Vincent-sur-Jabron","codes_postaux":["04200"],"code_dep":"04","code_region":"93","population":167,"surface_km2":30.37,"lat":44.1674,"lon":5.7425,"fibre_pct":100.0,"securite":{"taux_pour_mille":0.0,"annee":2024},"socio":{"annee":2021,"revenu_median":21690.0},"vivrescore":87},{"code_insee":"04200","nom":"Salignac","codes_postaux":["04290"],"code_dep":"04","code_region":"93","population":678,"surface_km2":14.39,"lat":44.1546,"lon":5.9889,"fibre_pct":91.5,"securite":{"taux_pour_mille":0.0,"annee":2024},"socio":{"annee":2021,"revenu_median":23880.0},"vivrescore":80},{"code_insee":"04201","nom":"Saumane","codes_postaux":["04150"],"code_dep":"04","code_region":"93","population":130,"surface_km2":3.22,"lat":44.0829,"lon":5.6808,"fibre_pct":100.0,"securite":{"taux_pour_mille":0.0,"annee":2024},"socio":{"annee":2021,"revenu_median":21070.0},"vivrescore":87},{"code_insee":"04202","nom":"Sausses","codes_postaux":["04320"],"code_dep":"04","code_region":"93","population":131,"surface_km2":14.91,"lat":44.013,"lon":6.7861,"fibre_pct":100.0,"securite":{"taux_pour_mille":0.0,"annee":2024},"socio":{"annee":2021,"revenu_median":20210.0},"vivrescore":87},{"code_insee":"04203","nom":"Selonnet","codes_postaux":["04140"],"code_dep":"04","code_region":"93","population":443,"surface_km2":29.76,"lat":44.3713,"lon":6.299,"fibre_pct":97.0,"securite":{"taux_pour_mille":0.0,"annee":2024},"socio":{"annee":2021,"revenu_median":19390.0},"vivrescore":80},{"code_insee":"04204","nom":"Senez","codes_postaux":["04270","04330"],"code_dep":"04","code_region":"93","population":154,"surface_km2":71.23,"lat":43.9229,"lon":6.3645,"fibre_pct":100.0,"securite":{"taux_pour_mille":0.0,"annee":2024},"socio":{"annee":2021,"revenu_median":21210.0},"vivrescore":87},{"code_insee":"04205","nom":"Seyne","codes_postaux":["04140"],"code_dep":"04","code_region":"93","population":1379,"surface_km2":86.33,"lat":44.3435,"lon":6.3802,"fibre_pct":99.7,"securite":{"taux_pour_mille":17.6,"annee":2024},"socio":{"annee":2021,"revenu_median":20830.0},"vivrescore":73},{"code_insee":"04206","nom":"Sigonce","codes_postaux":["04300"],"code_dep":"04","code_region":"93","population":419,"surface_km2":20.32,"lat":44.0087,"lon":5.8505,"fibre_pct":100.0,"securite":{"taux_pour_mille":0.0,"annee":2024},"socio":{"annee":2021,"revenu_median":20830.0},"vivrescore":87},{"code_insee":"04207","nom":"Sigoyer","codes_postaux":["04200"],"code_dep":"04","code_region":"93","population":101,"surface_km2":15.41,"lat":44.3231,"lon":5.9648,"fibre_pct":100.0,"securite":{"taux_pour_mille":0.0,"annee":2024},"socio":{"annee":2021,"revenu_median":20890.0},"vivrescore":87},{"code_insee":"04208","nom":"Simiane-la-Rotonde","codes_postaux":["04150"],"code_dep":"04","code_region":"93","population":609,"surface_km2":68.11,"lat":44.0047,"lon":5.5659,"fibre_pct":100.0,"securite":{"taux_pour_mille":0.0,"annee":2024},"socio":{"annee":2021,"revenu_median":21840.0},"vivrescore":87},{"code_insee":"04209","nom":"Sisteron","codes_postaux":["04200"],"code_dep":"04","code_region":"93","population":7850,"surface_km2":50.54,"lat":44.1993,"lon":5.9276,"fibre_pct":97.8,"securite":{"taux_pour_mille":48.4,"annee":2024},"socio":{"annee":2021,"taux_pauvrete":18.0,"revenu_median":20900.0},"vivrescore":60},{"code_insee":"04210","nom":"Soleilhas","codes_postaux":["04120"],"code_dep":"04","code_region":"93","population":95,"surface_km2":34.68,"lat":43.8611,"lon":6.6521,"fibre_pct":100.0,"securite":{"taux_pour_mille":0.0,"annee":2024},"socio":{"annee":2021,"revenu_median":18170.0},"vivrescore":80},{"code_insee":"04211","nom":"Sourribes","codes_postaux":["04290"],"code_dep":"04","code_region":"93","population":174,"surface_km2":20.07,"lat":44.1582,"lon":6.0433,"fibre_pct":100.0,"securite":{"taux_pour_mille":0.0,"annee":2024},"socio":{"annee":2021,"revenu_median":19960.0},"vivrescore":80},{"code_insee":"04214","nom":"Tartonne","codes_postaux":["04330"],"code_dep":"04","code_region":"93","population":127,"surface_km2":45.3,"lat":44.0803,"lon":6.3798,"fibre_pct":100.0,"securite":{"taux_pour_mille":0.0,"annee":2024},"socio":{"annee":2021,"revenu_median":18600.0},"vivrescore":80},{"code_insee":"04216","nom":"Thèze","codes_postaux":["04200"],"code_dep":"04","code_region":"93","population":268,"surface_km2":11.23,"lat":44.3303,"lon":5.9248,"fibre_pct":100.0,"securite":{"taux_pour_mille":0.0,"annee":2024},"socio":{"annee":2021,"revenu_median":19870.0},"vivrescore":80},{"code_insee":"04217","nom":"Thoard","codes_postaux":["04380"],"code_dep":"04","code_region":"93","population":744,"surface_km2":44.2,"lat":44.1495,"lon":6.1258,"fibre_pct":96.2,"securite":{"taux_pour_mille":0.0,"annee":2024},"socio":{"annee":2021,"revenu_median":21110.0},"vivrescore":87},{"code_insee":"04218","nom":"Thorame-Basse","codes_postaux":["04170"],"code_dep":"04","code_region":"93","population":206,"surface_km2":98.65,"lat":44.1019,"lon":6.4854,"fibre_pct":100.0,"securite":{"taux_pour_mille":0.0,"annee":2024},"socio":{"annee":2021,"revenu_median":20970.0},"vivrescore":87},{"code_insee":"04219","nom":"Thorame-Haute","codes_postaux":["04170"],"code_dep":"04","code_region":"93","population":247,"surface_km2":109.6,"lat":44.083,"lon":6.6152,"fibre_pct":98.1,"securite":{"taux_pour_mille":0.0,"annee":2024},"socio":{"annee":2021,"revenu_median":18190.0},"vivrescore":80},{"code_insee":"04220","nom":"Les Thuiles","codes_postaux":["04400"],"code_dep":"04","code_region":"93","population":361,"surface_km2":32.69,"lat":44.3917,"lon":6.5584,"fibre_pct":100.0,"securite":{"taux_pour_mille":0.0,"annee":2024},"socio":{"annee":2021,"revenu_median":21370.0},"vivrescore":87},{"code_insee":"04222","nom":"Turriers","codes_postaux":["04250"],"code_dep":"04","code_region":"93","population":345,"surface_km2":20.0,"lat":44.3934,"lon":6.1596,"fibre_pct":100.0,"securite":{"taux_pour_mille":0.0,"annee":2024},"socio":{"annee":2021,"revenu_median":20960.0},"vivrescore":87},{"code_insee":"04224","nom":"Ubraye","codes_postaux":["04240"],"code_dep":"04","code_region":"93","population":103,"surface_km2":35.78,"lat":43.9092,"lon":6.6862,"fibre_pct":100.0,"securite":{"taux_pour_mille":0.0,"annee":2024},"vivrescore":100},{"code_insee":"04226","nom":"Uvernet-Fours","codes_postaux":["04400"],"code_dep":"04","code_region":"93","population":499,"surface_km2":135.72,"lat":44.3202,"lon":6.6708,"fibre_pct":96.6,"securite":{"taux_pour_mille":149.4,"annee":2024},"socio":{"annee":2021,"revenu_median":23250.0},"vivrescore":60},{"code_insee":"04227","nom":"Vachères","codes_postaux":["04110"],"code_dep":"04","code_region":"93","population":332,"surface_km2":23.56,"lat":43.9489,"lon":5.6397,"fibre_pct":100.0,"securite":{"taux_pour_mille":0.0,"annee":2024},"socio":{"annee":2021,"revenu_median":19380.0},"vivrescore":80},{"code_insee":"04228","nom":"Valavoire","codes_postaux":["04250"],"code_dep":"04","code_region":"93","population":39,"surface_km2":16.74,"lat":44.2793,"lon":6.0787,"fibre_pct":100.0,"securite":{"taux_pour_mille":0.0,"annee":2024},"vivrescore":100},{"code_insee":"04229","nom":"Valbelle","codes_postaux":["04200"],"code_dep":"04","code_region":"93","population":238,"surface_km2":33.14,"lat":44.1398,"lon":5.8753,"fibre_pct":100.0,"securite":{"taux_pour_mille":0.0,"annee":2024},"socio":{"annee":2021,"revenu_median":20950.0},"vivrescore":87},{"code_insee":"04230","nom":"Valensole","codes_postaux":["04210"],"code_dep":"04","code_region":"93","population":3137,"surface_km2":127.88,"lat":43.8386,"lon":5.9392,"fibre_pct":94.0,"securite":{"taux_pour_mille":29.2,"annee":2024},"socio":{"annee":2021,"taux_pauvrete":16.0,"revenu_median":21900.0},"vivrescore":60},{"code_insee":"04231","nom":"Valernes","codes_postaux":["04200"],"code_dep":"04","code_region":"93","population":245,"surface_km2":28.78,"lat":44.2561,"lon":5.9777,"fibre_pct":97.0,"securite":{"taux_pour_mille":57.9,"annee":2024},"socio":{"annee":2021,"revenu_median":20580.0},"vivrescore":60},{"code_insee":"04233","nom":"Vaumeilh","codes_postaux":["04200"],"code_dep":"04","code_region":"93","population":270,"surface_km2":25.73,"lat":44.289,"lon":5.9589,"fibre_pct":100.0,"securite":{"taux_pour_mille":0.0,"annee":2024},"socio":{"annee":2021,"revenu_median":18090.0},"vivrescore":80},{"code_insee":"04234","nom":"Venterol","codes_postaux":["05130"],"code_dep":"04","code_region":"93","population":236,"surface_km2":22.65,"lat":44.4399,"lon":6.0869,"fibre_pct":98.4,"securite":{"taux_pour_mille":0.0,"annee":2024},"socio":{"annee":2021,"revenu_median":21270.0},"vivrescore":87},{"code_insee":"04235","nom":"Verdaches","codes_postaux":["04140"],"code_dep":"04","code_region":"93","population":61,"surface_km2":23.92,"lat":44.2718,"lon":6.3432,"fibre_pct":100.0,"securite":{"taux_pour_mille":0.0,"annee":2024},"vivrescore":100},{"code_insee":"04236","nom":"Vergons","codes_postaux":["04170"],"code_dep":"04","code_region":"93","population":118,"surface_km2":46.01,"lat":43.9158,"lon":6.602,"fibre_pct":100.0,"securite":{"taux_pour_mille":0.0,"annee":2024},"vivrescore":100},{"code_insee":"04237","nom":"Le Vernet","codes_postaux":["04140"],"code_dep":"04","code_region":"93","population":132,"surface_km2":23.27,"lat":44.2762,"lon":6.4153,"fibre_pct":100.0,"securite":{"taux_pour_mille":0.0,"annee":2024},"socio":{"annee":2021,"revenu_median":18840.0},"vivrescore":80},{"code_insee":"04240","nom":"Villars-Colmars","codes_postaux":["04370"],"code_dep":"04","code_region":"93","population":257,"surface_km2":41.03,"lat":44.1952,"lon":6.5713,"fibre_pct":95.0,"securite":{"taux_pour_mille":0.0,"annee":2024},"socio":{"annee":2021,"revenu_median":20320.0},"vivrescore":87},{"code_insee":"04241","nom":"Villemus","codes_postaux":["04110"],"code_dep":"04","code_region":"93","population":192,"surface_km2":9.66,"lat":43.8627,"lon":5.7065,"fibre_pct":91.8,"securite":{"taux_pour_mille":0.0,"annee":2024},"socio":{"annee":2021,"revenu_median":22410.0},"vivrescore":80},{"code_insee":"04242","nom":"Villeneuve","codes_postaux":["04180"],"code_dep":"04","code_region":"93","population":4360,"surface_km2":25.52,"lat":43.8848,"lon":5.8509,"fibre_pct":100.0,"securite":{"taux_pour_mille":31.0,"annee":2024},"socio":{"annee":2021,"revenu_median":22910.0,"taux_pauvrete":10.0},"vivrescore":67},{"code_insee":"04244","nom":"Volonne","codes_postaux":["04290"],"code_dep":"04","code_region":"93","population":1633,"surface_km2":25.26,"lat":44.1232,"lon":6.0333,"fibre_pct":98.7,"securite":{"taux_pour_mille":14.7,"annee":2024},"socio":{"annee":2021,"revenu_median":22980.0},"vivrescore":80},{"code_insee":"04245","nom":"Volx","codes_postaux":["04130"],"code_dep":"04","code_region":"93","population":3243,"surface_km2":18.69,"lat":43.8677,"lon":5.8252,"fibre_pct":96.0,"securite":{"taux_pour_mille":37.5,"annee":2024},"socio":{"annee":2021,"revenu_median":23570.0,"taux_pauvrete":10.0},"vivrescore":67}]