[{"code_insee":"21001","nom":"Agencourt","codes_postaux":["21700"],"code_dep":"21","code_region":"27","population":416,"surface_km2":4.28,"lat":47.1256,"lon":4.9883,"fibre_pct":84.7},{"code_insee":"21002","nom":"Agey","codes_postaux":["21410"],"code_dep":"21","code_region":"27","population":265,"surface_km2":8.41,"lat":47.2884,"lon":4.7606,"fibre_pct":98.9},{"code_insee":"21003","nom":"Ahuy","codes_postaux":["21121"],"code_dep":"21","code_region":"27","population":1718,"surface_km2":6.48,"lat":47.3696,"lon":5.0179,"fibre_pct":99.5},{"code_insee":"21004","nom":"Aignay-le-Duc","codes_postaux":["21510"],"code_dep":"21","code_region":"27","population":257,"surface_km2":24.72,"lat":47.6736,"lon":4.7482,"fibre_pct":98.1},{"code_insee":"21005","nom":"Aiserey","codes_postaux":["21110"],"code_dep":"21","code_region":"27","population":1500,"surface_km2":10.46,"lat":47.1715,"lon":5.1665,"fibre_pct":96.6},{"code_insee":"21006","nom":"Aisey-sur-Seine","codes_postaux":["21400"],"code_dep":"21","code_region":"27","population":160,"surface_km2":12.83,"lat":47.7428,"lon":4.5774,"fibre_pct":100.0},{"code_insee":"21007","nom":"Aisy-sous-Thil","codes_postaux":["21390"],"code_dep":"21","code_region":"27","population":200,"surface_km2":8.47,"lat":47.392,"lon":4.2795,"fibre_pct":92.7},{"code_insee":"21008","nom":"Alise-Sainte-Reine","codes_postaux":["21150"],"code_dep":"21","code_region":"27","population":564,"surface_km2":3.82,"lat":47.5366,"lon":4.4878,"fibre_pct":100.0},{"code_insee":"21009","nom":"Allerey","codes_postaux":["21230"],"code_dep":"21","code_region":"27","population":174,"surface_km2":19.1,"lat":47.19,"lon":4.4256,"fibre_pct":97.9},{"code_insee":"21010","nom":"Aloxe-Corton","codes_postaux":["21420"],"code_dep":"21","code_region":"27","population":125,"surface_km2":2.61,"lat":47.068,"lon":4.8628,"fibre_pct":92.9},{"code_insee":"21011","nom":"Ampilly-les-Bordes","codes_postaux":["21450"],"code_dep":"21","code_region":"27","population":79,"surface_km2":14.69,"lat":47.6404,"lon":4.6272,"fibre_pct":96.2},{"code_insee":"21012","nom":"Ampilly-le-Sec","codes_postaux":["21400"],"code_dep":"21","code_region":"27","population":322,"surface_km2":24.38,"lat":47.8134,"lon":4.5065,"fibre_pct":96.7},{"code_insee":"21013","nom":"Ancey","codes_postaux":["21410"],"code_dep":"21","code_region":"27","population":451,"surface_km2":8.45,"lat":47.3352,"lon":4.8226,"fibre_pct":97.8},{"code_insee":"21014","nom":"Antheuil","codes_postaux":["21360"],"code_dep":"21","code_region":"27","population":63,"surface_km2":10.27,"lat":47.1763,"lon":4.7463,"fibre_pct":100.0},{"code_insee":"21015","nom":"Antigny-la-Ville","codes_postaux":["21230"],"code_dep":"21","code_region":"27","population":86,"surface_km2":8.42,"lat":47.1006,"lon":4.5599,"fibre_pct":100.0},{"code_insee":"21016","nom":"Arceau","codes_postaux":["21310"],"code_dep":"21","code_region":"27","population":980,"surface_km2":21.63,"lat":47.3775,"lon":5.1978,"fibre_pct":99.4},{"code_insee":"21017","nom":"Arcenant","codes_postaux":["21700"],"code_dep":"21","code_region":"27","population":518,"surface_km2":10.07,"lat":47.1407,"lon":4.8407,"fibre_pct":99.0},{"code_insee":"21018","nom":"Arcey","codes_postaux":["21410"],"code_dep":"21","code_region":"27","population":51,"surface_km2":3.46,"lat":47.2737,"lon":4.8264,"fibre_pct":91.6},{"code_insee":"21020","nom":"Arconcey","codes_postaux":["21320"],"code_dep":"21","code_region":"27","population":217,"surface_km2":15.01,"lat":47.2176,"lon":4.4633,"fibre_pct":100.0},{"code_insee":"21021","nom":"Arc-sur-Tille","codes_postaux":["21560"],"code_dep":"21","code_region":"27","population":2584,"surface_km2":22.99,"lat":47.3394,"lon":5.2007,"fibre_pct":95.9},{"code_insee":"21022","nom":"Argilly","codes_postaux":["21700"],"code_dep":"21","code_region":"27","population":542,"surface_km2":33.96,"lat":47.0658,"lon":5.028,"fibre_pct":99.6},{"code_insee":"21023","nom":"Arnay-le-Duc","codes_postaux":["21230"],"code_dep":"21","code_region":"27","population":1342,"surface_km2":12.02,"lat":47.1215,"lon":4.486,"fibre_pct":94.0},{"code_insee":"21024","nom":"Arnay-sous-Vitteaux","codes_postaux":["21350"],"code_dep":"21","code_region":"27","population":113,"surface_km2":12.22,"lat":47.4343,"lon":4.5056,"fibre_pct":84.7},{"code_insee":"21025","nom":"Arrans","codes_postaux":["21500"],"code_dep":"21","code_region":"27","population":65,"surface_km2":10.53,"lat":47.6897,"lon":4.3282,"fibre_pct":100.0},{"code_insee":"21026","nom":"Asnières-en-Montagne","codes_postaux":["21500"],"code_dep":"21","code_region":"27","population":160,"surface_km2":28.49,"lat":47.7125,"lon":4.2974,"fibre_pct":90.3},{"code_insee":"21027","nom":"Asnières-lès-Dijon","codes_postaux":["21380"],"code_dep":"21","code_region":"27","population":1310,"surface_km2":4.58,"lat":47.3866,"lon":5.046,"fibre_pct":100.0},{"code_insee":"21028","nom":"Athée","codes_postaux":["21130"],"code_dep":"21","code_region":"27","population":815,"surface_km2":9.59,"lat":47.2189,"lon":5.3587,"fibre_pct":90.2},{"code_insee":"21029","nom":"Athie","codes_postaux":["21500"],"code_dep":"21","code_region":"27","population":82,"surface_km2":5.92,"lat":47.5592,"lon":4.26,"fibre_pct":92.4},{"code_insee":"21030","nom":"Aubaine","codes_postaux":["21360"],"code_dep":"21","code_region":"27","population":89,"surface_km2":16.26,"lat":47.1312,"lon":4.7311,"fibre_pct":100.0},{"code_insee":"21031","nom":"Aubigny-en-Plaine","codes_postaux":["21170"],"code_dep":"21","code_region":"27","population":541,"surface_km2":6.36,"lat":47.1299,"lon":5.1628,"fibre_pct":99.0},{"code_insee":"21032","nom":"Aubigny-la-Ronce","codes_postaux":["21340"],"code_dep":"21","code_region":"27","population":172,"surface_km2":11.85,"lat":46.9892,"lon":4.5986,"fibre_pct":83.3},{"code_insee":"21033","nom":"Aubigny-lès-Sombernon","codes_postaux":["21540"],"code_dep":"21","code_region":"27","population":175,"surface_km2":8.02,"lat":47.2991,"lon":4.6425,"fibre_pct":100.0},{"code_insee":"21034","nom":"Autricourt","codes_postaux":["21570"],"code_dep":"21","code_region":"27","population":137,"surface_km2":26.65,"lat":47.9863,"lon":4.6258,"fibre_pct":99.3},{"code_insee":"21035","nom":"Auvillars-sur-Saône","codes_postaux":["21250"],"code_dep":"21","code_region":"27","population":343,"surface_km2":6.87,"lat":47.061,"lon":5.1126,"fibre_pct":99.4},{"code_insee":"21036","nom":"Auxant","codes_postaux":["21360"],"code_dep":"21","code_region":"27","population":80,"surface_km2":5.57,"lat":47.1298,"lon":4.6168,"fibre_pct":100.0},{"code_insee":"21037","nom":"Auxey-Duresses","codes_postaux":["21190"],"code_dep":"21","code_region":"27","population":290,"surface_km2":11.0,"lat":46.989,"lon":4.7299,"fibre_pct":98.6},{"code_insee":"21038","nom":"Auxonne","codes_postaux":["21130"],"code_dep":"21","code_region":"27","population":7581,"surface_km2":40.53,"lat":47.1887,"lon":5.407,"fibre_pct":97.6},{"code_insee":"21039","nom":"Avelanges","codes_postaux":["21120"],"code_dep":"21","code_region":"27","population":33,"surface_km2":6.03,"lat":47.5864,"lon":5.0278,"fibre_pct":100.0},{"code_insee":"21040","nom":"Avosnes","codes_postaux":["21350"],"code_dep":"21","code_region":"27","population":83,"surface_km2":11.43,"lat":47.3696,"lon":4.6326,"fibre_pct":100.0},{"code_insee":"21041","nom":"Avot","codes_postaux":["21580"],"code_dep":"21","code_region":"27","population":186,"surface_km2":21.8,"lat":47.6163,"lon":5.0053,"fibre_pct":100.0},{"code_insee":"21042","nom":"Bagnot","codes_postaux":["21700"],"code_dep":"21","code_region":"27","population":154,"surface_km2":12.62,"lat":47.0491,"lon":5.0699,"fibre_pct":100.0},{"code_insee":"21043","nom":"Baigneux-les-Juifs","codes_postaux":["21450"],"code_dep":"21","code_region":"27","population":198,"surface_km2":12.57,"lat":47.601,"lon":4.6506,"fibre_pct":100.0},{"code_insee":"21044","nom":"Balot","codes_postaux":["21330"],"code_dep":"21","code_region":"27","population":86,"surface_km2":15.5,"lat":47.8203,"lon":4.4422,"fibre_pct":98.2},{"code_insee":"21045","nom":"Barbirey-sur-Ouche","codes_postaux":["21410"],"code_dep":"21","code_region":"27","population":259,"surface_km2":10.65,"lat":47.2543,"lon":4.7394,"fibre_pct":94.8},{"code_insee":"21046","nom":"Bard-le-Régulier","codes_postaux":["21430"],"code_dep":"21","code_region":"27","population":73,"surface_km2":9.1,"lat":47.1471,"lon":4.3042,"fibre_pct":100.0},{"code_insee":"21047","nom":"Bard-lès-Époisses","codes_postaux":["21460"],"code_dep":"21","code_region":"27","population":72,"surface_km2":3.58,"lat":47.5291,"lon":4.2252,"fibre_pct":90.2},{"code_insee":"21048","nom":"Barges","codes_postaux":["21910"],"code_dep":"21","code_region":"27","population":652,"surface_km2":3.85,"lat":47.2097,"lon":5.0578,"fibre_pct":99.7},{"code_insee":"21049","nom":"Barjon","codes_postaux":["21580"],"code_dep":"21","code_region":"27","population":29,"surface_km2":4.6,"lat":47.6158,"lon":4.9626,"fibre_pct":92.3},{"code_insee":"21050","nom":"Baubigny","codes_postaux":["21340"],"code_dep":"21","code_region":"27","population":210,"surface_km2":10.38,"lat":46.989,"lon":4.6794,"fibre_pct":95.8},{"code_insee":"21051","nom":"Baulme-la-Roche","codes_postaux":["21410"],"code_dep":"21","code_region":"27","population":93,"surface_km2":6.71,"lat":47.3464,"lon":4.7895,"fibre_pct":92.8},{"code_insee":"21052","nom":"Beaulieu","codes_postaux":["21510"],"code_dep":"21","code_region":"27","population":28,"surface_km2":6.58,"lat":47.724,"lon":4.7332,"fibre_pct":97.4},{"code_insee":"21053","nom":"Beaumont-sur-Vingeanne","codes_postaux":["21310"],"code_dep":"21","code_region":"27","population":195,"surface_km2":11.76,"lat":47.4639,"lon":5.3484,"fibre_pct":97.2},{"code_insee":"21054","nom":"Beaune","codes_postaux":["21200"],"code_dep":"21","code_region":"27","population":20352,"surface_km2":31.19,"lat":47.0272,"lon":4.8421,"fibre_pct":95.1},{"code_insee":"21055","nom":"Beaunotte","codes_postaux":["21510"],"code_dep":"21","code_region":"27","population":16,"surface_km2":8.56,"lat":47.6817,"lon":4.7175,"fibre_pct":100.0},{"code_insee":"21056","nom":"Beire-le-Châtel","codes_postaux":["21310"],"code_dep":"21","code_region":"27","population":921,"surface_km2":19.33,"lat":47.4272,"lon":5.2146,"fibre_pct":100.0},{"code_insee":"21057","nom":"Beire-le-Fort","codes_postaux":["21110"],"code_dep":"21","code_region":"27","population":339,"surface_km2":5.27,"lat":47.2369,"lon":5.2625,"fibre_pct":100.0},{"code_insee":"21058","nom":"Belan-sur-Ource","codes_postaux":["21570"],"code_dep":"21","code_region":"27","population":220,"surface_km2":20.45,"lat":47.9519,"lon":4.6388,"fibre_pct":100.0},{"code_insee":"21059","nom":"Bellefond","codes_postaux":["21490"],"code_dep":"21","code_region":"27","population":918,"surface_km2":2.47,"lat":47.3797,"lon":5.0655,"fibre_pct":98.9},{"code_insee":"21060","nom":"Belleneuve","codes_postaux":["21310"],"code_dep":"21","code_region":"27","population":1571,"surface_km2":14.5,"lat":47.361,"lon":5.2709,"fibre_pct":98.4},{"code_insee":"21061","nom":"Bellenod-sur-Seine","codes_postaux":["21510"],"code_dep":"21","code_region":"27","population":64,"surface_km2":14.62,"lat":47.6982,"lon":4.6407,"fibre_pct":98.2},{"code_insee":"21062","nom":"Bellenot-sous-Pouilly","codes_postaux":["21320"],"code_dep":"21","code_region":"27","population":237,"surface_km2":14.73,"lat":47.2859,"lon":4.5495,"fibre_pct":98.2},{"code_insee":"21063","nom":"Beneuvre","codes_postaux":["21290"],"code_dep":"21","code_region":"27","population":94,"surface_km2":15.54,"lat":47.6933,"lon":4.9333,"fibre_pct":100.0},{"code_insee":"21064","nom":"Benoisey","codes_postaux":["21500"],"code_dep":"21","code_region":"27","population":95,"surface_km2":5.76,"lat":47.5789,"lon":4.3942,"fibre_pct":90.0},{"code_insee":"21065","nom":"Bessey-en-Chaume","codes_postaux":["21360"],"code_dep":"21","code_region":"27","population":119,"surface_km2":10.56,"lat":47.0904,"lon":4.7397,"fibre_pct":100.0},{"code_insee":"21066","nom":"Bessey-la-Cour","codes_postaux":["21360"],"code_dep":"21","code_region":"27","population":59,"surface_km2":4.61,"lat":47.1028,"lon":4.6039,"fibre_pct":100.0},{"code_insee":"21067","nom":"Bessey-lès-Cîteaux","codes_postaux":["21110"],"code_dep":"21","code_region":"27","population":679,"surface_km2":10.3,"lat":47.145,"lon":5.1466,"fibre_pct":100.0},{"code_insee":"21068","nom":"Beurey-Bauguay","codes_postaux":["21320"],"code_dep":"21","code_region":"27","population":130,"surface_km2":7.36,"lat":47.2295,"lon":4.4287,"fibre_pct":100.0},{"code_insee":"21069","nom":"Beurizot","codes_postaux":["21350"],"code_dep":"21","code_region":"27","population":107,"surface_km2":14.49,"lat":47.3543,"lon":4.4956,"fibre_pct":100.0},{"code_insee":"21070","nom":"Bévy","codes_postaux":["21220"],"code_dep":"21","code_region":"27","population":133,"surface_km2":5.21,"lat":47.1805,"lon":4.8406,"fibre_pct":100.0},{"code_insee":"21071","nom":"Bèze","codes_postaux":["21310"],"code_dep":"21","code_region":"27","population":739,"surface_km2":23.42,"lat":47.4642,"lon":5.2839,"fibre_pct":86.9},{"code_insee":"21072","nom":"Bézouotte","codes_postaux":["21310"],"code_dep":"21","code_region":"27","population":209,"surface_km2":1.11,"lat":47.3845,"lon":5.3371,"fibre_pct":100.0},{"code_insee":"21074","nom":"Billey","codes_postaux":["21130"],"code_dep":"21","code_region":"27","population":245,"surface_km2":3.87,"lat":47.1423,"lon":5.4201,"fibre_pct":96.8},{"code_insee":"21075","nom":"Billy-lès-Chanceaux","codes_postaux":["21450"],"code_dep":"21","code_region":"27","population":72,"surface_km2":22.25,"lat":47.5539,"lon":4.7387,"fibre_pct":86.1},{"code_insee":"21076","nom":"Binges","codes_postaux":["21270"],"code_dep":"21","code_region":"27","population":880,"surface_km2":17.78,"lat":47.323,"lon":5.2711,"fibre_pct":94.1},{"code_insee":"21077","nom":"Bissey-la-Côte","codes_postaux":["21520"],"code_dep":"21","code_region":"27","population":133,"surface_km2":19.99,"lat":47.9182,"lon":4.7054,"fibre_pct":100.0},{"code_insee":"21078","nom":"Bissey-la-Pierre","codes_postaux":["21330"],"code_dep":"21","code_region":"27","population":67,"surface_km2":8.42,"lat":47.8444,"lon":4.4244,"fibre_pct":88.3},{"code_insee":"21079","nom":"Blagny-sur-Vingeanne","codes_postaux":["21310"],"code_dep":"21","code_region":"27","population":122,"surface_km2":7.6,"lat":47.4376,"lon":5.3553,"fibre_pct":100.0},{"code_insee":"21080","nom":"Blaisy-Bas","codes_postaux":["21540"],"code_dep":"21","code_region":"27","population":677,"surface_km2":13.31,"lat":47.3673,"lon":4.741,"fibre_pct":98.5},{"code_insee":"21081","nom":"Blaisy-Haut","codes_postaux":["21540"],"code_dep":"21","code_region":"27","population":123,"surface_km2":8.31,"lat":47.3606,"lon":4.7706,"fibre_pct":100.0},{"code_insee":"21082","nom":"Blancey","codes_postaux":["21320"],"code_dep":"21","code_region":"27","population":53,"surface_km2":6.75,"lat":47.302,"lon":4.4614,"fibre_pct":100.0},{"code_insee":"21083","nom":"Blanot","codes_postaux":["21430"],"code_dep":"21","code_region":"27","population":120,"surface_km2":18.31,"lat":47.1775,"lon":4.2397,"fibre_pct":98.2},{"code_insee":"21084","nom":"Source-Seine","codes_postaux":["21690"],"code_dep":"21","code_region":"27","population":60,"surface_km2":16.46,"lat":47.4881,"lon":4.6933,"fibre_pct":100.0},{"code_insee":"21085","nom":"Bligny-le-Sec","codes_postaux":["21440"],"code_dep":"21","code_region":"27","population":145,"surface_km2":16.76,"lat":47.4479,"lon":4.741,"fibre_pct":100.0},{"code_insee":"21086","nom":"Bligny-lès-Beaune","codes_postaux":["21200"],"code_dep":"21","code_region":"27","population":1288,"surface_km2":7.25,"lat":46.9842,"lon":4.8328,"fibre_pct":97.9},{"code_insee":"21087","nom":"Bligny-sur-Ouche","codes_postaux":["21360"],"code_dep":"21","code_region":"27","population":814,"surface_km2":28.08,"lat":47.1169,"lon":4.6839,"fibre_pct":96.3},{"code_insee":"21088","nom":"Boncourt-le-Bois","codes_postaux":["21700"],"code_dep":"21","code_region":"27","population":270,"surface_km2":7.62,"lat":47.1386,"lon":4.9959,"fibre_pct":97.9},{"code_insee":"21089","nom":"Bonnencontre","codes_postaux":["21250"],"code_dep":"21","code_region":"27","population":432,"surface_km2":10.88,"lat":47.087,"lon":5.1493,"fibre_pct":99.1},{"code_insee":"21090","nom":"Boudreville","codes_postaux":["21520"],"code_dep":"21","code_region":"27","population":58,"surface_km2":8.02,"lat":47.9286,"lon":4.8384,"fibre_pct":98.5},{"code_insee":"21091","nom":"Bouhey","codes_postaux":["21360"],"code_dep":"21","code_region":"27","population":53,"surface_km2":7.6,"lat":47.2012,"lon":4.6754,"fibre_pct":94.1},{"code_insee":"21092","nom":"Bouilland","codes_postaux":["21420"],"code_dep":"21","code_region":"27","population":245,"surface_km2":16.78,"lat":47.1353,"lon":4.7703,"fibre_pct":88.8},{"code_insee":"21093","nom":"Bouix","codes_postaux":["21330"],"code_dep":"21","code_region":"27","population":150,"surface_km2":15.68,"lat":47.9034,"lon":4.4673,"fibre_pct":98.1},{"code_insee":"21094","nom":"Bourberain","codes_postaux":["21610"],"code_dep":"21","code_region":"27","population":382,"surface_km2":30.82,"lat":47.509,"lon":5.2897,"fibre_pct":93.0},{"code_insee":"21095","nom":"Bousselange","codes_postaux":["21250"],"code_dep":"21","code_region":"27","population":58,"surface_km2":7.33,"lat":46.996,"lon":5.2507,"fibre_pct":100.0},{"code_insee":"21096","nom":"Boussenois","codes_postaux":["21260"],"code_dep":"21","code_region":"27","population":110,"surface_km2":12.51,"lat":47.6272,"lon":5.2084,"fibre_pct":100.0},{"code_insee":"21097","nom":"Boussey","codes_postaux":["21350"],"code_dep":"21","code_region":"27","population":31,"surface_km2":5.63,"lat":47.3606,"lon":4.542,"fibre_pct":46.9},{"code_insee":"21098","nom":"Boux-sous-Salmaise","codes_postaux":["21690"],"code_dep":"21","code_region":"27","population":124,"surface_km2":14.62,"lat":47.4703,"lon":4.6447,"fibre_pct":100.0},{"code_insee":"21099","nom":"Bouze-lès-Beaune","codes_postaux":["21200"],"code_dep":"21","code_region":"27","population":312,"surface_km2":6.94,"lat":47.0566,"lon":4.7731,"fibre_pct":99.5},{"code_insee":"21100","nom":"Brain","codes_postaux":["21350"],"code_dep":"21","code_region":"27","population":36,"surface_km2":4.13,"lat":47.4636,"lon":4.5078,"fibre_pct":100.0},{"code_insee":"21101","nom":"Braux","codes_postaux":["21390"],"code_dep":"21","code_region":"27","population":180,"surface_km2":12.95,"lat":47.41,"lon":4.4185,"fibre_pct":98.4},{"code_insee":"21102","nom":"Brazey-en-Morvan","codes_postaux":["21430"],"code_dep":"21","code_region":"27","population":155,"surface_km2":17.22,"lat":47.1705,"lon":4.2744,"fibre_pct":100.0},{"code_insee":"21103","nom":"Brazey-en-Plaine","codes_postaux":["21470"],"code_dep":"21","code_region":"27","population":2425,"surface_km2":26.1,"lat":47.1378,"lon":5.2102,"fibre_pct":75.8},{"code_insee":"21104","nom":"Brémur-et-Vaurois","codes_postaux":["21400"],"code_dep":"21","code_region":"27","population":45,"surface_km2":9.46,"lat":47.73,"lon":4.6086,"fibre_pct":89.6},{"code_insee":"21105","nom":"Bressey-sur-Tille","codes_postaux":["21560"],"code_dep":"21","code_region":"27","population":1096,"surface_km2":7.31,"lat":47.3082,"lon":5.1827,"fibre_pct":100.0},{"code_insee":"21106","nom":"Bretenière","codes_postaux":["21110"],"code_dep":"21","code_region":"27","population":959,"surface_km2":6.02,"lat":47.2374,"lon":5.1016,"fibre_pct":100.0},{"code_insee":"21107","nom":"Bretigny","codes_postaux":["21490"],"code_dep":"21","code_region":"27","population":922,"surface_km2":6.93,"lat":47.3959,"lon":5.0981,"fibre_pct":92.3},{"code_insee":"21108","nom":"Brianny","codes_postaux":["21390"],"code_dep":"21","code_region":"27","population":102,"surface_km2":7.54,"lat":47.413,"lon":4.3736,"fibre_pct":100.0},{"code_insee":"21109","nom":"Brion-sur-Ource","codes_postaux":["21570"],"code_dep":"21","code_region":"27","population":215,"surface_km2":14.07,"lat":47.902,"lon":4.6719,"fibre_pct":100.0},{"code_insee":"21110","nom":"Brochon","codes_postaux":["21220"],"code_dep":"21","code_region":"27","population":664,"surface_km2":7.42,"lat":47.2373,"lon":4.9701,"fibre_pct":99.8},{"code_insee":"21111","nom":"Brognon","codes_postaux":["21490"],"code_dep":"21","code_region":"27","population":317,"surface_km2":6.34,"lat":47.4118,"lon":5.1681,"fibre_pct":100.0},{"code_insee":"21112","nom":"Broin","codes_postaux":["21250"],"code_dep":"21","code_region":"27","population":414,"surface_km2":14.56,"lat":47.085,"lon":5.1047,"fibre_pct":99.5},{"code_insee":"21113","nom":"Broindon","codes_postaux":["21220"],"code_dep":"21","code_region":"27","population":203,"surface_km2":4.67,"lat":47.1955,"lon":5.0412,"fibre_pct":100.0},{"code_insee":"21114","nom":"Buffon","codes_postaux":["21500"],"code_dep":"21","code_region":"27","population":152,"surface_km2":8.89,"lat":47.6583,"lon":4.2732,"fibre_pct":100.0},{"code_insee":"21115","nom":"Buncey","codes_postaux":["21400"],"code_dep":"21","code_region":"27","population":357,"surface_km2":27.37,"lat":47.8187,"lon":4.5764,"fibre_pct":99.5},{"code_insee":"21116","nom":"Bure-les-Templiers","codes_postaux":["21290"],"code_dep":"21","code_region":"27","population":135,"surface_km2":35.27,"lat":47.7317,"lon":4.9179,"fibre_pct":100.0},{"code_insee":"21117","nom":"Busseaut","codes_postaux":["21510"],"code_dep":"21","code_region":"27","population":56,"surface_km2":10.63,"lat":47.7424,"lon":4.653,"fibre_pct":100.0},{"code_insee":"21118","nom":"Busserotte-et-Montenaille","codes_postaux":["21580"],"code_dep":"21","code_region":"27","population":33,"surface_km2":6.69,"lat":47.6599,"lon":4.9827,"fibre_pct":100.0},{"code_insee":"21119","nom":"Bussières","codes_postaux":["21580"],"code_dep":"21","code_region":"27","population":44,"surface_km2":6.37,"lat":47.6585,"lon":4.9639,"fibre_pct":100.0},{"code_insee":"21120","nom":"La Bussière-sur-Ouche","codes_postaux":["21360"],"code_dep":"21","code_region":"27","population":197,"surface_km2":20.6,"lat":47.2297,"lon":4.704,"fibre_pct":98.8},{"code_insee":"21121","nom":"Bussy-la-Pesle","codes_postaux":["21540"],"code_dep":"21","code_region":"27","population":73,"surface_km2":11.48,"lat":47.3587,"lon":4.7166,"fibre_pct":100.0},{"code_insee":"21122","nom":"Bussy-le-Grand","codes_postaux":["21150"],"code_dep":"21","code_region":"27","population":308,"surface_km2":29.69,"lat":47.5735,"lon":4.5215,"fibre_pct":100.0},{"code_insee":"21123","nom":"Buxerolles","codes_postaux":["21290"],"code_dep":"21","code_region":"27","population":34,"surface_km2":11.82,"lat":47.8074,"lon":4.9511,"fibre_pct":100.0},{"code_insee":"21124","nom":"Censerey","codes_postaux":["21430"],"code_dep":"21","code_region":"27","population":182,"surface_km2":12.08,"lat":47.1971,"lon":4.3377,"fibre_pct":97.3},{"code_insee":"21125","nom":"Cérilly","codes_postaux":["21330"],"code_dep":"21","code_region":"27","population":214,"surface_km2":13.86,"lat":47.8529,"lon":4.4924,"fibre_pct":100.0},{"code_insee":"21126","nom":"Cessey-sur-Tille","codes_postaux":["21110"],"code_dep":"21","code_region":"27","population":637,"surface_km2":11.53,"lat":47.2813,"lon":5.2298,"fibre_pct":100.0},{"code_insee":"21127","nom":"Chaignay","codes_postaux":["21120"],"code_dep":"21","code_region":"27","population":493,"surface_km2":25.02,"lat":47.4788,"lon":5.0507,"fibre_pct":100.0},{"code_insee":"21128","nom":"Chailly-sur-Armançon","codes_postaux":["21320"],"code_dep":"21","code_region":"27","population":279,"surface_km2":18.72,"lat":47.27,"lon":4.4803,"fibre_pct":99.5},{"code_insee":"21129","nom":"Chambain","codes_postaux":["21290"],"code_dep":"21","code_region":"27","population":36,"surface_km2":9.73,"lat":47.7958,"lon":4.9241,"fibre_pct":99.2},{"code_insee":"21130","nom":"Chambeire","codes_postaux":["21110"],"code_dep":"21","code_region":"27","population":420,"surface_km2":6.2,"lat":47.2835,"lon":5.2878,"fibre_pct":100.0},{"code_insee":"21131","nom":"Chamblanc","codes_postaux":["21250"],"code_dep":"21","code_region":"27","population":456,"surface_km2":10.22,"lat":47.0232,"lon":5.1675,"fibre_pct":100.0},{"code_insee":"21132","nom":"Chambœuf","codes_postaux":["21220"],"code_dep":"21","code_region":"27","population":374,"surface_km2":11.24,"lat":47.2276,"lon":4.9025,"fibre_pct":99.5},{"code_insee":"21133","nom":"Chambolle-Musigny","codes_postaux":["21220"],"code_dep":"21","code_region":"27","population":264,"surface_km2":7.59,"lat":47.1871,"lon":4.9505,"fibre_pct":100.0},{"code_insee":"21134","nom":"Chamesson","codes_postaux":["21400"],"code_dep":"21","code_region":"27","population":248,"surface_km2":15.95,"lat":47.7789,"lon":4.548,"fibre_pct":98.9},{"code_insee":"21135","nom":"Champagne-sur-Vingeanne","codes_postaux":["21310"],"code_dep":"21","code_region":"27","population":311,"surface_km2":13.33,"lat":47.4411,"lon":5.4068,"fibre_pct":100.0},{"code_insee":"21136","nom":"Champagny","codes_postaux":["21440"],"code_dep":"21","code_region":"27","population":27,"surface_km2":7.15,"lat":47.4612,"lon":4.7658,"fibre_pct":100.0},{"code_insee":"21137","nom":"Champ-d'Oiseau","codes_postaux":["21500"],"code_dep":"21","code_region":"27","population":113,"surface_km2":4.88,"lat":47.5537,"lon":4.3495,"fibre_pct":100.0},{"code_insee":"21138","nom":"Champdôtre","codes_postaux":["21130"],"code_dep":"21","code_region":"27","population":600,"surface_km2":10.52,"lat":47.1851,"lon":5.2968,"fibre_pct":95.0},{"code_insee":"21139","nom":"Champeau-en-Morvan","codes_postaux":["21210"],"code_dep":"21","code_region":"27","population":223,"surface_km2":34.7,"lat":47.2726,"lon":4.1628,"fibre_pct":100.0},{"code_insee":"21140","nom":"Champignolles","codes_postaux":["21230"],"code_dep":"21","code_region":"27","population":76,"surface_km2":6.39,"lat":47.0518,"lon":4.5695,"fibre_pct":100.0},{"code_insee":"21141","nom":"Champrenault","codes_postaux":["21690"],"code_dep":"21","code_region":"27","population":38,"surface_km2":4.22,"lat":47.3997,"lon":4.6804,"fibre_pct":100.0},{"code_insee":"21142","nom":"Chanceaux","codes_postaux":["21440"],"code_dep":"21","code_region":"27","population":202,"surface_km2":21.28,"lat":47.5253,"lon":4.7447,"fibre_pct":100.0},{"code_insee":"21143","nom":"Channay","codes_postaux":["21330"],"code_dep":"21","code_region":"27","population":58,"surface_km2":13.47,"lat":47.8904,"lon":4.3161,"fibre_pct":96.4},{"code_insee":"21144","nom":"Charencey","codes_postaux":["21690"],"code_dep":"21","code_region":"27","population":35,"surface_km2":4.84,"lat":47.4204,"lon":4.6702,"fibre_pct":100.0},{"code_insee":"21145","nom":"Charigny","codes_postaux":["21140"],"code_dep":"21","code_region":"27","population":36,"surface_km2":3.11,"lat":47.4355,"lon":4.4245,"fibre_pct":96.2},{"code_insee":"21146","nom":"Charmes","codes_postaux":["21310"],"code_dep":"21","code_region":"27","population":122,"surface_km2":6.57,"lat":47.37,"lon":5.3535,"fibre_pct":100.0},{"code_insee":"21147","nom":"Charny","codes_postaux":["21350"],"code_dep":"21","code_region":"27","population":33,"surface_km2":7.88,"lat":47.3326,"lon":4.4249,"fibre_pct":100.0},{"code_insee":"21148","nom":"Charrey-sur-Saône","codes_postaux":["21170"],"code_dep":"21","code_region":"27","population":331,"surface_km2":5.56,"lat":47.0982,"lon":5.1512,"fibre_pct":100.0},{"code_insee":"21149","nom":"Charrey-sur-Seine","codes_postaux":["21400"],"code_dep":"21","code_region":"27","population":136,"surface_km2":12.91,"lat":47.951,"lon":4.5396,"fibre_pct":100.0},{"code_insee":"21150","nom":"Chassagne-Montrachet","codes_postaux":["21190"],"code_dep":"21","code_region":"27","population":261,"surface_km2":6.5,"lat":46.9326,"lon":4.7282,"fibre_pct":98.7},{"code_insee":"21151","nom":"Chassey","codes_postaux":["21150"],"code_dep":"21","code_region":"27","population":95,"surface_km2":6.65,"lat":47.4722,"lon":4.4448,"fibre_pct":94.0},{"code_insee":"21152","nom":"Châteauneuf","codes_postaux":["21320"],"code_dep":"21","code_region":"27","population":81,"surface_km2":10.11,"lat":47.2175,"lon":4.6524,"fibre_pct":97.8},{"code_insee":"21153","nom":"Châtellenot","codes_postaux":["21320"],"code_dep":"21","code_region":"27","population":167,"surface_km2":11.53,"lat":47.2357,"lon":4.4842,"fibre_pct":100.0},{"code_insee":"21154","nom":"Châtillon-sur-Seine","codes_postaux":["21400"],"code_dep":"21","code_region":"27","population":5443,"surface_km2":33.28,"lat":47.8593,"lon":4.582,"fibre_pct":87.9},{"code_insee":"21155","nom":"Chaudenay-la-Ville","codes_postaux":["21360"],"code_dep":"21","code_region":"27","population":37,"surface_km2":5.25,"lat":47.162,"lon":4.6401,"fibre_pct":100.0},{"code_insee":"21156","nom":"Chaudenay-le-Château","codes_postaux":["21360"],"code_dep":"21","code_region":"27","population":48,"surface_km2":5.16,"lat":47.1801,"lon":4.6401,"fibre_pct":100.0},{"code_insee":"21157","nom":"Chaugey","codes_postaux":["21290"],"code_dep":"21","code_region":"27","population":24,"surface_km2":6.79,"lat":47.7467,"lon":4.95,"fibre_pct":88.9},{"code_insee":"21158","nom":"Chaume-et-Courchamp","codes_postaux":["21610"],"code_dep":"21","code_region":"27","population":188,"surface_km2":8.18,"lat":47.5793,"lon":5.3627,"fibre_pct":100.0},{"code_insee":"21159","nom":"La Chaume","codes_postaux":["21520"],"code_dep":"21","code_region":"27","population":97,"surface_km2":33.06,"lat":47.8829,"lon":4.8273,"fibre_pct":98.9},{"code_insee":"21160","nom":"Chaume-lès-Baigneux","codes_postaux":["21450"],"code_dep":"21","code_region":"27","population":101,"surface_km2":13.15,"lat":47.6353,"lon":4.5702,"fibre_pct":100.0},{"code_insee":"21161","nom":"Chaumont-le-Bois","codes_postaux":["21400"],"code_dep":"21","code_region":"27","population":79,"surface_km2":7.26,"lat":47.9381,"lon":4.5899,"fibre_pct":99.8},{"code_insee":"21162","nom":"Chaux","codes_postaux":["21700"],"code_dep":"21","code_region":"27","population":483,"surface_km2":7.1,"lat":47.1268,"lon":4.9067,"fibre_pct":100.0},{"code_insee":"21163","nom":"Chazeuil","codes_postaux":["21260"],"code_dep":"21","code_region":"27","population":195,"surface_km2":18.62,"lat":47.558,"lon":5.2861,"fibre_pct":100.0},{"code_insee":"21164","nom":"Chazilly","codes_postaux":["21320"],"code_dep":"21","code_region":"27","population":151,"surface_km2":8.77,"lat":47.1854,"lon":4.5756,"fibre_pct":100.0},{"code_insee":"21165","nom":"Chemin-d'Aisey","codes_postaux":["21400"],"code_dep":"21","code_region":"27","population":62,"surface_km2":8.6,"lat":47.7322,"lon":4.555,"fibre_pct":92.0},{"code_insee":"21166","nom":"Chenôve","codes_postaux":["21300"],"code_dep":"21","code_region":"27","population":14244,"surface_km2":7.47,"lat":47.2911,"lon":5.0001,"fibre_pct":97.6},{"code_insee":"21167","nom":"Cheuge","codes_postaux":["21310"],"code_dep":"21","code_region":"27","population":122,"surface_km2":8.84,"lat":47.3881,"lon":5.379,"fibre_pct":100.0},{"code_insee":"21168","nom":"Chevannay","codes_postaux":["21540"],"code_dep":"21","code_region":"27","population":34,"surface_km2":7.25,"lat":47.3905,"lon":4.6527,"fibre_pct":100.0},{"code_insee":"21169","nom":"Chevannes","codes_postaux":["21220"],"code_dep":"21","code_region":"27","population":170,"surface_km2":6.32,"lat":47.1586,"lon":4.8338,"fibre_pct":99.2},{"code_insee":"21170","nom":"Chevigny-en-Valière","codes_postaux":["21200"],"code_dep":"21","code_region":"27","population":417,"surface_km2":5.45,"lat":46.9703,"lon":4.9788,"fibre_pct":100.0},{"code_insee":"21171","nom":"Chevigny-Saint-Sauveur","codes_postaux":["21800"],"code_dep":"21","code_region":"27","population":11108,"surface_km2":12.01,"lat":47.2986,"lon":5.132,"fibre_pct":99.7},{"code_insee":"21172","nom":"Chivres","codes_postaux":["21820"],"code_dep":"21","code_region":"27","population":273,"surface_km2":8.27,"lat":46.9644,"lon":5.0887,"fibre_pct":100.0},{"code_insee":"21173","nom":"Chorey-les-Beaune","codes_postaux":["21200"],"code_dep":"21","code_region":"27","population":592,"surface_km2":5.55,"lat":47.0519,"lon":4.8716,"fibre_pct":99.1},{"code_insee":"21175","nom":"Cirey-lès-Pontailler","codes_postaux":["21270"],"code_dep":"21","code_region":"27","population":181,"surface_km2":8.68,"lat":47.3049,"lon":5.313,"fibre_pct":100.0},{"code_insee":"21176","nom":"Civry-en-Montagne","codes_postaux":["21320"],"code_dep":"21","code_region":"27","population":125,"surface_km2":7.77,"lat":47.2871,"lon":4.6073,"fibre_pct":99.0},{"code_insee":"21177","nom":"Clamerey","codes_postaux":["21390"],"code_dep":"21","code_region":"27","population":187,"surface_km2":12.09,"lat":47.3925,"lon":4.4207,"fibre_pct":100.0},{"code_insee":"21178","nom":"Valforêt","codes_postaux":["21220"],"code_dep":"21","code_region":"27","population":331,"surface_km2":22.06,"lat":47.2482,"lon":4.8666,"fibre_pct":100.0},{"code_insee":"21179","nom":"Clénay","codes_postaux":["21490"],"code_dep":"21","code_region":"27","population":891,"surface_km2":5.52,"lat":47.4119,"lon":5.1136,"fibre_pct":94.8},{"code_insee":"21180","nom":"Cléry","codes_postaux":["21270"],"code_dep":"21","code_region":"27","population":159,"surface_km2":3.44,"lat":47.2959,"lon":5.5003,"fibre_pct":100.0},{"code_insee":"21181","nom":"Clomot","codes_postaux":["21230"],"code_dep":"21","code_region":"27","population":121,"surface_km2":8.57,"lat":47.1923,"lon":4.4849,"fibre_pct":98.1},{"code_insee":"21182","nom":"Collonges-lès-Bévy","codes_postaux":["21220"],"code_dep":"21","code_region":"27","population":93,"surface_km2":5.43,"lat":47.1707,"lon":4.838,"fibre_pct":100.0},{"code_insee":"21183","nom":"Collonges-et-Premières","codes_postaux":["21110"],"code_dep":"21","code_region":"27","population":1067,"surface_km2":12.49,"lat":47.2303,"lon":5.2915,"fibre_pct":99.8},{"code_insee":"21184","nom":"Colombier","codes_postaux":["21360"],"code_dep":"21","code_region":"27","population":66,"surface_km2":3.91,"lat":47.1692,"lon":4.6772,"fibre_pct":100.0},{"code_insee":"21185","nom":"Combertault","codes_postaux":["21200"],"code_dep":"21","code_region":"27","population":527,"surface_km2":3.94,"lat":46.9925,"lon":4.9022,"fibre_pct":100.0},{"code_insee":"21186","nom":"Comblanchien","codes_postaux":["21700"],"code_dep":"21","code_region":"27","population":608,"surface_km2":3.56,"lat":47.1037,"lon":4.9216,"fibre_pct":90.2},{"code_insee":"21187","nom":"Commarin","codes_postaux":["21320"],"code_dep":"21","code_region":"27","population":122,"surface_km2":6.48,"lat":47.2499,"lon":4.6532,"fibre_pct":100.0},{"code_insee":"21189","nom":"Corberon","codes_postaux":["21250"],"code_dep":"21","code_region":"27","population":425,"surface_km2":11.77,"lat":47.0108,"lon":5.0127,"fibre_pct":98.7},{"code_insee":"21190","nom":"Corcelles-les-Arts","codes_postaux":["21190"],"code_dep":"21","code_region":"27","population":425,"surface_km2":5.5,"lat":46.9459,"lon":4.798,"fibre_pct":97.7},{"code_insee":"21191","nom":"Corcelles-lès-Cîteaux","codes_postaux":["21910"],"code_dep":"21","code_region":"27","population":839,"surface_km2":6.8,"lat":47.1688,"lon":5.0817,"fibre_pct":94.2},{"code_insee":"21192","nom":"Corcelles-les-Monts","codes_postaux":["21160"],"code_dep":"21","code_region":"27","population":684,"surface_km2":14.48,"lat":47.3033,"lon":4.9452,"fibre_pct":96.0},{"code_insee":"21193","nom":"Corgengoux","codes_postaux":["21250"],"code_dep":"21","code_region":"27","population":389,"surface_km2":12.55,"lat":46.9866,"lon":5.0129,"fibre_pct":100.0},{"code_insee":"21194","nom":"Corgoloin","codes_postaux":["21700"],"code_dep":"21","code_region":"27","population":982,"surface_km2":12.6,"lat":47.081,"lon":4.9354,"fibre_pct":95.2},{"code_insee":"21195","nom":"Cormot-Vauchignon","codes_postaux":["21340"],"code_dep":"21","code_region":"27","population":210,"surface_km2":10.2,"lat":46.9772,"lon":4.6438,"fibre_pct":98.9},{"code_insee":"21196","nom":"Corpeau","codes_postaux":["21190"],"code_dep":"21","code_region":"27","population":943,"surface_km2":4.68,"lat":46.9286,"lon":4.7608,"fibre_pct":96.9},{"code_insee":"21197","nom":"Corpoyer-la-Chapelle","codes_postaux":["21150"],"code_dep":"21","code_region":"27","population":38,"surface_km2":4.16,"lat":47.5514,"lon":4.6096,"fibre_pct":96.8},{"code_insee":"21198","nom":"Corrombles","codes_postaux":["21460"],"code_dep":"21","code_region":"27","population":241,"surface_km2":11.46,"lat":47.5192,"lon":4.2024,"fibre_pct":100.0},{"code_insee":"21199","nom":"Corsaint","codes_postaux":["21460"],"code_dep":"21","code_region":"27","population":129,"surface_km2":20.53,"lat":47.5515,"lon":4.2038,"fibre_pct":98.5},{"code_insee":"21200","nom":"Couchey","codes_postaux":["21160"],"code_dep":"21","code_region":"27","population":1103,"surface_km2":12.68,"lat":47.2598,"lon":4.9634,"fibre_pct":98.1},{"code_insee":"21201","nom":"Coulmier-le-Sec","codes_postaux":["21400"],"code_dep":"21","code_region":"27","population":240,"surface_km2":31.98,"lat":47.7535,"lon":4.4928,"fibre_pct":97.8},{"code_insee":"21202","nom":"Courban","codes_postaux":["21520"],"code_dep":"21","code_region":"27","population":140,"surface_km2":17.67,"lat":47.9093,"lon":4.747,"fibre_pct":100.0},{"code_insee":"21203","nom":"Courcelles-Frémoy","codes_postaux":["21460"],"code_dep":"21","code_region":"27","population":148,"surface_km2":11.44,"lat":47.4488,"lon":4.1884,"fibre_pct":96.7},{"code_insee":"21204","nom":"Courcelles-lès-Montbard","codes_postaux":["21500"],"code_dep":"21","code_region":"27","population":85,"surface_km2":6.16,"lat":47.5921,"lon":4.3945,"fibre_pct":100.0},{"code_insee":"21205","nom":"Courcelles-lès-Semur","codes_postaux":["21140"],"code_dep":"21","code_region":"27","population":221,"surface_km2":12.06,"lat":47.4489,"lon":4.2918,"fibre_pct":96.4},{"code_insee":"21207","nom":"Courlon","codes_postaux":["21580"],"code_dep":"21","code_region":"27","population":79,"surface_km2":9.83,"lat":47.646,"lon":5.0124,"fibre_pct":100.0},{"code_insee":"21208","nom":"Courtivron","codes_postaux":["21120"],"code_dep":"21","code_region":"27","population":167,"surface_km2":15.66,"lat":47.5315,"lon":4.95,"fibre_pct":100.0},{"code_insee":"21209","nom":"Couternon","codes_postaux":["21560"],"code_dep":"21","code_region":"27","population":1883,"surface_km2":6.87,"lat":47.3303,"lon":5.1501,"fibre_pct":90.2},{"code_insee":"21210","nom":"Créancey","codes_postaux":["21320"],"code_dep":"21","code_region":"27","population":514,"surface_km2":16.83,"lat":47.2557,"lon":4.5954,"fibre_pct":80.5},{"code_insee":"21211","nom":"Crécey-sur-Tille","codes_postaux":["21120"],"code_dep":"21","code_region":"27","population":127,"surface_km2":10.91,"lat":47.5697,"lon":5.1426,"fibre_pct":100.0},{"code_insee":"21212","nom":"Crépand","codes_postaux":["21500"],"code_dep":"21","code_region":"27","population":315,"surface_km2":5.81,"lat":47.6059,"lon":4.3082,"fibre_pct":96.8},{"code_insee":"21214","nom":"Crugey","codes_postaux":["21360"],"code_dep":"21","code_region":"27","population":166,"surface_km2":6.42,"lat":47.1808,"lon":4.68,"fibre_pct":100.0},{"code_insee":"21215","nom":"Cuiserey","codes_postaux":["21310"],"code_dep":"21","code_region":"27","population":172,"surface_km2":6.36,"lat":47.3715,"lon":5.3197,"fibre_pct":98.4},{"code_insee":"21216","nom":"Culètre","codes_postaux":["21230"],"code_dep":"21","code_region":"27","population":93,"surface_km2":5.62,"lat":47.1477,"lon":4.5668,"fibre_pct":100.0},{"code_insee":"21217","nom":"Curley","codes_postaux":["21220"],"code_dep":"21","code_region":"27","population":142,"surface_km2":5.67,"lat":47.2027,"lon":4.9111,"fibre_pct":97.5},{"code_insee":"21218","nom":"Curtil-Saint-Seine","codes_postaux":["21380"],"code_dep":"21","code_region":"27","population":112,"surface_km2":12.18,"lat":47.4637,"lon":4.9259,"fibre_pct":96.7},{"code_insee":"21219","nom":"Curtil-Vergy","codes_postaux":["21220"],"code_dep":"21","code_region":"27","population":163,"surface_km2":2.72,"lat":47.1715,"lon":4.8932,"fibre_pct":98.9},{"code_insee":"21220","nom":"Cussey-les-Forges","codes_postaux":["21580"],"code_dep":"21","code_region":"27","population":144,"surface_km2":23.45,"lat":47.6391,"lon":5.0845,"fibre_pct":99.0},{"code_insee":"21221","nom":"Cussy-la-Colonne","codes_postaux":["21360"],"code_dep":"21","code_region":"27","population":46,"surface_km2":6.15,"lat":47.0437,"lon":4.6491,"fibre_pct":100.0},{"code_insee":"21222","nom":"Cussy-le-Châtel","codes_postaux":["21230"],"code_dep":"21","code_region":"27","population":124,"surface_km2":7.29,"lat":47.1623,"lon":4.5817,"fibre_pct":100.0},{"code_insee":"21223","nom":"Daix","codes_postaux":["21121"],"code_dep":"21","code_region":"27","population":1515,"surface_km2":11.78,"lat":47.3635,"lon":4.9729,"fibre_pct":98.8},{"code_insee":"21224","nom":"Dampierre-en-Montagne","codes_postaux":["21350"],"code_dep":"21","code_region":"27","population":64,"surface_km2":10.36,"lat":47.4428,"lon":4.5534,"fibre_pct":100.0},{"code_insee":"21225","nom":"Dampierre-et-Flée","codes_postaux":["21310"],"code_dep":"21","code_region":"27","population":139,"surface_km2":9.49,"lat":47.4823,"lon":5.3549,"fibre_pct":98.9},{"code_insee":"21226","nom":"Darcey","codes_postaux":["21150"],"code_dep":"21","code_region":"27","population":330,"surface_km2":18.95,"lat":47.548,"lon":4.5651,"fibre_pct":99.5},{"code_insee":"21227","nom":"Darois","codes_postaux":["21121"],"code_dep":"21","code_region":"27","population":493,"surface_km2":8.09,"lat":47.396,"lon":4.9347,"fibre_pct":98.2},{"code_insee":"21228","nom":"Détain-et-Bruant","codes_postaux":["21220"],"code_dep":"21","code_region":"27","population":142,"surface_km2":15.54,"lat":47.1734,"lon":4.7888,"fibre_pct":100.0},{"code_insee":"21229","nom":"Diancey","codes_postaux":["21430"],"code_dep":"21","code_region":"27","population":99,"surface_km2":10.01,"lat":47.173,"lon":4.3632,"fibre_pct":100.0},{"code_insee":"21230","nom":"Diénay","codes_postaux":["21120"],"code_dep":"21","code_region":"27","population":385,"surface_km2":15.54,"lat":47.5216,"lon":5.0562,"fibre_pct":100.0},{"code_insee":"21231","nom":"Dijon","codes_postaux":["21000"],"code_dep":"21","code_region":"27","population":161830,"surface_km2":41.7,"lat":47.3319,"lon":5.0322,"fibre_pct":96.1},{"code_insee":"21232","nom":"Dompierre-en-Morvan","codes_postaux":["21390"],"code_dep":"21","code_region":"27","population":201,"surface_km2":15.33,"lat":47.3999,"lon":4.2348,"fibre_pct":97.5},{"code_insee":"21233","nom":"Drambon","codes_postaux":["21270"],"code_dep":"21","code_region":"27","population":179,"surface_km2":4.91,"lat":47.3346,"lon":5.3778,"fibre_pct":94.3},{"code_insee":"21234","nom":"Drée","codes_postaux":["21540"],"code_dep":"21","code_region":"27","population":66,"surface_km2":5.15,"lat":47.3437,"lon":4.6985,"fibre_pct":100.0},{"code_insee":"21235","nom":"Duesme","codes_postaux":["21510"],"code_dep":"21","code_region":"27","population":46,"surface_km2":13.38,"lat":47.6385,"lon":4.6941,"fibre_pct":95.6},{"code_insee":"21236","nom":"Ébaty","codes_postaux":["21190"],"code_dep":"21","code_region":"27","population":256,"surface_km2":2.12,"lat":46.9282,"lon":4.7799,"fibre_pct":92.9},{"code_insee":"21237","nom":"Échalot","codes_postaux":["21510"],"code_dep":"21","code_region":"27","population":93,"surface_km2":27.69,"lat":47.6059,"lon":4.8331,"fibre_pct":100.0},{"code_insee":"21238","nom":"Échannay","codes_postaux":["21540"],"code_dep":"21","code_region":"27","population":132,"surface_km2":7.18,"lat":47.2775,"lon":4.6806,"fibre_pct":100.0},{"code_insee":"21239","nom":"Échenon","codes_postaux":["21170"],"code_dep":"21","code_region":"27","population":763,"surface_km2":10.72,"lat":47.123,"lon":5.2889,"fibre_pct":99.7},{"code_insee":"21240","nom":"Échevannes","codes_postaux":["21120"],"code_dep":"21","code_region":"27","population":281,"surface_km2":11.46,"lat":47.5456,"lon":5.1544,"fibre_pct":88.8},{"code_insee":"21241","nom":"Échevronne","codes_postaux":["21420"],"code_dep":"21","code_region":"27","population":316,"surface_km2":8.67,"lat":47.1075,"lon":4.8299,"fibre_pct":100.0},{"code_insee":"21242","nom":"Échigey","codes_postaux":["21110"],"code_dep":"21","code_region":"27","population":316,"surface_km2":5.45,"lat":47.1769,"lon":5.199,"fibre_pct":100.0},{"code_insee":"21243","nom":"Écutigny","codes_postaux":["21360"],"code_dep":"21","code_region":"27","population":78,"surface_km2":5.68,"lat":47.0827,"lon":4.6214,"fibre_pct":100.0},{"code_insee":"21244","nom":"Éguilly","codes_postaux":["21320"],"code_dep":"21","code_region":"27","population":72,"surface_km2":5.7,"lat":47.3028,"lon":4.4994,"fibre_pct":69.2},{"code_insee":"21245","nom":"Épagny","codes_postaux":["21380"],"code_dep":"21","code_region":"27","population":328,"surface_km2":12.27,"lat":47.4511,"lon":5.0453,"fibre_pct":100.0},{"code_insee":"21246","nom":"Épernay-sous-Gevrey","codes_postaux":["21220"],"code_dep":"21","code_region":"27","population":151,"surface_km2":5.44,"lat":47.1721,"lon":5.0359,"fibre_pct":100.0},{"code_insee":"21247","nom":"Époisses","codes_postaux":["21460"],"code_dep":"21","code_region":"27","population":715,"surface_km2":21.71,"lat":47.506,"lon":4.1762,"fibre_pct":91.7},{"code_insee":"21248","nom":"Éringes","codes_postaux":["21500"],"code_dep":"21","code_region":"27","population":56,"surface_km2":6.03,"lat":47.586,"lon":4.4628,"fibre_pct":100.0},{"code_insee":"21249","nom":"Esbarres","codes_postaux":["21170"],"code_dep":"21","code_region":"27","population":689,"surface_km2":15.88,"lat":47.0902,"lon":5.2004,"fibre_pct":100.0},{"code_insee":"21250","nom":"Essarois","codes_postaux":["21290"],"code_dep":"21","code_region":"27","population":84,"surface_km2":18.26,"lat":47.758,"lon":4.7923,"fibre_pct":76.0},{"code_insee":"21251","nom":"Essey","codes_postaux":["21320"],"code_dep":"21","code_region":"27","population":315,"surface_km2":12.65,"lat":47.2053,"lon":4.5203,"fibre_pct":100.0},{"code_insee":"21252","nom":"Étais","codes_postaux":["21500"],"code_dep":"21","code_region":"27","population":75,"surface_km2":14.17,"lat":47.7046,"lon":4.4434,"fibre_pct":99.0},{"code_insee":"21253","nom":"Étalante","codes_postaux":["21510"],"code_dep":"21","code_region":"27","population":126,"surface_km2":39.33,"lat":47.6286,"lon":4.7657,"fibre_pct":100.0},{"code_insee":"21254","nom":"L'Étang-Vergy","codes_postaux":["21220"],"code_dep":"21","code_region":"27","population":200,"surface_km2":2.62,"lat":47.1842,"lon":4.8763,"fibre_pct":100.0},{"code_insee":"21255","nom":"Étaules","codes_postaux":["21121"],"code_dep":"21","code_region":"27","population":339,"surface_km2":16.73,"lat":47.4127,"lon":4.9528,"fibre_pct":100.0},{"code_insee":"21256","nom":"Étevaux","codes_postaux":["21270"],"code_dep":"21","code_region":"27","population":305,"surface_km2":8.72,"lat":47.3228,"lon":5.3211,"fibre_pct":96.6},{"code_insee":"21257","nom":"Étormay","codes_postaux":["21450"],"code_dep":"21","code_region":"27","population":66,"surface_km2":12.67,"lat":47.598,"lon":4.5825,"fibre_pct":95.6},{"code_insee":"21258","nom":"Étrochey","codes_postaux":["21400"],"code_dep":"21","code_region":"27","population":203,"surface_km2":3.22,"lat":47.8908,"lon":4.5199,"fibre_pct":100.0},{"code_insee":"21259","nom":"Fain-lès-Montbard","codes_postaux":["21500"],"code_dep":"21","code_region":"27","population":269,"surface_km2":7.57,"lat":47.6183,"lon":4.4062,"fibre_pct":100.0},{"code_insee":"21260","nom":"Fain-lès-Moutiers","codes_postaux":["21500"],"code_dep":"21","code_region":"27","population":152,"surface_km2":9.77,"lat":47.5861,"lon":4.2153,"fibre_pct":96.4},{"code_insee":"21261","nom":"Fauverney","codes_postaux":["21110"],"code_dep":"21","code_region":"27","population":651,"surface_km2":8.68,"lat":47.2636,"lon":5.1511,"fibre_pct":87.3},{"code_insee":"21262","nom":"Faverolles-lès-Lucey","codes_postaux":["21290"],"code_dep":"21","code_region":"27","population":29,"surface_km2":10.16,"lat":47.8264,"lon":4.8652,"fibre_pct":97.1},{"code_insee":"21263","nom":"Fénay","codes_postaux":["21600"],"code_dep":"21","code_region":"27","population":1708,"surface_km2":10.51,"lat":47.2452,"lon":5.054,"fibre_pct":94.6},{"code_insee":"21264","nom":"Le Fête","codes_postaux":["21230"],"code_dep":"21","code_region":"27","population":51,"surface_km2":3.1,"lat":47.1808,"lon":4.5099,"fibre_pct":100.0},{"code_insee":"21265","nom":"Fixin","codes_postaux":["21220"],"code_dep":"21","code_region":"27","population":701,"surface_km2":10.17,"lat":47.2483,"lon":4.9633,"fibre_pct":100.0},{"code_insee":"21266","nom":"Flacey","codes_postaux":["21490"],"code_dep":"21","code_region":"27","population":219,"surface_km2":6.74,"lat":47.4356,"lon":5.1355,"fibre_pct":100.0},{"code_insee":"21267","nom":"Flagey-Echézeaux","codes_postaux":["21640"],"code_dep":"21","code_region":"27","population":485,"surface_km2":8.06,"lat":47.1611,"lon":4.9744,"fibre_pct":99.6},{"code_insee":"21268","nom":"Flagey-lès-Auxonne","codes_postaux":["21130"],"code_dep":"21","code_region":"27","population":214,"surface_km2":7.97,"lat":47.131,"lon":5.393,"fibre_pct":97.2},{"code_insee":"21269","nom":"Flammerans","codes_postaux":["21130"],"code_dep":"21","code_region":"27","population":458,"surface_km2":16.71,"lat":47.2309,"lon":5.4362,"fibre_pct":95.5},{"code_insee":"21270","nom":"Flavignerot","codes_postaux":["21160"],"code_dep":"21","code_region":"27","population":232,"surface_km2":6.38,"lat":47.2786,"lon":4.9173,"fibre_pct":100.0},{"code_insee":"21271","nom":"Flavigny-sur-Ozerain","codes_postaux":["21150"],"code_dep":"21","code_region":"27","population":274,"surface_km2":27.83,"lat":47.5032,"lon":4.5193,"fibre_pct":99.6},{"code_insee":"21272","nom":"Le Val-Larrey","codes_postaux":["21140","21390"],"code_dep":"21","code_region":"27","population":275,"surface_km2":20.15,"lat":47.4357,"lon":4.3206,"fibre_pct":78.1},{"code_insee":"21273","nom":"Fleurey-sur-Ouche","codes_postaux":["21410"],"code_dep":"21","code_region":"27","population":1535,"surface_km2":30.25,"lat":47.2992,"lon":4.859,"fibre_pct":99.0},{"code_insee":"21274","nom":"Foissy","codes_postaux":["21230"],"code_dep":"21","code_region":"27","population":173,"surface_km2":15.2,"lat":47.1256,"lon":4.5543,"fibre_pct":100.0},{"code_insee":"21275","nom":"Foncegrive","codes_postaux":["21260"],"code_dep":"21","code_region":"27","population":126,"surface_km2":10.2,"lat":47.6184,"lon":5.1409,"fibre_pct":100.0},{"code_insee":"21276","nom":"Fontaines-en-Duesmois","codes_postaux":["21450"],"code_dep":"21","code_region":"27","population":116,"surface_km2":18.01,"lat":47.6488,"lon":4.5281,"fibre_pct":90.5},{"code_insee":"21277","nom":"Fontaine-Française","codes_postaux":["21610"],"code_dep":"21","code_region":"27","population":911,"surface_km2":30.62,"lat":47.5268,"lon":5.3587,"fibre_pct":98.4},{"code_insee":"21278","nom":"Fontaine-lès-Dijon","codes_postaux":["21121"],"code_dep":"21","code_region":"27","population":9252,"surface_km2":4.52,"lat":47.3477,"lon":5.025,"fibre_pct":98.7},{"code_insee":"21279","nom":"Fontaines-les-Sèches","codes_postaux":["21330"],"code_dep":"21","code_region":"27","population":26,"surface_km2":13.65,"lat":47.7855,"lon":4.359,"fibre_pct":100.0},{"code_insee":"21280","nom":"Fontangy","codes_postaux":["21390"],"code_dep":"21","code_region":"27","population":162,"surface_km2":17.81,"lat":47.3446,"lon":4.3684,"fibre_pct":100.0},{"code_insee":"21281","nom":"Fontenelle","codes_postaux":["21610"],"code_dep":"21","code_region":"27","population":169,"surface_km2":10.18,"lat":47.5029,"lon":5.3636,"fibre_pct":99.1},{"code_insee":"21282","nom":"Forléans","codes_postaux":["21460"],"code_dep":"21","code_region":"27","population":112,"surface_km2":7.15,"lat":47.4702,"lon":4.2051,"fibre_pct":100.0},{"code_insee":"21283","nom":"Fraignot-et-Vesvrotte","codes_postaux":["21580"],"code_dep":"21","code_region":"27","population":76,"surface_km2":11.77,"lat":47.6502,"lon":4.9348,"fibre_pct":95.4},{"code_insee":"21284","nom":"Francheville","codes_postaux":["21440"],"code_dep":"21","code_region":"27","population":256,"surface_km2":32.15,"lat":47.4556,"lon":4.8852,"fibre_pct":100.0},{"code_insee":"21285","nom":"Franxault","codes_postaux":["21170"],"code_dep":"21","code_region":"27","population":504,"surface_km2":12.5,"lat":47.0467,"lon":5.2658,"fibre_pct":98.8},{"code_insee":"21286","nom":"Frénois","codes_postaux":["21120"],"code_dep":"21","code_region":"27","population":96,"surface_km2":22.21,"lat":47.5251,"lon":4.8909,"fibre_pct":100.0},{"code_insee":"21287","nom":"Fresnes","codes_postaux":["21500"],"code_dep":"21","code_region":"27","population":153,"surface_km2":13.26,"lat":47.6076,"lon":4.4377,"fibre_pct":100.0},{"code_insee":"21288","nom":"Frôlois","codes_postaux":["21150"],"code_dep":"21","code_region":"27","population":166,"surface_km2":34.84,"lat":47.5353,"lon":4.6454,"fibre_pct":100.0},{"code_insee":"21289","nom":"Fussey","codes_postaux":["21700"],"code_dep":"21","code_region":"27","population":125,"surface_km2":7.71,"lat":47.1318,"lon":4.8195,"fibre_pct":100.0},{"code_insee":"21290","nom":"Gemeaux","codes_postaux":["21120"],"code_dep":"21","code_region":"27","population":974,"surface_km2":19.32,"lat":47.4738,"lon":5.1498,"fibre_pct":98.2},{"code_insee":"21291","nom":"Genay","codes_postaux":["21140"],"code_dep":"21","code_region":"27","population":370,"surface_km2":13.84,"lat":47.5216,"lon":4.2868,"fibre_pct":98.3},{"code_insee":"21292","nom":"Genlis","codes_postaux":["21110"],"code_dep":"21","code_region":"27","population":5093,"surface_km2":12.06,"lat":47.2403,"lon":5.2196,"fibre_pct":92.2},{"code_insee":"21293","nom":"Gergueil","codes_postaux":["21410"],"code_dep":"21","code_region":"27","population":131,"surface_km2":9.9,"lat":47.2381,"lon":4.8123,"fibre_pct":100.0},{"code_insee":"21294","nom":"Gerland","codes_postaux":["21700"],"code_dep":"21","code_region":"27","population":443,"surface_km2":20.73,"lat":47.1029,"lon":5.0307,"fibre_pct":97.0},{"code_insee":"21295","nom":"Gevrey-Chambertin","codes_postaux":["21220"],"code_dep":"21","code_region":"27","population":2917,"surface_km2":25.02,"lat":47.2188,"lon":4.9865,"fibre_pct":94.8},{"code_insee":"21296","nom":"Gevrolles","codes_postaux":["21520"],"code_dep":"21","code_region":"27","population":162,"surface_km2":27.03,"lat":47.987,"lon":4.7512,"fibre_pct":99.3},{"code_insee":"21297","nom":"Gilly-lès-Cîteaux","codes_postaux":["21640"],"code_dep":"21","code_region":"27","population":727,"surface_km2":11.12,"lat":47.1748,"lon":4.9956,"fibre_pct":99.8},{"code_insee":"21298","nom":"Gissey-le-Vieil","codes_postaux":["21350"],"code_dep":"21","code_region":"27","population":104,"surface_km2":8.4,"lat":47.3211,"lon":4.4852,"fibre_pct":100.0},{"code_insee":"21299","nom":"Gissey-sous-Flavigny","codes_postaux":["21150"],"code_dep":"21","code_region":"27","population":98,"surface_km2":10.3,"lat":47.5149,"lon":4.5848,"fibre_pct":94.4},{"code_insee":"21300","nom":"Gissey-sur-Ouche","codes_postaux":["21410"],"code_dep":"21","code_region":"27","population":362,"surface_km2":14.49,"lat":47.2594,"lon":4.7749,"fibre_pct":88.5},{"code_insee":"21301","nom":"Glanon","codes_postaux":["21250"],"code_dep":"21","code_region":"27","population":272,"surface_km2":3.7,"lat":47.0398,"lon":5.1089,"fibre_pct":99.4},{"code_insee":"21302","nom":"Gomméville","codes_postaux":["21400"],"code_dep":"21","code_region":"27","population":110,"surface_km2":9.97,"lat":47.9534,"lon":4.4885,"fibre_pct":100.0},{"code_insee":"21303","nom":"Les Goulles","codes_postaux":["21520"],"code_dep":"21","code_region":"27","population":17,"surface_km2":8.85,"lat":47.8783,"lon":4.9041,"fibre_pct":99.0},{"code_insee":"21304","nom":"Grancey-le-Château-Neuvelle","codes_postaux":["21580"],"code_dep":"21","code_region":"27","population":247,"surface_km2":27.71,"lat":47.6699,"lon":5.0117,"fibre_pct":96.4},{"code_insee":"21305","nom":"Grancey-sur-Ource","codes_postaux":["21570"],"code_dep":"21","code_region":"27","population":172,"surface_km2":24.16,"lat":47.9977,"lon":4.5786,"fibre_pct":100.0},{"code_insee":"21306","nom":"Grenant-lès-Sombernon","codes_postaux":["21540"],"code_dep":"21","code_region":"27","population":216,"surface_km2":7.15,"lat":47.269,"lon":4.7118,"fibre_pct":100.0},{"code_insee":"21307","nom":"Grésigny-Sainte-Reine","codes_postaux":["21150"],"code_dep":"21","code_region":"27","population":147,"surface_km2":7.05,"lat":47.5499,"lon":4.4977,"fibre_pct":100.0},{"code_insee":"21308","nom":"Grignon","codes_postaux":["21150"],"code_dep":"21","code_region":"27","population":186,"surface_km2":11.75,"lat":47.5552,"lon":4.4,"fibre_pct":99.4},{"code_insee":"21309","nom":"Griselles","codes_postaux":["21330"],"code_dep":"21","code_region":"27","population":91,"surface_km2":12.46,"lat":47.8759,"lon":4.3649,"fibre_pct":100.0},{"code_insee":"21310","nom":"Grosbois-en-Montagne","codes_postaux":["21540"],"code_dep":"21","code_region":"27","population":110,"surface_km2":14.04,"lat":47.3194,"lon":4.6005,"fibre_pct":99.1},{"code_insee":"21311","nom":"Grosbois-lès-Tichey","codes_postaux":["21250"],"code_dep":"21","code_region":"27","population":67,"surface_km2":4.9,"lat":47.0102,"lon":5.2374,"fibre_pct":100.0},{"code_insee":"21312","nom":"Gurgy-la-Ville","codes_postaux":["21290"],"code_dep":"21","code_region":"27","population":26,"surface_km2":12.76,"lat":47.8503,"lon":4.939,"fibre_pct":97.1},{"code_insee":"21313","nom":"Gurgy-le-Château","codes_postaux":["21290"],"code_dep":"21","code_region":"27","population":45,"surface_km2":17.68,"lat":47.8349,"lon":4.936,"fibre_pct":100.0},{"code_insee":"21314","nom":"Hauteroche","codes_postaux":["21150"],"code_dep":"21","code_region":"27","population":76,"surface_km2":13.34,"lat":47.4872,"lon":4.5758,"fibre_pct":99.0},{"code_insee":"21315","nom":"Hauteville-lès-Dijon","codes_postaux":["21121"],"code_dep":"21","code_region":"27","population":1195,"surface_km2":8.94,"lat":47.3783,"lon":4.9781,"fibre_pct":100.0},{"code_insee":"21316","nom":"Heuilley-sur-Saône","codes_postaux":["21270"],"code_dep":"21","code_region":"27","population":345,"surface_km2":9.78,"lat":47.3377,"lon":5.464,"fibre_pct":99.6},{"code_insee":"21317","nom":"Is-sur-Tille","codes_postaux":["21120"],"code_dep":"21","code_region":"27","population":4302,"surface_km2":22.54,"lat":47.5252,"lon":5.1136,"fibre_pct":91.7},{"code_insee":"21319","nom":"Izeure","codes_postaux":["21110"],"code_dep":"21","code_region":"27","population":907,"surface_km2":16.79,"lat":47.1653,"lon":5.1253,"fibre_pct":99.7},{"code_insee":"21320","nom":"Izier","codes_postaux":["21110"],"code_dep":"21","code_region":"27","population":783,"surface_km2":7.5,"lat":47.2789,"lon":5.1972,"fibre_pct":88.3},{"code_insee":"21321","nom":"Jailly-les-Moulins","codes_postaux":["21150"],"code_dep":"21","code_region":"27","population":76,"surface_km2":9.25,"lat":47.4612,"lon":4.594,"fibre_pct":100.0},{"code_insee":"21322","nom":"Jallanges","codes_postaux":["21250"],"code_dep":"21","code_region":"27","population":310,"surface_km2":7.45,"lat":46.9844,"lon":5.1692,"fibre_pct":100.0},{"code_insee":"21323","nom":"Jancigny","codes_postaux":["21310"],"code_dep":"21","code_region":"27","population":155,"surface_km2":6.96,"lat":47.382,"lon":5.424,"fibre_pct":100.0},{"code_insee":"21324","nom":"Jeux-lès-Bard","codes_postaux":["21460"],"code_dep":"21","code_region":"27","population":52,"surface_km2":3.25,"lat":47.5302,"lon":4.2556,"fibre_pct":100.0},{"code_insee":"21325","nom":"Jouey","codes_postaux":["21230"],"code_dep":"21","code_region":"27","population":188,"surface_km2":24.22,"lat":47.1569,"lon":4.4403,"fibre_pct":100.0},{"code_insee":"21326","nom":"Jours-lès-Baigneux","codes_postaux":["21450"],"code_dep":"21","code_region":"27","population":100,"surface_km2":11.34,"lat":47.6296,"lon":4.6062,"fibre_pct":99.2},{"code_insee":"21327","nom":"Val-Mont","codes_postaux":["21340"],"code_dep":"21","code_region":"27","population":251,"surface_km2":19.95,"lat":47.0317,"lon":4.6177,"fibre_pct":96.9},{"code_insee":"21328","nom":"Juillenay","codes_postaux":["21210"],"code_dep":"21","code_region":"27","population":52,"surface_km2":5.47,"lat":47.3579,"lon":4.2686,"fibre_pct":89.0},{"code_insee":"21329","nom":"Juilly","codes_postaux":["21140"],"code_dep":"21","code_region":"27","population":41,"surface_km2":4.52,"lat":47.4893,"lon":4.4007,"fibre_pct":100.0},{"code_insee":"21330","nom":"Labergement-Foigney","codes_postaux":["21110"],"code_dep":"21","code_region":"27","population":375,"surface_km2":7.64,"lat":47.2565,"lon":5.2468,"fibre_pct":100.0},{"code_insee":"21331","nom":"Labergement-lès-Auxonne","codes_postaux":["21130"],"code_dep":"21","code_region":"27","population":350,"surface_km2":5.96,"lat":47.1603,"lon":5.3771,"fibre_pct":100.0},{"code_insee":"21332","nom":"Labergement-lès-Seurre","codes_postaux":["21820"],"code_dep":"21","code_region":"27","population":1006,"surface_km2":29.01,"lat":46.9977,"lon":5.0876,"fibre_pct":96.2},{"code_insee":"21333","nom":"Labruyère","codes_postaux":["21250"],"code_dep":"21","code_region":"27","population":239,"surface_km2":7.44,"lat":47.0393,"lon":5.1441,"fibre_pct":100.0},{"code_insee":"21334","nom":"Lacanche","codes_postaux":["21230"],"code_dep":"21","code_region":"27","population":476,"surface_km2":7.27,"lat":47.0781,"lon":4.5576,"fibre_pct":100.0},{"code_insee":"21335","nom":"Lacour-d'Arcenay","codes_postaux":["21210"],"code_dep":"21","code_region":"27","population":109,"surface_km2":20.46,"lat":47.3586,"lon":4.2313,"fibre_pct":96.3},{"code_insee":"21336","nom":"Laignes","codes_postaux":["21330"],"code_dep":"21","code_region":"27","population":668,"surface_km2":40.35,"lat":47.8278,"lon":4.3688,"fibre_pct":97.8},{"code_insee":"21337","nom":"Lamarche-sur-Saône","codes_postaux":["21760"],"code_dep":"21","code_region":"27","population":1382,"surface_km2":33.81,"lat":47.2743,"lon":5.3711,"fibre_pct":95.9},{"code_insee":"21338","nom":"Lamargelle","codes_postaux":["21440"],"code_dep":"21","code_region":"27","population":142,"surface_km2":25.82,"lat":47.5156,"lon":4.8376,"fibre_pct":100.0},{"code_insee":"21339","nom":"Lantenay","codes_postaux":["21370"],"code_dep":"21","code_region":"27","population":496,"surface_km2":17.31,"lat":47.3435,"lon":4.8672,"fibre_pct":99.2},{"code_insee":"21340","nom":"Lanthes","codes_postaux":["21250"],"code_dep":"21","code_region":"27","population":256,"surface_km2":9.95,"lat":46.9992,"lon":5.2033,"fibre_pct":100.0},{"code_insee":"21341","nom":"Lantilly","codes_postaux":["21140"],"code_dep":"21","code_region":"27","population":97,"surface_km2":9.19,"lat":47.5416,"lon":4.3782,"fibre_pct":92.9},{"code_insee":"21342","nom":"Laperrière-sur-Saône","codes_postaux":["21170"],"code_dep":"21","code_region":"27","population":432,"surface_km2":11.05,"lat":47.1071,"lon":5.3513,"fibre_pct":99.0},{"code_insee":"21343","nom":"Larrey","codes_postaux":["21330"],"code_dep":"21","code_region":"27","population":95,"surface_km2":18.61,"lat":47.8986,"lon":4.4273,"fibre_pct":72.3},{"code_insee":"21344","nom":"Lechâtelet","codes_postaux":["21250"],"code_dep":"21","code_region":"27","population":228,"surface_km2":3.78,"lat":47.0535,"lon":5.1391,"fibre_pct":99.6},{"code_insee":"21345","nom":"Léry","codes_postaux":["21440"],"code_dep":"21","code_region":"27","population":204,"surface_km2":14.76,"lat":47.5559,"lon":4.8496,"fibre_pct":100.0},{"code_insee":"21346","nom":"Leuglay","codes_postaux":["21290"],"code_dep":"21","code_region":"27","population":283,"surface_km2":24.72,"lat":47.8164,"lon":4.8235,"fibre_pct":97.2},{"code_insee":"21347","nom":"Levernois","codes_postaux":["21200"],"code_dep":"21","code_region":"27","population":363,"surface_km2":3.78,"lat":46.9928,"lon":4.8712,"fibre_pct":81.6},{"code_insee":"21348","nom":"Licey-sur-Vingeanne","codes_postaux":["21610"],"code_dep":"21","code_region":"27","population":97,"surface_km2":3.43,"lat":47.4853,"lon":5.3718,"fibre_pct":100.0},{"code_insee":"21349","nom":"Liernais","codes_postaux":["21430"],"code_dep":"21","code_region":"27","population":482,"surface_km2":28.49,"lat":47.2213,"lon":4.2885,"fibre_pct":97.8},{"code_insee":"21350","nom":"Lignerolles","codes_postaux":["21520"],"code_dep":"21","code_region":"27","population":55,"surface_km2":13.54,"lat":47.9004,"lon":4.8881,"fibre_pct":97.6},{"code_insee":"21351","nom":"Longchamp","codes_postaux":["21110"],"code_dep":"21","code_region":"27","population":1171,"surface_km2":16.26,"lat":47.2613,"lon":5.2925,"fibre_pct":98.8},{"code_insee":"21352","nom":"Longeault-Pluvault","codes_postaux":["21110"],"code_dep":"21","code_region":"27","population":1174,"surface_km2":4.71,"lat":47.2099,"lon":5.2464,"fibre_pct":94.6},{"code_insee":"21353","nom":"Longecourt-en-Plaine","codes_postaux":["21110"],"code_dep":"21","code_region":"27","population":1177,"surface_km2":10.0,"lat":47.1978,"lon":5.1489,"fibre_pct":100.0},{"code_insee":"21354","nom":"Longecourt-lès-Culêtre","codes_postaux":["21230"],"code_dep":"21","code_region":"27","population":55,"surface_km2":4.45,"lat":47.1601,"lon":4.5541,"fibre_pct":100.0},{"code_insee":"21355","nom":"Longvic","codes_postaux":["21600"],"code_dep":"21","code_region":"27","population":8896,"surface_km2":10.53,"lat":47.2855,"lon":5.0585,"fibre_pct":90.9},{"code_insee":"21356","nom":"Losne","codes_postaux":["21170"],"code_dep":"21","code_region":"27","population":1720,"surface_km2":22.76,"lat":47.0787,"lon":5.282,"fibre_pct":96.5},{"code_insee":"21357","nom":"Louesme","codes_postaux":["21520"],"code_dep":"21","code_region":"27","population":111,"surface_km2":19.1,"lat":47.8898,"lon":4.7626,"fibre_pct":98.8},{"code_insee":"21358","nom":"Lucenay-le-Duc","codes_postaux":["21150"],"code_dep":"21","code_region":"27","population":196,"surface_km2":28.96,"lat":47.6278,"lon":4.5069,"fibre_pct":100.0},{"code_insee":"21359","nom":"Lucey","codes_postaux":["21290"],"code_dep":"21","code_region":"27","population":56,"surface_km2":18.73,"lat":47.8546,"lon":4.8608,"fibre_pct":100.0},{"code_insee":"21360","nom":"Lusigny-sur-Ouche","codes_postaux":["21360"],"code_dep":"21","code_region":"27","population":115,"surface_km2":9.95,"lat":47.0792,"lon":4.677,"fibre_pct":100.0},{"code_insee":"21361","nom":"Lux","codes_postaux":["21120"],"code_dep":"21","code_region":"27","population":517,"surface_km2":23.06,"lat":47.4861,"lon":5.2197,"fibre_pct":83.4},{"code_insee":"21362","nom":"Maconge","codes_postaux":["21320"],"code_dep":"21","code_region":"27","population":138,"surface_km2":6.34,"lat":47.2268,"lon":4.5787,"fibre_pct":100.0},{"code_insee":"21363","nom":"Magnien","codes_postaux":["21230"],"code_dep":"21","code_region":"27","population":316,"surface_km2":24.46,"lat":47.1074,"lon":4.4343,"fibre_pct":100.0},{"code_insee":"21364","nom":"Magny-Lambert","codes_postaux":["21450"],"code_dep":"21","code_region":"27","population":87,"surface_km2":12.91,"lat":47.6786,"lon":4.5884,"fibre_pct":98.5},{"code_insee":"21365","nom":"Magny-la-Ville","codes_postaux":["21140"],"code_dep":"21","code_region":"27","population":72,"surface_km2":3.71,"lat":47.4791,"lon":4.4309,"fibre_pct":100.0},{"code_insee":"21366","nom":"Magny-lès-Aubigny","codes_postaux":["21170"],"code_dep":"21","code_region":"27","population":219,"surface_km2":7.05,"lat":47.1107,"lon":5.1647,"fibre_pct":98.2},{"code_insee":"21367","nom":"Magny-Montarlot","codes_postaux":["21130"],"code_dep":"21","code_region":"27","population":262,"surface_km2":6.01,"lat":47.247,"lon":5.3466,"fibre_pct":99.2},{"code_insee":"21368","nom":"Magny-lès-Villers","codes_postaux":["21700"],"code_dep":"21","code_region":"27","population":229,"surface_km2":3.82,"lat":47.0929,"lon":4.8792,"fibre_pct":88.0},{"code_insee":"21369","nom":"Magny-Saint-Médard","codes_postaux":["21310"],"code_dep":"21","code_region":"27","population":346,"surface_km2":10.94,"lat":47.3808,"lon":5.2517,"fibre_pct":100.0},{"code_insee":"21370","nom":"Magny-sur-Tille","codes_postaux":["21110"],"code_dep":"21","code_region":"27","population":874,"surface_km2":10.56,"lat":47.2747,"lon":5.1691,"fibre_pct":100.0},{"code_insee":"21371","nom":"Les Maillys","codes_postaux":["21130"],"code_dep":"21","code_region":"27","population":803,"surface_km2":30.04,"lat":47.1424,"lon":5.3279,"fibre_pct":98.6},{"code_insee":"21372","nom":"Maisey-le-Duc","codes_postaux":["21400"],"code_dep":"21","code_region":"27","population":71,"surface_km2":12.65,"lat":47.8466,"lon":4.6823,"fibre_pct":100.0},{"code_insee":"21373","nom":"Mâlain","codes_postaux":["21410"],"code_dep":"21","code_region":"27","population":798,"surface_km2":11.23,"lat":47.3204,"lon":4.7931,"fibre_pct":98.1},{"code_insee":"21374","nom":"Maligny","codes_postaux":["21230"],"code_dep":"21","code_region":"27","population":171,"surface_km2":16.83,"lat":47.0814,"lon":4.5037,"fibre_pct":100.0},{"code_insee":"21375","nom":"Manlay","codes_postaux":["21430"],"code_dep":"21","code_region":"27","population":199,"surface_km2":19.14,"lat":47.1206,"lon":4.3324,"fibre_pct":98.9},{"code_insee":"21376","nom":"Marandeuil","codes_postaux":["21270"],"code_dep":"21","code_region":"27","population":100,"surface_km2":4.54,"lat":47.3454,"lon":5.3411,"fibre_pct":100.0},{"code_insee":"21377","nom":"Marcellois","codes_postaux":["21350"],"code_dep":"21","code_region":"27","population":45,"surface_km2":3.72,"lat":47.3472,"lon":4.6185,"fibre_pct":100.0},{"code_insee":"21378","nom":"Marcenay","codes_postaux":["21330"],"code_dep":"21","code_region":"27","population":108,"surface_km2":9.48,"lat":47.8596,"lon":4.4047,"fibre_pct":100.0},{"code_insee":"21379","nom":"Marcheseuil","codes_postaux":["21430"],"code_dep":"21","code_region":"27","population":158,"surface_km2":17.46,"lat":47.1439,"lon":4.3751,"fibre_pct":98.7},{"code_insee":"21380","nom":"Marcigny-sous-Thil","codes_postaux":["21390"],"code_dep":"21","code_region":"27","population":56,"surface_km2":5.08,"lat":47.3911,"lon":4.3846,"fibre_pct":100.0},{"code_insee":"21381","nom":"Marcilly-et-Dracy","codes_postaux":["21350"],"code_dep":"21","code_region":"27","population":84,"surface_km2":8.65,"lat":47.4049,"lon":4.497,"fibre_pct":100.0},{"code_insee":"21382","nom":"Marcilly-Ogny","codes_postaux":["21320"],"code_dep":"21","code_region":"27","population":197,"surface_km2":17.93,"lat":47.2467,"lon":4.4092,"fibre_pct":99.4},{"code_insee":"21383","nom":"Marcilly-sur-Tille","codes_postaux":["21120"],"code_dep":"21","code_region":"27","population":1744,"surface_km2":7.25,"lat":47.5127,"lon":5.1292,"fibre_pct":93.0},{"code_insee":"21384","nom":"Marey-lès-Fussey","codes_postaux":["21700"],"code_dep":"21","code_region":"27","population":87,"surface_km2":3.94,"lat":47.1209,"lon":4.8637,"fibre_pct":100.0},{"code_insee":"21385","nom":"Marey-sur-Tille","codes_postaux":["21120"],"code_dep":"21","code_region":"27","population":330,"surface_km2":30.23,"lat":47.5887,"lon":5.087,"fibre_pct":99.5},{"code_insee":"21386","nom":"Marigny-le-Cahouët","codes_postaux":["21150"],"code_dep":"21","code_region":"27","population":305,"surface_km2":19.27,"lat":47.4588,"lon":4.4454,"fibre_pct":98.3},{"code_insee":"21387","nom":"Marigny-lès-Reullée","codes_postaux":["21200"],"code_dep":"21","code_region":"27","population":211,"surface_km2":10.02,"lat":47.0076,"lon":4.955,"fibre_pct":100.0},{"code_insee":"21388","nom":"Marliens","codes_postaux":["21110"],"code_dep":"21","code_region":"27","population":607,"surface_km2":4.35,"lat":47.2168,"lon":5.1784,"fibre_pct":100.0},{"code_insee":"21389","nom":"Marmagne","codes_postaux":["21500"],"code_dep":"21","code_region":"27","population":195,"surface_km2":12.92,"lat":47.6416,"lon":4.3842,"fibre_pct":100.0},{"code_insee":"21390","nom":"Marsannay-la-Côte","codes_postaux":["21160"],"code_dep":"21","code_region":"27","population":5433,"surface_km2":12.78,"lat":47.2803,"lon":4.9875,"fibre_pct":99.0},{"code_insee":"21391","nom":"Marsannay-le-Bois","codes_postaux":["21380"],"code_dep":"21","code_region":"27","population":843,"surface_km2":12.11,"lat":47.4409,"lon":5.0968,"fibre_pct":99.5},{"code_insee":"21392","nom":"Martrois","codes_postaux":["21320"],"code_dep":"21","code_region":"27","population":60,"surface_km2":7.56,"lat":47.3078,"lon":4.5483,"fibre_pct":100.0},{"code_insee":"21393","nom":"Massingy","codes_postaux":["21400"],"code_dep":"21","code_region":"27","population":171,"surface_km2":9.51,"lat":47.9029,"lon":4.5999,"fibre_pct":100.0},{"code_insee":"21394","nom":"Massingy-lès-Semur","codes_postaux":["21140"],"code_dep":"21","code_region":"27","population":151,"surface_km2":8.44,"lat":47.5179,"lon":4.4071,"fibre_pct":100.0},{"code_insee":"21395","nom":"Massingy-lès-Vitteaux","codes_postaux":["21350"],"code_dep":"21","code_region":"27","population":92,"surface_km2":9.41,"lat":47.3961,"lon":4.5916,"fibre_pct":100.0},{"code_insee":"21396","nom":"Mauvilly","codes_postaux":["21510"],"code_dep":"21","code_region":"27","population":61,"surface_km2":14.36,"lat":47.7101,"lon":4.713,"fibre_pct":100.0},{"code_insee":"21397","nom":"Mavilly-Mandelot","codes_postaux":["21190"],"code_dep":"21","code_region":"27","population":166,"surface_km2":9.72,"lat":47.0617,"lon":4.7319,"fibre_pct":96.5},{"code_insee":"21398","nom":"Maxilly-sur-Saône","codes_postaux":["21270"],"code_dep":"21","code_region":"27","population":364,"surface_km2":7.91,"lat":47.3301,"lon":5.4195,"fibre_pct":97.0},{"code_insee":"21399","nom":"Meilly-sur-Rouvres","codes_postaux":["21320"],"code_dep":"21","code_region":"27","population":230,"surface_km2":15.07,"lat":47.2071,"lon":4.5528,"fibre_pct":100.0},{"code_insee":"21400","nom":"Le Meix","codes_postaux":["21580"],"code_dep":"21","code_region":"27","population":41,"surface_km2":10.68,"lat":47.592,"lon":4.9382,"fibre_pct":95.1},{"code_insee":"21401","nom":"Meloisey","codes_postaux":["21190"],"code_dep":"21","code_region":"27","population":321,"surface_km2":12.22,"lat":47.0352,"lon":4.7215,"fibre_pct":96.7},{"code_insee":"21402","nom":"Menesble","codes_postaux":["21290"],"code_dep":"21","code_region":"27","population":17,"surface_km2":5.54,"lat":47.7828,"lon":4.9045,"fibre_pct":100.0},{"code_insee":"21403","nom":"Ménessaire","codes_postaux":["21430"],"code_dep":"21","code_region":"27","population":75,"surface_km2":15.07,"lat":47.1326,"lon":4.149,"fibre_pct":0.0},{"code_insee":"21404","nom":"Ménétreux-le-Pitois","codes_postaux":["21150"],"code_dep":"21","code_region":"27","population":389,"surface_km2":6.64,"lat":47.5606,"lon":4.4566,"fibre_pct":100.0},{"code_insee":"21405","nom":"Merceuil","codes_postaux":["21190"],"code_dep":"21","code_region":"27","population":815,"surface_km2":13.79,"lat":46.9549,"lon":4.8494,"fibre_pct":93.0},{"code_insee":"21406","nom":"Mesmont","codes_postaux":["21540"],"code_dep":"21","code_region":"27","population":253,"surface_km2":6.37,"lat":47.3118,"lon":4.7429,"fibre_pct":95.7},{"code_insee":"21407","nom":"Messanges","codes_postaux":["21220"],"code_dep":"21","code_region":"27","population":250,"surface_km2":3.0,"lat":47.1621,"lon":4.8678,"fibre_pct":100.0},{"code_insee":"21408","nom":"Messigny-et-Vantoux","codes_postaux":["21380"],"code_dep":"21","code_region":"27","population":1720,"surface_km2":33.97,"lat":47.4216,"lon":5.0008,"fibre_pct":79.5},{"code_insee":"21409","nom":"Meuilley","codes_postaux":["21700"],"code_dep":"21","code_region":"27","population":411,"surface_km2":6.15,"lat":47.139,"lon":4.8792,"fibre_pct":100.0},{"code_insee":"21410","nom":"Meulson","codes_postaux":["21510"],"code_dep":"21","code_region":"27","population":28,"surface_km2":7.81,"lat":47.6918,"lon":4.7061,"fibre_pct":100.0},{"code_insee":"21411","nom":"Meursanges","codes_postaux":["21200"],"code_dep":"21","code_region":"27","population":591,"surface_km2":14.3,"lat":46.9831,"lon":4.9482,"fibre_pct":81.8},{"code_insee":"21412","nom":"Meursault","codes_postaux":["21190"],"code_dep":"21","code_region":"27","population":1363,"surface_km2":16.16,"lat":46.9717,"lon":4.7749,"fibre_pct":96.0},{"code_insee":"21413","nom":"Millery","codes_postaux":["21140"],"code_dep":"21","code_region":"27","population":410,"surface_km2":20.93,"lat":47.5155,"lon":4.3124,"fibre_pct":97.9},{"code_insee":"21414","nom":"Mimeure","codes_postaux":["21230"],"code_dep":"21","code_region":"27","population":320,"surface_km2":13.95,"lat":47.1546,"lon":4.4958,"fibre_pct":100.0},{"code_insee":"21415","nom":"Minot","codes_postaux":["21510"],"code_dep":"21","code_region":"27","population":186,"surface_km2":36.17,"lat":47.6651,"lon":4.872,"fibre_pct":100.0},{"code_insee":"21416","nom":"Mirebeau-sur-Bèze","codes_postaux":["21310"],"code_dep":"21","code_region":"27","population":1919,"surface_km2":22.19,"lat":47.4054,"lon":5.3222,"fibre_pct":82.9},{"code_insee":"21417","nom":"Missery","codes_postaux":["21210"],"code_dep":"21","code_region":"27","population":105,"surface_km2":9.69,"lat":47.309,"lon":4.377,"fibre_pct":100.0},{"code_insee":"21418","nom":"Moitron","codes_postaux":["21510"],"code_dep":"21","code_region":"27","population":57,"surface_km2":15.47,"lat":47.6829,"lon":4.8075,"fibre_pct":100.0},{"code_insee":"21419","nom":"Molesme","codes_postaux":["21330"],"code_dep":"21","code_region":"27","population":278,"surface_km2":28.53,"lat":47.9455,"lon":4.3767,"fibre_pct":100.0},{"code_insee":"21420","nom":"Molinot","codes_postaux":["21340"],"code_dep":"21","code_region":"27","population":175,"surface_km2":12.73,"lat":47.0117,"lon":4.5822,"fibre_pct":100.0},{"code_insee":"21421","nom":"Moloy","codes_postaux":["21120"],"code_dep":"21","code_region":"27","population":236,"surface_km2":19.21,"lat":47.5391,"lon":4.9222,"fibre_pct":57.3},{"code_insee":"21422","nom":"Molphey","codes_postaux":["21210"],"code_dep":"21","code_region":"27","population":132,"surface_km2":7.65,"lat":47.3337,"lon":4.2059,"fibre_pct":100.0},{"code_insee":"21423","nom":"Montagny-lès-Beaune","codes_postaux":["21200"],"code_dep":"21","code_region":"27","population":777,"surface_km2":6.08,"lat":46.9845,"lon":4.8536,"fibre_pct":90.7},{"code_insee":"21424","nom":"Montagny-lès-Seurre","codes_postaux":["21250"],"code_dep":"21","code_region":"27","population":117,"surface_km2":7.12,"lat":47.019,"lon":5.2474,"fibre_pct":100.0},{"code_insee":"21425","nom":"Montbard","codes_postaux":["21500"],"code_dep":"21","code_region":"27","population":4639,"surface_km2":46.44,"lat":47.6587,"lon":4.3443,"fibre_pct":96.7},{"code_insee":"21426","nom":"Montberthault","codes_postaux":["21460"],"code_dep":"21","code_region":"27","population":226,"surface_km2":12.14,"lat":47.4573,"lon":4.1598,"fibre_pct":99.4},{"code_insee":"21427","nom":"Montceau-et-Écharnant","codes_postaux":["21360"],"code_dep":"21","code_region":"27","population":173,"surface_km2":18.68,"lat":47.062,"lon":4.6623,"fibre_pct":96.1},{"code_insee":"21428","nom":"Monthelie","codes_postaux":["21190"],"code_dep":"21","code_region":"27","population":144,"surface_km2":3.18,"lat":47.0007,"lon":4.7627,"fibre_pct":86.1},{"code_insee":"21429","nom":"Montigny-Montfort","codes_postaux":["21500"],"code_dep":"21","code_region":"27","population":268,"surface_km2":17.17,"lat":47.5851,"lon":4.3387,"fibre_pct":100.0},{"code_insee":"21430","nom":"Montigny-Saint-Barthélemy","codes_postaux":["21390"],"code_dep":"21","code_region":"27","population":81,"surface_km2":6.23,"lat":47.4206,"lon":4.2626,"fibre_pct":98.4},{"code_insee":"21431","nom":"Montigny-sur-Armançon","codes_postaux":["21140"],"code_dep":"21","code_region":"27","population":158,"surface_km2":8.24,"lat":47.4398,"lon":4.3724,"fibre_pct":100.0},{"code_insee":"21432","nom":"Montigny-sur-Aube","codes_postaux":["21520"],"code_dep":"21","code_region":"27","population":261,"surface_km2":19.87,"lat":47.9517,"lon":4.7515,"fibre_pct":99.2},{"code_insee":"21433","nom":"Montigny-Mornay-Villeneuve-sur-Vingeanne","codes_postaux":["21610"],"code_dep":"21","code_region":"27","population":381,"surface_km2":30.94,"lat":47.5751,"lon":5.4422,"fibre_pct":100.0},{"code_insee":"21434","nom":"Montlay-en-Auxois","codes_postaux":["21210"],"code_dep":"21","code_region":"27","population":199,"surface_km2":17.48,"lat":47.3356,"lon":4.2631,"fibre_pct":97.6},{"code_insee":"21435","nom":"Montliot-et-Courcelles","codes_postaux":["21400"],"code_dep":"21","code_region":"27","population":293,"surface_km2":8.81,"lat":47.8951,"lon":4.5596,"fibre_pct":100.0},{"code_insee":"21436","nom":"Montmain","codes_postaux":["21250"],"code_dep":"21","code_region":"27","population":137,"surface_km2":9.03,"lat":47.0281,"lon":5.0565,"fibre_pct":80.2},{"code_insee":"21437","nom":"Montmançon","codes_postaux":["21270"],"code_dep":"21","code_region":"27","population":237,"surface_km2":9.01,"lat":47.3543,"lon":5.3746,"fibre_pct":100.0},{"code_insee":"21438","nom":"Montmoyen","codes_postaux":["21290"],"code_dep":"21","code_region":"27","population":71,"surface_km2":19.26,"lat":47.7303,"lon":4.7955,"fibre_pct":97.6},{"code_insee":"21439","nom":"Montoillot","codes_postaux":["21540"],"code_dep":"21","code_region":"27","population":96,"surface_km2":7.69,"lat":47.2729,"lon":4.6596,"fibre_pct":94.8},{"code_insee":"21440","nom":"Montot","codes_postaux":["21170"],"code_dep":"21","code_region":"27","population":206,"surface_km2":7.53,"lat":47.1532,"lon":5.2422,"fibre_pct":100.0},{"code_insee":"21441","nom":"Mont-Saint-Jean","codes_postaux":["21320"],"code_dep":"21","code_region":"27","population":267,"surface_km2":27.85,"lat":47.2853,"lon":4.4052,"fibre_pct":100.0},{"code_insee":"21442","nom":"Morey-Saint-Denis","codes_postaux":["21220"],"code_dep":"21","code_region":"27","population":597,"surface_km2":7.8,"lat":47.2001,"lon":4.9649,"fibre_pct":97.8},{"code_insee":"21444","nom":"Mosson","codes_postaux":["21400"],"code_dep":"21","code_region":"27","population":70,"surface_km2":7.43,"lat":47.9198,"lon":4.6298,"fibre_pct":91.2},{"code_insee":"21445","nom":"La Motte-Ternant","codes_postaux":["21210"],"code_dep":"21","code_region":"27","population":148,"surface_km2":21.71,"lat":47.3143,"lon":4.3222,"fibre_pct":96.3},{"code_insee":"21446","nom":"Moutiers-Saint-Jean","codes_postaux":["21500"],"code_dep":"21","code_region":"27","population":254,"surface_km2":5.05,"lat":47.5629,"lon":4.227,"fibre_pct":99.3},{"code_insee":"21447","nom":"Musigny","codes_postaux":["21230"],"code_dep":"21","code_region":"27","population":87,"surface_km2":6.17,"lat":47.1648,"lon":4.5222,"fibre_pct":100.0},{"code_insee":"21448","nom":"Mussy-la-Fosse","codes_postaux":["21150"],"code_dep":"21","code_region":"27","population":96,"surface_km2":4.4,"lat":47.5201,"lon":4.4457,"fibre_pct":96.1},{"code_insee":"21449","nom":"Nan-sous-Thil","codes_postaux":["21390"],"code_dep":"21","code_region":"27","population":169,"surface_km2":11.11,"lat":47.3812,"lon":4.359,"fibre_pct":100.0},{"code_insee":"21450","nom":"Nantoux","codes_postaux":["21190"],"code_dep":"21","code_region":"27","population":168,"surface_km2":6.63,"lat":47.0344,"lon":4.7576,"fibre_pct":99.3},{"code_insee":"21451","nom":"Nesle-et-Massoult","codes_postaux":["21330"],"code_dep":"21","code_region":"27","population":78,"surface_km2":23.62,"lat":47.7787,"lon":4.428,"fibre_pct":100.0},{"code_insee":"21452","nom":"Neuilly-Crimolois","codes_postaux":["21800"],"code_dep":"21","code_region":"27","population":3588,"surface_km2":8.19,"lat":47.2723,"lon":5.1143,"fibre_pct":100.0},{"code_insee":"21454","nom":"Nicey","codes_postaux":["21330"],"code_dep":"21","code_region":"27","population":112,"surface_km2":23.85,"lat":47.8676,"lon":4.2933,"fibre_pct":99.3},{"code_insee":"21455","nom":"Nod-sur-Seine","codes_postaux":["21400"],"code_dep":"21","code_region":"27","population":204,"surface_km2":25.21,"lat":47.7689,"lon":4.5937,"fibre_pct":100.0},{"code_insee":"21456","nom":"Nogent-lès-Montbard","codes_postaux":["21500"],"code_dep":"21","code_region":"27","population":153,"surface_km2":6.46,"lat":47.6025,"lon":4.3709,"fibre_pct":100.0},{"code_insee":"21457","nom":"Noidan","codes_postaux":["21390"],"code_dep":"21","code_region":"27","population":94,"surface_km2":7.92,"lat":47.3453,"lon":4.4148,"fibre_pct":100.0},{"code_insee":"21458","nom":"Noiron-sous-Gevrey","codes_postaux":["21910"],"code_dep":"21","code_region":"27","population":1134,"surface_km2":6.6,"lat":47.1859,"lon":5.0852,"fibre_pct":99.3},{"code_insee":"21459","nom":"Noiron-sur-Bèze","codes_postaux":["21310"],"code_dep":"21","code_region":"27","population":228,"surface_km2":11.82,"lat":47.4407,"lon":5.2965,"fibre_pct":89.4},{"code_insee":"21460","nom":"Noiron-sur-Seine","codes_postaux":["21400"],"code_dep":"21","code_region":"27","population":62,"surface_km2":11.37,"lat":47.938,"lon":4.4714,"fibre_pct":98.4},{"code_insee":"21461","nom":"Nolay","codes_postaux":["21340"],"code_dep":"21","code_region":"27","population":1409,"surface_km2":14.4,"lat":46.9588,"lon":4.6193,"fibre_pct":95.8},{"code_insee":"21462","nom":"Norges-la-Ville","codes_postaux":["21490"],"code_dep":"21","code_region":"27","population":961,"surface_km2":11.0,"lat":47.4047,"lon":5.0699,"fibre_pct":97.2},{"code_insee":"21463","nom":"Normier","codes_postaux":["21390"],"code_dep":"21","code_region":"27","population":63,"surface_km2":5.13,"lat":47.3643,"lon":4.4352,"fibre_pct":100.0},{"code_insee":"21464","nom":"Nuits-Saint-Georges","codes_postaux":["21700"],"code_dep":"21","code_region":"27","population":5235,"surface_km2":20.4,"lat":47.1518,"lon":4.9414,"fibre_pct":98.2},{"code_insee":"21465","nom":"Obtrée","codes_postaux":["21400"],"code_dep":"21","code_region":"27","population":81,"surface_km2":5.21,"lat":47.9328,"lon":4.5619,"fibre_pct":94.4},{"code_insee":"21466","nom":"Oigny","codes_postaux":["21450"],"code_dep":"21","code_region":"27","population":39,"surface_km2":14.82,"lat":47.5846,"lon":4.7269,"fibre_pct":81.3},{"code_insee":"21467","nom":"Oisilly","codes_postaux":["21310"],"code_dep":"21","code_region":"27","population":127,"surface_km2":5.99,"lat":47.418,"lon":5.3634,"fibre_pct":98.8},{"code_insee":"21468","nom":"Orain","codes_postaux":["21610"],"code_dep":"21","code_region":"27","population":90,"surface_km2":13.57,"lat":47.6123,"lon":5.4354,"fibre_pct":100.0},{"code_insee":"21469","nom":"Orgeux","codes_postaux":["21490"],"code_dep":"21","code_region":"27","population":466,"surface_km2":4.76,"lat":47.3625,"lon":5.1498,"fibre_pct":100.0},{"code_insee":"21470","nom":"Origny","codes_postaux":["21510"],"code_dep":"21","code_region":"27","population":53,"surface_km2":5.22,"lat":47.7131,"lon":4.6291,"fibre_pct":95.2},{"code_insee":"21471","nom":"Orret","codes_postaux":["21450"],"code_dep":"21","code_region":"27","population":12,"surface_km2":11.46,"lat":47.6082,"lon":4.7017,"fibre_pct":76.1},{"code_insee":"21472","nom":"Orville","codes_postaux":["21260"],"code_dep":"21","code_region":"27","population":184,"surface_km2":2.24,"lat":47.5616,"lon":5.224,"fibre_pct":100.0},{"code_insee":"21473","nom":"Ouges","codes_postaux":["21600"],"code_dep":"21","code_region":"27","population":1402,"surface_km2":12.18,"lat":47.2589,"lon":5.0775,"fibre_pct":95.2},{"code_insee":"21474","nom":"Pagny-la-Ville","codes_postaux":["21250"],"code_dep":"21","code_region":"27","population":414,"surface_km2":6.73,"lat":47.0544,"lon":5.1702,"fibre_pct":95.9},{"code_insee":"21475","nom":"Pagny-le-Château","codes_postaux":["21250"],"code_dep":"21","code_region":"27","population":477,"surface_km2":24.33,"lat":47.0484,"lon":5.2086,"fibre_pct":81.2},{"code_insee":"21476","nom":"Painblanc","codes_postaux":["21360"],"code_dep":"21","code_region":"27","population":171,"surface_km2":9.28,"lat":47.1488,"lon":4.6289,"fibre_pct":100.0},{"code_insee":"21477","nom":"Panges","codes_postaux":["21540"],"code_dep":"21","code_region":"27","population":85,"surface_km2":6.12,"lat":47.3729,"lon":4.8055,"fibre_pct":100.0},{"code_insee":"21478","nom":"Pasques","codes_postaux":["21370"],"code_dep":"21","code_region":"27","population":290,"surface_km2":20.46,"lat":47.3801,"lon":4.849,"fibre_pct":100.0},{"code_insee":"21479","nom":"Pellerey","codes_postaux":["21440"],"code_dep":"21","code_region":"27","population":79,"surface_km2":12.59,"lat":47.5129,"lon":4.7871,"fibre_pct":100.0},{"code_insee":"21480","nom":"Pernand-Vergelesses","codes_postaux":["21420"],"code_dep":"21","code_region":"27","population":237,"surface_km2":5.56,"lat":47.0778,"lon":4.8513,"fibre_pct":99.5},{"code_insee":"21481","nom":"Perrigny-lès-Dijon","codes_postaux":["21160"],"code_dep":"21","code_region":"27","population":2385,"surface_km2":6.69,"lat":47.2556,"lon":5.0197,"fibre_pct":87.1},{"code_insee":"21482","nom":"Perrigny-sur-l'Ognon","codes_postaux":["21270"],"code_dep":"21","code_region":"27","population":655,"surface_km2":18.76,"lat":47.3052,"lon":5.467,"fibre_pct":98.5},{"code_insee":"21483","nom":"Pichanges","codes_postaux":["21120"],"code_dep":"21","code_region":"27","population":285,"surface_km2":10.08,"lat":47.4539,"lon":5.1584,"fibre_pct":89.2},{"code_insee":"21484","nom":"Planay","codes_postaux":["21500"],"code_dep":"21","code_region":"27","population":61,"surface_km2":8.82,"lat":47.7337,"lon":4.3799,"fibre_pct":97.3},{"code_insee":"21485","nom":"Plombières-lès-Dijon","codes_postaux":["21370"],"code_dep":"21","code_region":"27","population":2497,"surface_km2":14.96,"lat":47.3368,"lon":4.9473,"fibre_pct":96.8},{"code_insee":"21487","nom":"Pluvet","codes_postaux":["21110"],"code_dep":"21","code_region":"27","population":432,"surface_km2":6.45,"lat":47.1978,"lon":5.2644,"fibre_pct":97.2},{"code_insee":"21488","nom":"Poinçon-lès-Larrey","codes_postaux":["21330"],"code_dep":"21","code_region":"27","population":197,"surface_km2":10.46,"lat":47.8745,"lon":4.4578,"fibre_pct":100.0},{"code_insee":"21489","nom":"Poiseul-la-Grange","codes_postaux":["21440"],"code_dep":"21","code_region":"27","population":75,"surface_km2":23.09,"lat":47.5727,"lon":4.7962,"fibre_pct":100.0},{"code_insee":"21490","nom":"Poiseul-la-Ville-et-Laperrière","codes_postaux":["21450"],"code_dep":"21","code_region":"27","population":154,"surface_km2":21.6,"lat":47.566,"lon":4.6587,"fibre_pct":100.0},{"code_insee":"21491","nom":"Poiseul-lès-Saulx","codes_postaux":["21120"],"code_dep":"21","code_region":"27","population":77,"surface_km2":15.25,"lat":47.5791,"lon":4.9776,"fibre_pct":100.0},{"code_insee":"21492","nom":"Pommard","codes_postaux":["21630"],"code_dep":"21","code_region":"27","population":430,"surface_km2":10.08,"lat":47.0144,"lon":4.7938,"fibre_pct":97.7},{"code_insee":"21493","nom":"Poncey-lès-Athée","codes_postaux":["21130"],"code_dep":"21","code_region":"27","population":577,"surface_km2":6.58,"lat":47.2336,"lon":5.3813,"fibre_pct":99.3},{"code_insee":"21494","nom":"Poncey-sur-l'Ignon","codes_postaux":["21440"],"code_dep":"21","code_region":"27","population":80,"surface_km2":16.52,"lat":47.4929,"lon":4.7548,"fibre_pct":100.0},{"code_insee":"21495","nom":"Pont","codes_postaux":["21130"],"code_dep":"21","code_region":"27","population":157,"surface_km2":3.56,"lat":47.1817,"lon":5.323,"fibre_pct":98.8},{"code_insee":"21496","nom":"Pontailler-sur-Saône","codes_postaux":["21270"],"code_dep":"21","code_region":"27","population":1277,"surface_km2":13.24,"lat":47.3019,"lon":5.415,"fibre_pct":99.6},{"code_insee":"21497","nom":"Pont-et-Massène","codes_postaux":["21140"],"code_dep":"21","code_region":"27","population":187,"surface_km2":6.16,"lat":47.4709,"lon":4.3562,"fibre_pct":100.0},{"code_insee":"21498","nom":"Posanges","codes_postaux":["21350"],"code_dep":"21","code_region":"27","population":51,"surface_km2":5.87,"lat":47.422,"lon":4.5233,"fibre_pct":94.5},{"code_insee":"21499","nom":"Pothières","codes_postaux":["21400"],"code_dep":"21","code_region":"27","population":189,"surface_km2":18.06,"lat":47.919,"lon":4.4863,"fibre_pct":99.2},{"code_insee":"21500","nom":"Pouillenay","codes_postaux":["21150"],"code_dep":"21","code_region":"27","population":605,"surface_km2":15.06,"lat":47.5055,"lon":4.4554,"fibre_pct":96.5},{"code_insee":"21501","nom":"Pouilly-en-Auxois","codes_postaux":["21320"],"code_dep":"21","code_region":"27","population":1533,"surface_km2":10.18,"lat":47.2627,"lon":4.5563,"fibre_pct":98.8},{"code_insee":"21502","nom":"Pouilly-sur-Saône","codes_postaux":["21250"],"code_dep":"21","code_region":"27","population":619,"surface_km2":5.2,"lat":47.01,"lon":5.1231,"fibre_pct":89.8},{"code_insee":"21503","nom":"Pouilly-sur-Vingeanne","codes_postaux":["21610"],"code_dep":"21","code_region":"27","population":132,"surface_km2":10.57,"lat":47.5395,"lon":5.451,"fibre_pct":100.0},{"code_insee":"21504","nom":"Prâlon","codes_postaux":["21410"],"code_dep":"21","code_region":"27","population":109,"surface_km2":3.1,"lat":47.312,"lon":4.7772,"fibre_pct":95.1},{"code_insee":"21505","nom":"Précy-sous-Thil","codes_postaux":["21390"],"code_dep":"21","code_region":"27","population":719,"surface_km2":8.62,"lat":47.4004,"lon":4.3197,"fibre_pct":97.6},{"code_insee":"21506","nom":"Premeaux-Prissey","codes_postaux":["21700"],"code_dep":"21","code_region":"27","population":377,"surface_km2":8.95,"lat":47.1023,"lon":4.9411,"fibre_pct":98.0},{"code_insee":"21508","nom":"Prenois","codes_postaux":["21370"],"code_dep":"21","code_region":"27","population":460,"surface_km2":19.2,"lat":47.3778,"lon":4.9081,"fibre_pct":100.0},{"code_insee":"21510","nom":"Prusly-sur-Ource","codes_postaux":["21400"],"code_dep":"21","code_region":"27","population":164,"surface_km2":16.05,"lat":47.8817,"lon":4.6422,"fibre_pct":100.0},{"code_insee":"21511","nom":"Puits","codes_postaux":["21400"],"code_dep":"21","code_region":"27","population":137,"surface_km2":20.8,"lat":47.729,"lon":4.4693,"fibre_pct":91.4},{"code_insee":"21512","nom":"Puligny-Montrachet","codes_postaux":["21190"],"code_dep":"21","code_region":"27","population":340,"surface_km2":7.32,"lat":46.9478,"lon":4.7603,"fibre_pct":89.4},{"code_insee":"21514","nom":"Quemigny-sur-Seine","codes_postaux":["21510"],"code_dep":"21","code_region":"27","population":90,"surface_km2":20.11,"lat":47.6497,"lon":4.6589,"fibre_pct":98.9},{"code_insee":"21515","nom":"Quetigny","codes_postaux":["21800"],"code_dep":"21","code_region":"27","population":8971,"surface_km2":8.31,"lat":47.3209,"lon":5.1123,"fibre_pct":98.6},{"code_insee":"21516","nom":"Quincerot","codes_postaux":["21500"],"code_dep":"21","code_region":"27","population":77,"surface_km2":4.39,"lat":47.6193,"lon":4.2747,"fibre_pct":92.2},{"code_insee":"21517","nom":"Quincey","codes_postaux":["21700"],"code_dep":"21","code_region":"27","population":495,"surface_km2":5.61,"lat":47.1073,"lon":4.9721,"fibre_pct":100.0},{"code_insee":"21518","nom":"Quincy-le-Vicomte","codes_postaux":["21500"],"code_dep":"21","code_region":"27","population":207,"surface_km2":19.06,"lat":47.6174,"lon":4.2398,"fibre_pct":91.4},{"code_insee":"21519","nom":"Recey-sur-Ource","codes_postaux":["21290"],"code_dep":"21","code_region":"27","population":334,"surface_km2":26.9,"lat":47.7821,"lon":4.8577,"fibre_pct":95.0},{"code_insee":"21520","nom":"Remilly-en-Montagne","codes_postaux":["21540"],"code_dep":"21","code_region":"27","population":146,"surface_km2":8.51,"lat":47.2894,"lon":4.7266,"fibre_pct":100.0},{"code_insee":"21521","nom":"Remilly-sur-Tille","codes_postaux":["21560"],"code_dep":"21","code_region":"27","population":1015,"surface_km2":9.7,"lat":47.3082,"lon":5.2369,"fibre_pct":100.0},{"code_insee":"21522","nom":"Renève","codes_postaux":["21310"],"code_dep":"21","code_region":"27","population":487,"surface_km2":14.37,"lat":47.4085,"lon":5.4056,"fibre_pct":96.7},{"code_insee":"21523","nom":"Reulle-Vergy","codes_postaux":["21220"],"code_dep":"21","code_region":"27","population":163,"surface_km2":6.08,"lat":47.1915,"lon":4.9003,"fibre_pct":98.9},{"code_insee":"21524","nom":"Riel-les-Eaux","codes_postaux":["21570"],"code_dep":"21","code_region":"27","population":93,"surface_km2":25.75,"lat":47.988,"lon":4.6789,"fibre_pct":98.0},{"code_insee":"21525","nom":"La Roche-en-Brenil","codes_postaux":["21530"],"code_dep":"21","code_region":"27","population":911,"surface_km2":51.56,"lat":47.3762,"lon":4.1728,"fibre_pct":98.1},{"code_insee":"21526","nom":"Rochefort-sur-Brévon","codes_postaux":["21510"],"code_dep":"21","code_region":"27","population":42,"surface_km2":12.04,"lat":47.7408,"lon":4.7115,"fibre_pct":100.0},{"code_insee":"21527","nom":"La Rochepot","codes_postaux":["21340"],"code_dep":"21","code_region":"27","population":284,"surface_km2":13.97,"lat":46.9628,"lon":4.6811,"fibre_pct":95.2},{"code_insee":"21528","nom":"La Roche-Vanneau","codes_postaux":["21150"],"code_dep":"21","code_region":"27","population":135,"surface_km2":13.26,"lat":47.4665,"lon":4.5248,"fibre_pct":100.0},{"code_insee":"21529","nom":"Roilly","codes_postaux":["21390"],"code_dep":"21","code_region":"27","population":52,"surface_km2":4.54,"lat":47.4168,"lon":4.3401,"fibre_pct":94.2},{"code_insee":"21530","nom":"Rougemont","codes_postaux":["21500"],"code_dep":"21","code_region":"27","population":143,"surface_km2":9.56,"lat":47.6632,"lon":4.2629,"fibre_pct":99.2},{"code_insee":"21531","nom":"Rouvray","codes_postaux":["21530"],"code_dep":"21","code_region":"27","population":505,"surface_km2":9.43,"lat":47.4196,"lon":4.1128,"fibre_pct":96.2},{"code_insee":"21532","nom":"Rouvres-en-Plaine","codes_postaux":["21110"],"code_dep":"21","code_region":"27","population":1303,"surface_km2":14.76,"lat":47.2389,"lon":5.138,"fibre_pct":90.7},{"code_insee":"21533","nom":"Rouvres-sous-Meilly","codes_postaux":["21320"],"code_dep":"21","code_region":"27","population":83,"surface_km2":4.45,"lat":47.205,"lon":4.5905,"fibre_pct":100.0},{"code_insee":"21534","nom":"Ruffey-lès-Beaune","codes_postaux":["21200"],"code_dep":"21","code_region":"27","population":740,"surface_km2":15.51,"lat":47.0208,"lon":4.9251,"fibre_pct":100.0},{"code_insee":"21535","nom":"Ruffey-lès-Echirey","codes_postaux":["21490"],"code_dep":"21","code_region":"27","population":1385,"surface_km2":11.25,"lat":47.3684,"lon":5.0818,"fibre_pct":95.2},{"code_insee":"21536","nom":"Sacquenay","codes_postaux":["21260"],"code_dep":"21","code_region":"27","population":285,"surface_km2":22.17,"lat":47.5804,"lon":5.3191,"fibre_pct":98.3},{"code_insee":"21537","nom":"Saffres","codes_postaux":["21350"],"code_dep":"21","code_region":"27","population":119,"surface_km2":12.48,"lat":47.366,"lon":4.5797,"fibre_pct":100.0},{"code_insee":"21538","nom":"Saint-Andeux","codes_postaux":["21530"],"code_dep":"21","code_region":"27","population":115,"surface_km2":11.86,"lat":47.3957,"lon":4.0924,"fibre_pct":100.0},{"code_insee":"21539","nom":"Saint-Anthot","codes_postaux":["21540"],"code_dep":"21","code_region":"27","population":67,"surface_km2":4.1,"lat":47.3215,"lon":4.6436,"fibre_pct":100.0},{"code_insee":"21540","nom":"Saint-Apollinaire","codes_postaux":["21850"],"code_dep":"21","code_region":"27","population":7544,"surface_km2":10.21,"lat":47.3367,"lon":5.0939,"fibre_pct":93.3},{"code_insee":"21541","nom":"Saint-Aubin","codes_postaux":["21190"],"code_dep":"21","code_region":"27","population":195,"surface_km2":9.48,"lat":46.9505,"lon":4.7076,"fibre_pct":97.9},{"code_insee":"21542","nom":"Saint-Bernard","codes_postaux":["21700"],"code_dep":"21","code_region":"27","population":464,"surface_km2":3.69,"lat":47.1593,"lon":5.0283,"fibre_pct":100.0},{"code_insee":"21543","nom":"Saint-Broing-les-Moines","codes_postaux":["21290"],"code_dep":"21","code_region":"27","population":180,"surface_km2":20.0,"lat":47.6996,"lon":4.8309,"fibre_pct":93.1},{"code_insee":"21544","nom":"Sainte-Colombe-en-Auxois","codes_postaux":["21350"],"code_dep":"21","code_region":"27","population":53,"surface_km2":6.35,"lat":47.4272,"lon":4.4606,"fibre_pct":100.0},{"code_insee":"21545","nom":"Sainte-Colombe-sur-Seine","codes_postaux":["21400"],"code_dep":"21","code_region":"27","population":918,"surface_km2":16.08,"lat":47.8608,"lon":4.5278,"fibre_pct":94.6},{"code_insee":"21546","nom":"Saint-Didier","codes_postaux":["21210"],"code_dep":"21","code_region":"27","population":196,"surface_km2":21.53,"lat":47.3175,"lon":4.1722,"fibre_pct":93.7},{"code_insee":"21547","nom":"Saint-Euphrône","codes_postaux":["21140"],"code_dep":"21","code_region":"27","population":225,"surface_km2":11.02,"lat":47.4676,"lon":4.391,"fibre_pct":100.0},{"code_insee":"21548","nom":"Saint-Germain-de-Modéon","codes_postaux":["21530"],"code_dep":"21","code_region":"27","population":174,"surface_km2":16.59,"lat":47.3711,"lon":4.1253,"fibre_pct":100.0},{"code_insee":"21549","nom":"Saint-Germain-le-Rocheux","codes_postaux":["21510"],"code_dep":"21","code_region":"27","population":83,"surface_km2":7.66,"lat":47.7565,"lon":4.6654,"fibre_pct":100.0},{"code_insee":"21550","nom":"Saint-Germain-lès-Senailly","codes_postaux":["21500"],"code_dep":"21","code_region":"27","population":111,"surface_km2":5.01,"lat":47.5988,"lon":4.2828,"fibre_pct":84.7},{"code_insee":"21552","nom":"Saint-Hélier","codes_postaux":["21690"],"code_dep":"21","code_region":"27","population":36,"surface_km2":3.92,"lat":47.3888,"lon":4.6916,"fibre_pct":100.0},