[{"code_insee":"25001","nom":"Abbans-Dessous","codes_postaux":["25320"],"code_dep":"25","code_region":"27","population":250,"surface_km2":3.21,"lat":47.1345,"lon":5.871,"fibre_pct":100.0},{"code_insee":"25002","nom":"Abbans-Dessus","codes_postaux":["25440"],"code_dep":"25","code_region":"27","population":282,"surface_km2":4.43,"lat":47.1267,"lon":5.8877,"fibre_pct":100.0},{"code_insee":"25003","nom":"Abbenans","codes_postaux":["25340"],"code_dep":"25","code_region":"27","population":321,"surface_km2":11.29,"lat":47.4957,"lon":6.4494,"fibre_pct":96.3},{"code_insee":"25004","nom":"Abbévillers","codes_postaux":["25310"],"code_dep":"25","code_region":"27","population":1071,"surface_km2":11.22,"lat":47.4263,"lon":6.9195,"fibre_pct":91.8},{"code_insee":"25005","nom":"Accolans","codes_postaux":["25250"],"code_dep":"25","code_region":"27","population":87,"surface_km2":5.2,"lat":47.4908,"lon":6.5353,"fibre_pct":100.0},{"code_insee":"25006","nom":"Adam-lès-Passavant","codes_postaux":["25360"],"code_dep":"25","code_region":"27","population":88,"surface_km2":9.52,"lat":47.3049,"lon":6.3692,"fibre_pct":100.0},{"code_insee":"25007","nom":"Adam-lès-Vercel","codes_postaux":["25530"],"code_dep":"25","code_region":"27","population":105,"surface_km2":3.12,"lat":47.1646,"lon":6.3904,"fibre_pct":100.0},{"code_insee":"25008","nom":"Aibre","codes_postaux":["25750"],"code_dep":"25","code_region":"27","population":434,"surface_km2":4.46,"lat":47.5532,"lon":6.6995,"fibre_pct":99.1},{"code_insee":"25009","nom":"Aïssey","codes_postaux":["25360"],"code_dep":"25","code_region":"27","population":168,"surface_km2":10.75,"lat":47.2733,"lon":6.3277,"fibre_pct":100.0},{"code_insee":"25011","nom":"Allenjoie","codes_postaux":["25490"],"code_dep":"25","code_region":"27","population":719,"surface_km2":6.55,"lat":47.5351,"lon":6.8951,"fibre_pct":90.1},{"code_insee":"25012","nom":"Les Alliés","codes_postaux":["25300"],"code_dep":"25","code_region":"27","population":172,"surface_km2":5.32,"lat":46.9466,"lon":6.4486,"fibre_pct":94.9},{"code_insee":"25013","nom":"Allondans","codes_postaux":["25550"],"code_dep":"25","code_region":"27","population":234,"surface_km2":5.11,"lat":47.5238,"lon":6.7508,"fibre_pct":95.6},{"code_insee":"25014","nom":"Amagney","codes_postaux":["25220"],"code_dep":"25","code_region":"27","population":934,"surface_km2":13.1,"lat":47.3041,"lon":6.1471,"fibre_pct":95.6},{"code_insee":"25015","nom":"Amancey","codes_postaux":["25330"],"code_dep":"25","code_region":"27","population":744,"surface_km2":13.81,"lat":47.034,"lon":6.0719,"fibre_pct":100.0},{"code_insee":"25016","nom":"Amathay-Vésigneux","codes_postaux":["25330"],"code_dep":"25","code_region":"27","population":175,"surface_km2":12.15,"lat":47.0237,"lon":6.1971,"fibre_pct":100.0},{"code_insee":"25017","nom":"Amondans","codes_postaux":["25330"],"code_dep":"25","code_region":"27","population":85,"surface_km2":5.7,"lat":47.0722,"lon":6.0346,"fibre_pct":100.0},{"code_insee":"25018","nom":"Anteuil","codes_postaux":["25340"],"code_dep":"25","code_region":"27","population":602,"surface_km2":24.2,"lat":47.3769,"lon":6.5781,"fibre_pct":100.0},{"code_insee":"25019","nom":"Appenans","codes_postaux":["25250"],"code_dep":"25","code_region":"27","population":385,"surface_km2":4.12,"lat":47.4549,"lon":6.568,"fibre_pct":100.0},{"code_insee":"25020","nom":"Arbouans","codes_postaux":["25400"],"code_dep":"25","code_region":"27","population":876,"surface_km2":1.33,"lat":47.4883,"lon":6.8095,"fibre_pct":99.5},{"code_insee":"25021","nom":"Arc-et-Senans","codes_postaux":["25610"],"code_dep":"25","code_region":"27","population":1620,"surface_km2":14.96,"lat":47.0344,"lon":5.7686,"fibre_pct":99.6},{"code_insee":"25022","nom":"Arcey","codes_postaux":["25750"],"code_dep":"25","code_region":"27","population":1489,"surface_km2":12.53,"lat":47.5207,"lon":6.651,"fibre_pct":99.5},{"code_insee":"25024","nom":"Arçon","codes_postaux":["25300"],"code_dep":"25","code_region":"27","population":961,"surface_km2":21.5,"lat":46.9702,"lon":6.3843,"fibre_pct":93.5},{"code_insee":"25025","nom":"Arc-sous-Cicon","codes_postaux":["25520"],"code_dep":"25","code_region":"27","population":768,"surface_km2":28.59,"lat":47.0524,"lon":6.4038,"fibre_pct":100.0},{"code_insee":"25026","nom":"Arc-sous-Montenot","codes_postaux":["25270"],"code_dep":"25","code_region":"27","population":227,"surface_km2":10.83,"lat":46.9148,"lon":6.0086,"fibre_pct":100.0},{"code_insee":"25029","nom":"Aubonne","codes_postaux":["25520"],"code_dep":"25","code_region":"27","population":266,"surface_km2":15.27,"lat":47.0417,"lon":6.3446,"fibre_pct":100.0},{"code_insee":"25030","nom":"Audeux","codes_postaux":["25170"],"code_dep":"25","code_region":"27","population":420,"surface_km2":1.76,"lat":47.2578,"lon":5.8689,"fibre_pct":92.7},{"code_insee":"25031","nom":"Audincourt","codes_postaux":["25400"],"code_dep":"25","code_region":"27","population":14071,"surface_km2":8.78,"lat":47.4779,"lon":6.8498,"fibre_pct":94.2},{"code_insee":"25032","nom":"Autechaux","codes_postaux":["25110"],"code_dep":"25","code_region":"27","population":449,"surface_km2":6.59,"lat":47.3818,"lon":6.3868,"fibre_pct":99.6},{"code_insee":"25033","nom":"Autechaux-Roide","codes_postaux":["25150"],"code_dep":"25","code_region":"27","population":487,"surface_km2":6.59,"lat":47.3903,"lon":6.811,"fibre_pct":100.0},{"code_insee":"25035","nom":"Les Auxons","codes_postaux":["25870"],"code_dep":"25","code_region":"27","population":2533,"surface_km2":10.16,"lat":47.3001,"lon":5.9557,"fibre_pct":96.4},{"code_insee":"25036","nom":"Avanne-Aveney","codes_postaux":["25720"],"code_dep":"25","code_region":"27","population":2256,"surface_km2":8.55,"lat":47.2005,"lon":5.9581,"fibre_pct":93.7},{"code_insee":"25038","nom":"Avilley","codes_postaux":["25680"],"code_dep":"25","code_region":"27","population":150,"surface_km2":5.63,"lat":47.4297,"lon":6.2674,"fibre_pct":100.0},{"code_insee":"25039","nom":"Avoudrey","codes_postaux":["25690"],"code_dep":"25","code_region":"27","population":982,"surface_km2":12.98,"lat":47.1381,"lon":6.4334,"fibre_pct":87.3},{"code_insee":"25040","nom":"Badevel","codes_postaux":["25490"],"code_dep":"25","code_region":"27","population":808,"surface_km2":3.74,"lat":47.5015,"lon":6.9362,"fibre_pct":97.0},{"code_insee":"25041","nom":"Bannans","codes_postaux":["25560"],"code_dep":"25","code_region":"27","population":370,"surface_km2":11.65,"lat":46.9027,"lon":6.2335,"fibre_pct":100.0},{"code_insee":"25042","nom":"Le Barboux","codes_postaux":["25210"],"code_dep":"25","code_region":"27","population":251,"surface_km2":11.35,"lat":47.1219,"lon":6.7207,"fibre_pct":100.0},{"code_insee":"25043","nom":"Bart","codes_postaux":["25420"],"code_dep":"25","code_region":"27","population":1985,"surface_km2":3.8,"lat":47.4908,"lon":6.7656,"fibre_pct":93.2},{"code_insee":"25044","nom":"Bartherans","codes_postaux":["25440"],"code_dep":"25","code_region":"27","population":60,"surface_km2":5.83,"lat":47.0365,"lon":5.9263,"fibre_pct":97.0},{"code_insee":"25045","nom":"Battenans-les-Mines","codes_postaux":["25640"],"code_dep":"25","code_region":"27","population":38,"surface_km2":2.85,"lat":47.4034,"lon":6.2702,"fibre_pct":100.0},{"code_insee":"25046","nom":"Battenans-Varin","codes_postaux":["25380"],"code_dep":"25","code_region":"27","population":79,"surface_km2":6.3,"lat":47.2416,"lon":6.7171,"fibre_pct":100.0},{"code_insee":"25047","nom":"Baume-les-Dames","codes_postaux":["25110"],"code_dep":"25","code_region":"27","population":5155,"surface_km2":24.96,"lat":47.3492,"lon":6.3426,"fibre_pct":96.7},{"code_insee":"25048","nom":"Bavans","codes_postaux":["25550"],"code_dep":"25","code_region":"27","population":3582,"surface_km2":8.87,"lat":47.4805,"lon":6.7294,"fibre_pct":93.3},{"code_insee":"25049","nom":"Belfays","codes_postaux":["25470"],"code_dep":"25","code_region":"27","population":127,"surface_km2":3.24,"lat":47.2584,"lon":6.9041,"fibre_pct":100.0},{"code_insee":"25050","nom":"Le Bélieu","codes_postaux":["25500"],"code_dep":"25","code_region":"27","population":512,"surface_km2":10.83,"lat":47.124,"lon":6.6306,"fibre_pct":100.0},{"code_insee":"25051","nom":"Belleherbe","codes_postaux":["25380"],"code_dep":"25","code_region":"27","population":630,"surface_km2":16.15,"lat":47.2659,"lon":6.6533,"fibre_pct":96.6},{"code_insee":"25052","nom":"Belmont","codes_postaux":["25530"],"code_dep":"25","code_region":"27","population":79,"surface_km2":4.67,"lat":47.2204,"lon":6.3596,"fibre_pct":100.0},{"code_insee":"25053","nom":"Belvoir","codes_postaux":["25430"],"code_dep":"25","code_region":"27","population":95,"surface_km2":9.28,"lat":47.3182,"lon":6.6152,"fibre_pct":100.0},{"code_insee":"25054","nom":"Berche","codes_postaux":["25420"],"code_dep":"25","code_region":"27","population":534,"surface_km2":3.13,"lat":47.466,"lon":6.7479,"fibre_pct":100.0},{"code_insee":"25055","nom":"Berthelange","codes_postaux":["25410"],"code_dep":"25","code_region":"27","population":354,"surface_km2":4.08,"lat":47.2022,"lon":5.7798,"fibre_pct":100.0},{"code_insee":"25056","nom":"Besançon","codes_postaux":["25000"],"code_dep":"25","code_region":"27","population":118489,"surface_km2":65.16,"lat":47.2602,"lon":6.0123,"fibre_pct":99.3},{"code_insee":"25057","nom":"Bethoncourt","codes_postaux":["25200"],"code_dep":"25","code_region":"27","population":5308,"surface_km2":6.6,"lat":47.5418,"lon":6.7988,"fibre_pct":93.2},{"code_insee":"25058","nom":"Beure","codes_postaux":["25720"],"code_dep":"25","code_region":"27","population":1305,"surface_km2":4.01,"lat":47.2043,"lon":6.0048,"fibre_pct":94.2},{"code_insee":"25059","nom":"Beutal","codes_postaux":["25250"],"code_dep":"25","code_region":"27","population":271,"surface_km2":5.91,"lat":47.4763,"lon":6.6371,"fibre_pct":100.0},{"code_insee":"25060","nom":"Val-d'Usiers","codes_postaux":["25520"],"code_dep":"25","code_region":"27","population":2132,"surface_km2":51.19,"lat":46.966,"lon":6.27,"fibre_pct":99.8},{"code_insee":"25061","nom":"Bief","codes_postaux":["25190"],"code_dep":"25","code_region":"27","population":108,"surface_km2":3.79,"lat":47.3235,"lon":6.7752,"fibre_pct":94.7},{"code_insee":"25062","nom":"Le Bizot","codes_postaux":["25210"],"code_dep":"25","code_region":"27","population":305,"surface_km2":7.91,"lat":47.1374,"lon":6.6752,"fibre_pct":100.0},{"code_insee":"25063","nom":"Blamont","codes_postaux":["25310"],"code_dep":"25","code_region":"27","population":1225,"surface_km2":9.94,"lat":47.3907,"lon":6.8566,"fibre_pct":97.5},{"code_insee":"25065","nom":"Blarians","codes_postaux":["25640"],"code_dep":"25","code_region":"27","population":56,"surface_km2":0.89,"lat":47.4119,"lon":6.1799,"fibre_pct":100.0},{"code_insee":"25066","nom":"Blussangeaux","codes_postaux":["25250"],"code_dep":"25","code_region":"27","population":75,"surface_km2":2.17,"lat":47.4374,"lon":6.6176,"fibre_pct":94.4},{"code_insee":"25067","nom":"Blussans","codes_postaux":["25250"],"code_dep":"25","code_region":"27","population":187,"surface_km2":8.18,"lat":47.4123,"lon":6.6104,"fibre_pct":100.0},{"code_insee":"25070","nom":"Bolandoz","codes_postaux":["25330"],"code_dep":"25","code_region":"27","population":383,"surface_km2":12.16,"lat":47.006,"lon":6.1141,"fibre_pct":99.6},{"code_insee":"25071","nom":"Bondeval","codes_postaux":["25230"],"code_dep":"25","code_region":"27","population":481,"surface_km2":4.69,"lat":47.4345,"lon":6.8442,"fibre_pct":97.6},{"code_insee":"25072","nom":"Bonnal","codes_postaux":["25680"],"code_dep":"25","code_region":"27","population":20,"surface_km2":1.74,"lat":47.5066,"lon":6.3632,"fibre_pct":100.0},{"code_insee":"25073","nom":"Bonnay","codes_postaux":["25870"],"code_dep":"25","code_region":"27","population":826,"surface_km2":7.7,"lat":47.3292,"lon":6.0437,"fibre_pct":99.1},{"code_insee":"25074","nom":"Bonnétage","codes_postaux":["25210"],"code_dep":"25","code_region":"27","population":987,"surface_km2":17.9,"lat":47.1734,"lon":6.7535,"fibre_pct":100.0},{"code_insee":"25075","nom":"Bonnevaux","codes_postaux":["25560"],"code_dep":"25","code_region":"27","population":410,"surface_km2":16.56,"lat":46.8056,"lon":6.1975,"fibre_pct":99.5},{"code_insee":"25077","nom":"La Bosse","codes_postaux":["25210"],"code_dep":"25","code_region":"27","population":91,"surface_km2":5.16,"lat":47.1428,"lon":6.6485,"fibre_pct":100.0},{"code_insee":"25078","nom":"Bouclans","codes_postaux":["25360"],"code_dep":"25","code_region":"27","population":1053,"surface_km2":24.42,"lat":47.2443,"lon":6.229,"fibre_pct":99.7},{"code_insee":"25079","nom":"Boujailles","codes_postaux":["25560"],"code_dep":"25","code_region":"27","population":461,"surface_km2":28.18,"lat":46.887,"lon":6.0786,"fibre_pct":100.0},{"code_insee":"25082","nom":"Bourguignon","codes_postaux":["25150"],"code_dep":"25","code_region":"27","population":876,"surface_km2":5.58,"lat":47.4106,"lon":6.7739,"fibre_pct":99.2},{"code_insee":"25083","nom":"Bournois","codes_postaux":["25250"],"code_dep":"25","code_region":"27","population":188,"surface_km2":10.45,"lat":47.4914,"lon":6.4975,"fibre_pct":100.0},{"code_insee":"25084","nom":"Boussières","codes_postaux":["25320"],"code_dep":"25","code_region":"27","population":1208,"surface_km2":5.6,"lat":47.1498,"lon":5.9013,"fibre_pct":98.4},{"code_insee":"25085","nom":"Bouverans","codes_postaux":["25560"],"code_dep":"25","code_region":"27","population":461,"surface_km2":18.56,"lat":46.8413,"lon":6.2152,"fibre_pct":100.0},{"code_insee":"25086","nom":"Braillans","codes_postaux":["25640"],"code_dep":"25","code_region":"27","population":203,"surface_km2":1.96,"lat":47.3106,"lon":6.0873,"fibre_pct":97.8},{"code_insee":"25087","nom":"Branne","codes_postaux":["25340"],"code_dep":"25","code_region":"27","population":179,"surface_km2":6.48,"lat":47.3806,"lon":6.4779,"fibre_pct":92.6},{"code_insee":"25088","nom":"Breconchaux","codes_postaux":["25640"],"code_dep":"25","code_region":"27","population":85,"surface_km2":3.32,"lat":47.342,"lon":6.2726,"fibre_pct":100.0},{"code_insee":"25089","nom":"Bremondans","codes_postaux":["25530"],"code_dep":"25","code_region":"27","population":107,"surface_km2":7.24,"lat":47.2316,"lon":6.3983,"fibre_pct":94.4},{"code_insee":"25090","nom":"Brères","codes_postaux":["25440"],"code_dep":"25","code_region":"27","population":78,"surface_km2":2.16,"lat":47.0583,"lon":5.8646,"fibre_pct":100.0},{"code_insee":"25091","nom":"Les Bréseux","codes_postaux":["25120"],"code_dep":"25","code_region":"27","population":494,"surface_km2":7.46,"lat":47.274,"lon":6.8017,"fibre_pct":100.0},{"code_insee":"25092","nom":"La Bretenière","codes_postaux":["25640"],"code_dep":"25","code_region":"27","population":74,"surface_km2":4.19,"lat":47.3792,"lon":6.2756,"fibre_pct":100.0},{"code_insee":"25093","nom":"Bretigney","codes_postaux":["25250"],"code_dep":"25","code_region":"27","population":74,"surface_km2":1.8,"lat":47.4867,"lon":6.6354,"fibre_pct":100.0},{"code_insee":"25094","nom":"Bretigney-Notre-Dame","codes_postaux":["25110"],"code_dep":"25","code_region":"27","population":118,"surface_km2":5.78,"lat":47.3085,"lon":6.3037,"fibre_pct":100.0},{"code_insee":"25095","nom":"Bretonvillers","codes_postaux":["25380"],"code_dep":"25","code_region":"27","population":280,"surface_km2":13.8,"lat":47.2164,"lon":6.6186,"fibre_pct":100.0},{"code_insee":"25096","nom":"Brey-et-Maison-du-Bois","codes_postaux":["25240"],"code_dep":"25","code_region":"27","population":188,"surface_km2":6.13,"lat":46.7469,"lon":6.239,"fibre_pct":100.0},{"code_insee":"25097","nom":"Brognard","codes_postaux":["25600"],"code_dep":"25","code_region":"27","population":471,"surface_km2":2.9,"lat":47.5279,"lon":6.8653,"fibre_pct":99.7},{"code_insee":"25098","nom":"Buffard","codes_postaux":["25440"],"code_dep":"25","code_region":"27","population":187,"surface_km2":8.11,"lat":47.0325,"lon":5.8249,"fibre_pct":100.0},{"code_insee":"25099","nom":"Bugny","codes_postaux":["25520"],"code_dep":"25","code_region":"27","population":257,"surface_km2":4.78,"lat":46.9972,"lon":6.3617,"fibre_pct":95.0},{"code_insee":"25100","nom":"Bulle","codes_postaux":["25560"],"code_dep":"25","code_region":"27","population":505,"surface_km2":14.2,"lat":46.904,"lon":6.1958,"fibre_pct":99.7},{"code_insee":"25101","nom":"Burgille","codes_postaux":["25170"],"code_dep":"25","code_region":"27","population":562,"surface_km2":9.31,"lat":47.2609,"lon":5.781,"fibre_pct":100.0},{"code_insee":"25102","nom":"Burnevillers","codes_postaux":["25470"],"code_dep":"25","code_region":"27","population":48,"surface_km2":6.76,"lat":47.334,"lon":7.0198,"fibre_pct":100.0},{"code_insee":"25103","nom":"Busy","codes_postaux":["25320"],"code_dep":"25","code_region":"27","population":682,"surface_km2":5.3,"lat":47.1688,"lon":5.9536,"fibre_pct":99.7},{"code_insee":"25104","nom":"By","codes_postaux":["25440"],"code_dep":"25","code_region":"27","population":79,"surface_km2":7.31,"lat":47.0125,"lon":5.8993,"fibre_pct":100.0},{"code_insee":"25105","nom":"Byans-sur-Doubs","codes_postaux":["25320"],"code_dep":"25","code_region":"27","population":613,"surface_km2":9.94,"lat":47.1102,"lon":5.8483,"fibre_pct":100.0},{"code_insee":"25106","nom":"Cademène","codes_postaux":["25290"],"code_dep":"25","code_region":"27","population":66,"surface_km2":3.46,"lat":47.0939,"lon":6.0279,"fibre_pct":88.5},{"code_insee":"25107","nom":"Cendrey","codes_postaux":["25640"],"code_dep":"25","code_region":"27","population":200,"surface_km2":5.58,"lat":47.3935,"lon":6.2446,"fibre_pct":100.0},{"code_insee":"25108","nom":"Cernay-l'Église","codes_postaux":["25120"],"code_dep":"25","code_region":"27","population":319,"surface_km2":5.99,"lat":47.2485,"lon":6.8309,"fibre_pct":100.0},{"code_insee":"25109","nom":"Cessey","codes_postaux":["25440"],"code_dep":"25","code_region":"27","population":326,"surface_km2":7.54,"lat":47.1152,"lon":5.9222,"fibre_pct":100.0},{"code_insee":"25110","nom":"Chaffois","codes_postaux":["25300"],"code_dep":"25","code_region":"27","population":1032,"surface_km2":16.38,"lat":46.9135,"lon":6.2469,"fibre_pct":99.6},{"code_insee":"25111","nom":"Chalèze","codes_postaux":["25220"],"code_dep":"25","code_region":"27","population":366,"surface_km2":5.67,"lat":47.2623,"lon":6.0968,"fibre_pct":95.4},{"code_insee":"25112","nom":"Chalezeule","codes_postaux":["25220"],"code_dep":"25","code_region":"27","population":1335,"surface_km2":3.97,"lat":47.2552,"lon":6.0677,"fibre_pct":95.4},{"code_insee":"25113","nom":"Chamesey","codes_postaux":["25380"],"code_dep":"25","code_region":"27","population":143,"surface_km2":6.49,"lat":47.2376,"lon":6.6317,"fibre_pct":100.0},{"code_insee":"25114","nom":"Chamesol","codes_postaux":["25190"],"code_dep":"25","code_region":"27","population":383,"surface_km2":10.25,"lat":47.3434,"lon":6.8499,"fibre_pct":100.0},{"code_insee":"25115","nom":"Champagney","codes_postaux":["25170"],"code_dep":"25","code_region":"27","population":269,"surface_km2":3.01,"lat":47.2552,"lon":5.8917,"fibre_pct":100.0},{"code_insee":"25116","nom":"Champlive","codes_postaux":["25360"],"code_dep":"25","code_region":"27","population":253,"surface_km2":8.26,"lat":47.2885,"lon":6.2406,"fibre_pct":100.0},{"code_insee":"25117","nom":"Champoux","codes_postaux":["25640"],"code_dep":"25","code_region":"27","population":90,"surface_km2":3.03,"lat":47.342,"lon":6.1342,"fibre_pct":100.0},{"code_insee":"25119","nom":"Champvans-les-Moulins","codes_postaux":["25170"],"code_dep":"25","code_region":"27","population":309,"surface_km2":2.54,"lat":47.256,"lon":5.9074,"fibre_pct":98.8},{"code_insee":"25120","nom":"Chantrans","codes_postaux":["25330"],"code_dep":"25","code_region":"27","population":381,"surface_km2":14.31,"lat":47.0475,"lon":6.1658,"fibre_pct":100.0},{"code_insee":"25121","nom":"Chapelle-des-Bois","codes_postaux":["25240"],"code_dep":"25","code_region":"27","population":268,"surface_km2":39.89,"lat":46.5952,"lon":6.1118,"fibre_pct":98.7},{"code_insee":"25122","nom":"Chapelle-d'Huin","codes_postaux":["25270"],"code_dep":"25","code_region":"27","population":549,"surface_km2":23.88,"lat":46.9329,"lon":6.1704,"fibre_pct":99.7},{"code_insee":"25124","nom":"Charmauvillers","codes_postaux":["25470"],"code_dep":"25","code_region":"27","population":285,"surface_km2":10.86,"lat":47.2297,"lon":6.9185,"fibre_pct":100.0},{"code_insee":"25125","nom":"Charmoille","codes_postaux":["25380"],"code_dep":"25","code_region":"27","population":317,"surface_km2":9.97,"lat":47.2342,"lon":6.663,"fibre_pct":98.0},{"code_insee":"25126","nom":"Charnay","codes_postaux":["25440"],"code_dep":"25","code_region":"27","population":467,"surface_km2":5.69,"lat":47.1301,"lon":5.9523,"fibre_pct":100.0},{"code_insee":"25127","nom":"Charquemont","codes_postaux":["25140"],"code_dep":"25","code_region":"27","population":2900,"surface_km2":21.71,"lat":47.2017,"lon":6.8485,"fibre_pct":98.9},{"code_insee":"25129","nom":"Chassagne-Saint-Denis","codes_postaux":["25290"],"code_dep":"25","code_region":"27","population":138,"surface_km2":9.16,"lat":47.0828,"lon":6.1064,"fibre_pct":100.0},{"code_insee":"25130","nom":"Châteauvieux-les-Fossés","codes_postaux":["25840"],"code_dep":"25","code_region":"27","population":9,"surface_km2":4.5,"lat":47.0553,"lon":6.2002,"fibre_pct":100.0},{"code_insee":"25131","nom":"Châtelblanc","codes_postaux":["25240"],"code_dep":"25","code_region":"27","population":117,"surface_km2":20.88,"lat":46.6661,"lon":6.1087,"fibre_pct":100.0},{"code_insee":"25132","nom":"Châtillon-Guyotte","codes_postaux":["25640"],"code_dep":"25","code_region":"27","population":141,"surface_km2":4.45,"lat":47.3292,"lon":6.168,"fibre_pct":100.0},{"code_insee":"25133","nom":"Châtillon-le-Duc","codes_postaux":["25870"],"code_dep":"25","code_region":"27","population":2042,"surface_km2":6.21,"lat":47.303,"lon":6.0066,"fibre_pct":96.9},{"code_insee":"25136","nom":"Chaucenne","codes_postaux":["25170"],"code_dep":"25","code_region":"27","population":529,"surface_km2":4.89,"lat":47.2835,"lon":5.8974,"fibre_pct":98.9},{"code_insee":"25138","nom":"Les Terres-de-Chaux","codes_postaux":["25190"],"code_dep":"25","code_region":"27","population":135,"surface_km2":14.49,"lat":47.3151,"lon":6.7327,"fibre_pct":100.0},{"code_insee":"25139","nom":"La Chaux","codes_postaux":["25650"],"code_dep":"25","code_region":"27","population":614,"surface_km2":16.99,"lat":47.0202,"lon":6.4093,"fibre_pct":100.0},{"code_insee":"25141","nom":"Chaux-lès-Passavant","codes_postaux":["25530"],"code_dep":"25","code_region":"27","population":124,"surface_km2":8.54,"lat":47.2342,"lon":6.3485,"fibre_pct":100.0},{"code_insee":"25142","nom":"Chaux-Neuve","codes_postaux":["25240"],"code_dep":"25","code_region":"27","population":338,"surface_km2":28.29,"lat":46.661,"lon":6.1583,"fibre_pct":100.0},{"code_insee":"25143","nom":"Chay","codes_postaux":["25440"],"code_dep":"25","code_region":"27","population":194,"surface_km2":6.55,"lat":47.033,"lon":5.8634,"fibre_pct":100.0},{"code_insee":"25145","nom":"Chazot","codes_postaux":["25430"],"code_dep":"25","code_region":"27","population":117,"surface_km2":5.26,"lat":47.3333,"lon":6.5354,"fibre_pct":100.0},{"code_insee":"25147","nom":"Chemaudin et Vaux","codes_postaux":["25320","25770"],"code_dep":"25","code_region":"27","population":2113,"surface_km2":12.55,"lat":47.2263,"lon":5.8897,"fibre_pct":98.7},{"code_insee":"25148","nom":"La Chenalotte","codes_postaux":["25500"],"code_dep":"25","code_region":"27","population":549,"surface_km2":4.93,"lat":47.1088,"lon":6.6901,"fibre_pct":97.8},{"code_insee":"25149","nom":"Chenecey-Buillon","codes_postaux":["25440"],"code_dep":"25","code_region":"27","population":491,"surface_km2":16.73,"lat":47.1318,"lon":5.9724,"fibre_pct":97.9},{"code_insee":"25150","nom":"Chevigney-sur-l'Ognon","codes_postaux":["25170"],"code_dep":"25","code_region":"27","population":296,"surface_km2":4.62,"lat":47.292,"lon":5.8419,"fibre_pct":100.0},{"code_insee":"25151","nom":"Chevigney-lès-Vercel","codes_postaux":["25530"],"code_dep":"25","code_region":"27","population":141,"surface_km2":5.38,"lat":47.1653,"lon":6.3685,"fibre_pct":100.0},{"code_insee":"25152","nom":"La Chevillotte","codes_postaux":["25620"],"code_dep":"25","code_region":"27","population":135,"surface_km2":7.67,"lat":47.2188,"lon":6.1592,"fibre_pct":91.1},{"code_insee":"25153","nom":"Chevroz","codes_postaux":["25870"],"code_dep":"25","code_region":"27","population":143,"surface_km2":1.99,"lat":47.3314,"lon":5.9998,"fibre_pct":100.0},{"code_insee":"25154","nom":"Chouzelot","codes_postaux":["25440"],"code_dep":"25","code_region":"27","population":249,"surface_km2":6.34,"lat":47.1231,"lon":5.91,"fibre_pct":100.0},{"code_insee":"25155","nom":"Cléron","codes_postaux":["25330"],"code_dep":"25","code_region":"27","population":289,"surface_km2":14.5,"lat":47.0789,"lon":6.0664,"fibre_pct":100.0},{"code_insee":"25156","nom":"Pays-de-Clerval","codes_postaux":["25340"],"code_dep":"25","code_region":"27","population":1174,"surface_km2":22.55,"lat":47.3875,"lon":6.5021,"fibre_pct":99.9},{"code_insee":"25157","nom":"La Cluse-et-Mijoux","codes_postaux":["25300"],"code_dep":"25","code_region":"27","population":1310,"surface_km2":22.75,"lat":46.8575,"lon":6.3979,"fibre_pct":100.0},{"code_insee":"25159","nom":"Colombier-Fontaine","codes_postaux":["25260"],"code_dep":"25","code_region":"27","population":1232,"surface_km2":7.75,"lat":47.4496,"lon":6.6888,"fibre_pct":99.4},{"code_insee":"25160","nom":"Les Combes","codes_postaux":["25500"],"code_dep":"25","code_region":"27","population":777,"surface_km2":17.8,"lat":47.0462,"lon":6.5349,"fibre_pct":100.0},{"code_insee":"25161","nom":"Consolation-Maisonnettes","codes_postaux":["25390"],"code_dep":"25","code_region":"27","population":23,"surface_km2":4.3,"lat":47.1564,"lon":6.6037,"fibre_pct":100.0},{"code_insee":"25162","nom":"Corcelles-Ferrières","codes_postaux":["25410"],"code_dep":"25","code_region":"27","population":214,"surface_km2":2.26,"lat":47.2251,"lon":5.8037,"fibre_pct":100.0},{"code_insee":"25163","nom":"Corcelle-Mieslot","codes_postaux":["25640"],"code_dep":"25","code_region":"27","population":88,"surface_km2":6.46,"lat":47.3604,"lon":6.182,"fibre_pct":100.0},{"code_insee":"25164","nom":"Corcondray","codes_postaux":["25410"],"code_dep":"25","code_region":"27","population":148,"surface_km2":5.38,"lat":47.2249,"lon":5.8284,"fibre_pct":100.0},{"code_insee":"25166","nom":"Côtebrune","codes_postaux":["25360"],"code_dep":"25","code_region":"27","population":76,"surface_km2":3.26,"lat":47.2516,"lon":6.309,"fibre_pct":100.0},{"code_insee":"25170","nom":"Courcelles-lès-Montbéliard","codes_postaux":["25420"],"code_dep":"25","code_region":"27","population":1370,"surface_km2":2.41,"lat":47.496,"lon":6.7851,"fibre_pct":98.5},{"code_insee":"25171","nom":"Courcelles","codes_postaux":["25440"],"code_dep":"25","code_region":"27","population":102,"surface_km2":3.63,"lat":47.1007,"lon":5.9623,"fibre_pct":100.0},{"code_insee":"25172","nom":"Courchapon","codes_postaux":["25170"],"code_dep":"25","code_region":"27","population":247,"surface_km2":5.4,"lat":47.2595,"lon":5.7499,"fibre_pct":100.0},{"code_insee":"25173","nom":"Cour-Saint-Maurice","codes_postaux":["25380"],"code_dep":"25","code_region":"27","population":147,"surface_km2":4.52,"lat":47.2643,"lon":6.7106,"fibre_pct":100.0},{"code_insee":"25174","nom":"Courtefontaine","codes_postaux":["25470"],"code_dep":"25","code_region":"27","population":247,"surface_km2":7.75,"lat":47.3191,"lon":6.914,"fibre_pct":100.0},{"code_insee":"25175","nom":"Courtetain-et-Salans","codes_postaux":["25530"],"code_dep":"25","code_region":"27","population":93,"surface_km2":6.89,"lat":47.2579,"lon":6.4285,"fibre_pct":100.0},{"code_insee":"25176","nom":"Courvières","codes_postaux":["25560"],"code_dep":"25","code_region":"27","population":317,"surface_km2":10.95,"lat":46.866,"lon":6.0985,"fibre_pct":100.0},{"code_insee":"25177","nom":"Crosey-le-Grand","codes_postaux":["25340"],"code_dep":"25","code_region":"27","population":158,"surface_km2":10.29,"lat":47.344,"lon":6.5315,"fibre_pct":100.0},{"code_insee":"25178","nom":"Crosey-le-Petit","codes_postaux":["25340"],"code_dep":"25","code_region":"27","population":119,"surface_km2":9.63,"lat":47.3426,"lon":6.4851,"fibre_pct":100.0},{"code_insee":"25179","nom":"Le Crouzet","codes_postaux":["25240"],"code_dep":"25","code_region":"27","population":51,"surface_km2":3.78,"lat":46.7088,"lon":6.132,"fibre_pct":100.0},{"code_insee":"25180","nom":"Crouzet-Migette","codes_postaux":["25270"],"code_dep":"25","code_region":"27","population":118,"surface_km2":5.61,"lat":46.9563,"lon":6.0121,"fibre_pct":100.0},{"code_insee":"25181","nom":"Cubrial","codes_postaux":["25680"],"code_dep":"25","code_region":"27","population":146,"surface_km2":5.83,"lat":47.5037,"lon":6.4008,"fibre_pct":100.0},{"code_insee":"25182","nom":"Cubry","codes_postaux":["25680"],"code_dep":"25","code_region":"27","population":104,"surface_km2":5.43,"lat":47.5008,"lon":6.4271,"fibre_pct":100.0},{"code_insee":"25183","nom":"Cusance","codes_postaux":["25110"],"code_dep":"25","code_region":"27","population":76,"surface_km2":4.05,"lat":47.321,"lon":6.434,"fibre_pct":100.0},{"code_insee":"25184","nom":"Cuse-et-Adrisans","codes_postaux":["25680"],"code_dep":"25","code_region":"27","population":274,"surface_km2":5.5,"lat":47.4828,"lon":6.387,"fibre_pct":99.5},{"code_insee":"25185","nom":"Cussey-sur-Lison","codes_postaux":["25440"],"code_dep":"25","code_region":"27","population":68,"surface_km2":8.57,"lat":47.0711,"lon":5.9626,"fibre_pct":100.0},{"code_insee":"25186","nom":"Cussey-sur-l'Ognon","codes_postaux":["25870"],"code_dep":"25","code_region":"27","population":1055,"surface_km2":7.47,"lat":47.3277,"lon":5.9425,"fibre_pct":100.0},{"code_insee":"25187","nom":"Dambelin","codes_postaux":["25150"],"code_dep":"25","code_region":"27","population":512,"surface_km2":12.49,"lat":47.3706,"lon":6.6654,"fibre_pct":98.3},{"code_insee":"25188","nom":"Dambenois","codes_postaux":["25600"],"code_dep":"25","code_region":"27","population":733,"surface_km2":3.28,"lat":47.5447,"lon":6.8735,"fibre_pct":95.2},{"code_insee":"25189","nom":"Dammartin-les-Templiers","codes_postaux":["25110"],"code_dep":"25","code_region":"27","population":218,"surface_km2":10.0,"lat":47.2948,"lon":6.2847,"fibre_pct":100.0},{"code_insee":"25190","nom":"Dampierre-les-Bois","codes_postaux":["25490"],"code_dep":"25","code_region":"27","population":1615,"surface_km2":4.77,"lat":47.5073,"lon":6.9181,"fibre_pct":97.1},{"code_insee":"25191","nom":"Dampierre-sur-le-Doubs","codes_postaux":["25420"],"code_dep":"25","code_region":"27","population":450,"surface_km2":3.15,"lat":47.4644,"lon":6.7329,"fibre_pct":100.0},{"code_insee":"25192","nom":"Dampjoux","codes_postaux":["25190"],"code_dep":"25","code_region":"27","population":162,"surface_km2":2.36,"lat":47.3386,"lon":6.7454,"fibre_pct":94.8},{"code_insee":"25193","nom":"Damprichard","codes_postaux":["25450"],"code_dep":"25","code_region":"27","population":1776,"surface_km2":21.8,"lat":47.238,"lon":6.8796,"fibre_pct":96.0},{"code_insee":"25194","nom":"Dannemarie","codes_postaux":["25310"],"code_dep":"25","code_region":"27","population":116,"surface_km2":2.31,"lat":47.3896,"lon":6.8992,"fibre_pct":100.0},{"code_insee":"25195","nom":"Dannemarie-sur-Crète","codes_postaux":["25410"],"code_dep":"25","code_region":"27","population":1486,"surface_km2":4.09,"lat":47.2075,"lon":5.8674,"fibre_pct":97.0},{"code_insee":"25196","nom":"Dasle","codes_postaux":["25230"],"code_dep":"25","code_region":"27","population":1363,"surface_km2":5.61,"lat":47.4822,"lon":6.897,"fibre_pct":97.2},{"code_insee":"25197","nom":"Deluz","codes_postaux":["25960"],"code_dep":"25","code_region":"27","population":630,"surface_km2":7.97,"lat":47.2987,"lon":6.1905,"fibre_pct":98.5},{"code_insee":"25198","nom":"Désandans","codes_postaux":["25750"],"code_dep":"25","code_region":"27","population":709,"surface_km2":5.5,"lat":47.54,"lon":6.6715,"fibre_pct":95.2},{"code_insee":"25199","nom":"Déservillers","codes_postaux":["25330"],"code_dep":"25","code_region":"27","population":341,"surface_km2":13.98,"lat":46.9991,"lon":6.0758,"fibre_pct":96.2},{"code_insee":"25200","nom":"Devecey","codes_postaux":["25870"],"code_dep":"25","code_region":"27","population":1296,"surface_km2":3.75,"lat":47.3231,"lon":6.0172,"fibre_pct":98.6},{"code_insee":"25201","nom":"Dommartin","codes_postaux":["25300"],"code_dep":"25","code_region":"27","population":864,"surface_km2":6.46,"lat":46.9302,"lon":6.3112,"fibre_pct":97.1},{"code_insee":"25202","nom":"Dompierre-les-Tilleuls","codes_postaux":["25560"],"code_dep":"25","code_region":"27","population":291,"surface_km2":13.06,"lat":46.8865,"lon":6.1641,"fibre_pct":99.4},{"code_insee":"25203","nom":"Domprel","codes_postaux":["25510"],"code_dep":"25","code_region":"27","population":172,"surface_km2":9.5,"lat":47.1958,"lon":6.4751,"fibre_pct":100.0},{"code_insee":"25204","nom":"Doubs","codes_postaux":["25300"],"code_dep":"25","code_region":"27","population":3335,"surface_km2":8.95,"lat":46.9321,"lon":6.3651,"fibre_pct":96.4},{"code_insee":"25207","nom":"Dung","codes_postaux":["25550"],"code_dep":"25","code_region":"27","population":630,"surface_km2":3.29,"lat":47.5051,"lon":6.7442,"fibre_pct":98.2},{"code_insee":"25208","nom":"Durnes","codes_postaux":["25580"],"code_dep":"25","code_region":"27","population":204,"surface_km2":8.56,"lat":47.1068,"lon":6.2238,"fibre_pct":100.0},{"code_insee":"25209","nom":"Échay","codes_postaux":["25440"],"code_dep":"25","code_region":"27","population":113,"surface_km2":5.51,"lat":47.0465,"lon":5.9491,"fibre_pct":93.7},{"code_insee":"25210","nom":"Échenans","codes_postaux":["25550"],"code_dep":"25","code_region":"27","population":163,"surface_km2":1.73,"lat":47.5272,"lon":6.6931,"fibre_pct":96.0},{"code_insee":"25211","nom":"Échevannes","codes_postaux":["25580"],"code_dep":"25","code_region":"27","population":88,"surface_km2":5.33,"lat":47.0704,"lon":6.2325,"fibre_pct":100.0},{"code_insee":"25212","nom":"École-Valentin","codes_postaux":["25480"],"code_dep":"25","code_region":"27","population":2579,"surface_km2":3.22,"lat":47.2743,"lon":5.9877,"fibre_pct":92.1},{"code_insee":"25213","nom":"Les Écorces","codes_postaux":["25140"],"code_dep":"25","code_region":"27","population":777,"surface_km2":9.57,"lat":47.2053,"lon":6.799,"fibre_pct":99.7},{"code_insee":"25214","nom":"Écot","codes_postaux":["25150"],"code_dep":"25","code_region":"27","population":510,"surface_km2":10.95,"lat":47.4222,"lon":6.7338,"fibre_pct":98.5},{"code_insee":"25215","nom":"L'Écouvotte","codes_postaux":["25640"],"code_dep":"25","code_region":"27","population":101,"surface_km2":2.09,"lat":47.3443,"lon":6.2519,"fibre_pct":100.0},{"code_insee":"25216","nom":"Écurcey","codes_postaux":["25150"],"code_dep":"25","code_region":"27","population":270,"surface_km2":7.52,"lat":47.4028,"lon":6.8071,"fibre_pct":100.0},{"code_insee":"25217","nom":"Émagny","codes_postaux":["25170"],"code_dep":"25","code_region":"27","population":629,"surface_km2":5.24,"lat":47.3039,"lon":5.8645,"fibre_pct":97.2},{"code_insee":"25218","nom":"Épenouse","codes_postaux":["25530"],"code_dep":"25","code_region":"27","population":167,"surface_km2":5.71,"lat":47.2137,"lon":6.3955,"fibre_pct":100.0},{"code_insee":"25219","nom":"Épenoy","codes_postaux":["25800"],"code_dep":"25","code_region":"27","population":649,"surface_km2":13.31,"lat":47.137,"lon":6.3816,"fibre_pct":100.0},{"code_insee":"25220","nom":"Épeugney","codes_postaux":["25290"],"code_dep":"25","code_region":"27","population":590,"surface_km2":14.03,"lat":47.1291,"lon":6.0205,"fibre_pct":100.0},{"code_insee":"25221","nom":"Esnans","codes_postaux":["25110"],"code_dep":"25","code_region":"27","population":65,"surface_km2":3.54,"lat":47.3326,"lon":6.3245,"fibre_pct":85.2},{"code_insee":"25222","nom":"Étalans","codes_postaux":["25580","25620"],"code_dep":"25","code_region":"27","population":1643,"surface_km2":41.23,"lat":47.1668,"lon":6.2466,"fibre_pct":100.0},{"code_insee":"25223","nom":"Éternoz-Vallée-du-Lison","codes_postaux":["25330"],"code_dep":"25","code_region":"27","population":343,"surface_km2":35.01,"lat":47.0138,"lon":5.9986,"fibre_pct":100.0},{"code_insee":"25224","nom":"Étouvans","codes_postaux":["25260"],"code_dep":"25","code_region":"27","population":823,"surface_km2":6.57,"lat":47.4555,"lon":6.7211,"fibre_pct":99.5},{"code_insee":"25225","nom":"Étrabonne","codes_postaux":["25170"],"code_dep":"25","code_region":"27","population":182,"surface_km2":5.53,"lat":47.2343,"lon":5.7354,"fibre_pct":100.0},{"code_insee":"25226","nom":"Étrappe","codes_postaux":["25250"],"code_dep":"25","code_region":"27","population":202,"surface_km2":2.87,"lat":47.4705,"lon":6.5806,"fibre_pct":99.0},{"code_insee":"25227","nom":"Étray","codes_postaux":["25800"],"code_dep":"25","code_region":"27","population":293,"surface_km2":6.06,"lat":47.1292,"lon":6.3319,"fibre_pct":100.0},{"code_insee":"25228","nom":"Étupes","codes_postaux":["25460"],"code_dep":"25","code_region":"27","population":3689,"surface_km2":9.98,"lat":47.5056,"lon":6.8734,"fibre_pct":96.0},{"code_insee":"25229","nom":"Évillers","codes_postaux":["25520"],"code_dep":"25","code_region":"27","population":387,"surface_km2":13.01,"lat":46.9884,"lon":6.223,"fibre_pct":100.0},{"code_insee":"25230","nom":"Exincourt","codes_postaux":["25400"],"code_dep":"25","code_region":"27","population":3277,"surface_km2":3.5,"lat":47.5017,"lon":6.8371,"fibre_pct":90.2},{"code_insee":"25231","nom":"Eysson","codes_postaux":["25530"],"code_dep":"25","code_region":"27","population":121,"surface_km2":5.99,"lat":47.2029,"lon":6.4308,"fibre_pct":100.0},{"code_insee":"25232","nom":"Faimbe","codes_postaux":["25250"],"code_dep":"25","code_region":"27","population":96,"surface_km2":1.98,"lat":47.4873,"lon":6.6157,"fibre_pct":100.0},{"code_insee":"25233","nom":"Fallerans","codes_postaux":["25580"],"code_dep":"25","code_region":"27","population":293,"surface_km2":10.54,"lat":47.1463,"lon":6.291,"fibre_pct":100.0},{"code_insee":"25234","nom":"Ferrières-le-Lac","codes_postaux":["25470"],"code_dep":"25","code_region":"27","population":160,"surface_km2":2.49,"lat":47.2683,"lon":6.8895,"fibre_pct":100.0},{"code_insee":"25235","nom":"Ferrières-les-Bois","codes_postaux":["25410"],"code_dep":"25","code_region":"27","population":328,"surface_km2":4.22,"lat":47.2088,"lon":5.8019,"fibre_pct":100.0},{"code_insee":"25236","nom":"Fertans","codes_postaux":["25330"],"code_dep":"25","code_region":"27","population":319,"surface_km2":8.25,"lat":47.0559,"lon":6.0678,"fibre_pct":100.0},{"code_insee":"25237","nom":"Fesches-le-Châtel","codes_postaux":["25490"],"code_dep":"25","code_region":"27","population":2129,"surface_km2":3.46,"lat":47.519,"lon":6.9034,"fibre_pct":90.5},{"code_insee":"25238","nom":"Fessevillers","codes_postaux":["25470"],"code_dep":"25","code_region":"27","population":161,"surface_km2":6.12,"lat":47.2812,"lon":6.9204,"fibre_pct":100.0},{"code_insee":"25239","nom":"Feule","codes_postaux":["25190"],"code_dep":"25","code_region":"27","population":190,"surface_km2":3.82,"lat":47.3504,"lon":6.7377,"fibre_pct":100.0},{"code_insee":"25240","nom":"Les Fins","codes_postaux":["25500"],"code_dep":"25","code_region":"27","population":3048,"surface_km2":25.68,"lat":47.0794,"lon":6.628,"fibre_pct":97.9},{"code_insee":"25241","nom":"Flagey","codes_postaux":["25330"],"code_dep":"25","code_region":"27","population":129,"surface_km2":7.66,"lat":47.0472,"lon":6.1108,"fibre_pct":100.0},{"code_insee":"25242","nom":"Flagey-Rigney","codes_postaux":["25640"],"code_dep":"25","code_region":"27","population":137,"surface_km2":2.97,"lat":47.4147,"lon":6.2196,"fibre_pct":100.0},{"code_insee":"25243","nom":"Flangebouche","codes_postaux":["25390"],"code_dep":"25","code_region":"27","population":850,"surface_km2":23.0,"lat":47.1197,"lon":6.4747,"fibre_pct":93.2},{"code_insee":"25244","nom":"Fleurey","codes_postaux":["25190"],"code_dep":"25","code_region":"27","population":84,"surface_km2":8.13,"lat":47.2997,"lon":6.7803,"fibre_pct":100.0},{"code_insee":"25245","nom":"Fontain","codes_postaux":["25660","25720"],"code_dep":"25","code_region":"27","population":1207,"surface_km2":21.38,"lat":47.1895,"lon":6.0308,"fibre_pct":97.8},{"code_insee":"25246","nom":"Fontaine-lès-Clerval","codes_postaux":["25340"],"code_dep":"25","code_region":"27","population":253,"surface_km2":11.47,"lat":47.4231,"lon":6.4672,"fibre_pct":100.0},{"code_insee":"25247","nom":"Fontenelle-Montby","codes_postaux":["25340"],"code_dep":"25","code_region":"27","population":84,"surface_km2":6.71,"lat":47.4475,"lon":6.4118,"fibre_pct":100.0},{"code_insee":"25248","nom":"Les Fontenelles","codes_postaux":["25210"],"code_dep":"25","code_region":"27","population":537,"surface_km2":8.43,"lat":47.1925,"lon":6.7535,"fibre_pct":97.2},{"code_insee":"25249","nom":"Fontenotte","codes_postaux":["25110"],"code_dep":"25","code_region":"27","population":60,"surface_km2":5.73,"lat":47.374,"lon":6.313,"fibre_pct":100.0},{"code_insee":"25251","nom":"Fourbanne","codes_postaux":["25110"],"code_dep":"25","code_region":"27","population":155,"surface_km2":1.98,"lat":47.3368,"lon":6.3076,"fibre_pct":90.5},{"code_insee":"25252","nom":"Fourcatier-et-Maison-Neuve","codes_postaux":["25370"],"code_dep":"25","code_region":"27","population":130,"surface_km2":2.76,"lat":46.7644,"lon":6.313,"fibre_pct":100.0},{"code_insee":"25253","nom":"Fourg","codes_postaux":["25440"],"code_dep":"25","code_region":"27","population":370,"surface_km2":12.08,"lat":47.0951,"lon":5.8033,"fibre_pct":98.1},{"code_insee":"25254","nom":"Les Fourgs","codes_postaux":["25300"],"code_dep":"25","code_region":"27","population":1443,"surface_km2":27.95,"lat":46.84,"lon":6.4163,"fibre_pct":93.7},{"code_insee":"25255","nom":"Fournet-Blancheroche","codes_postaux":["25140"],"code_dep":"25","code_region":"27","population":353,"surface_km2":13.15,"lat":47.1649,"lon":6.8249,"fibre_pct":95.6},{"code_insee":"25256","nom":"Frambouhans","codes_postaux":["25140"],"code_dep":"25","code_region":"27","population":867,"surface_km2":10.12,"lat":47.2003,"lon":6.7786,"fibre_pct":95.9},{"code_insee":"25257","nom":"Franey","codes_postaux":["25170"],"code_dep":"25","code_region":"27","population":263,"surface_km2":3.39,"lat":47.2584,"lon":5.8174,"fibre_pct":100.0},{"code_insee":"25258","nom":"Franois","codes_postaux":["25770"],"code_dep":"25","code_region":"27","population":2257,"surface_km2":7.3,"lat":47.2246,"lon":5.9261,"fibre_pct":97.8},{"code_insee":"25259","nom":"Frasne","codes_postaux":["25560"],"code_dep":"25","code_region":"27","population":1975,"surface_km2":33.01,"lat":46.854,"lon":6.145,"fibre_pct":97.6},{"code_insee":"25261","nom":"Froidevaux","codes_postaux":["25190"],"code_dep":"25","code_region":"27","population":83,"surface_km2":4.01,"lat":47.302,"lon":6.6905,"fibre_pct":100.0},{"code_insee":"25262","nom":"Fuans","codes_postaux":["25390"],"code_dep":"25","code_region":"27","population":473,"surface_km2":11.08,"lat":47.126,"lon":6.5897,"fibre_pct":100.0},{"code_insee":"25263","nom":"Gellin","codes_postaux":["25240"],"code_dep":"25","code_region":"27","population":267,"surface_km2":4.83,"lat":46.7179,"lon":6.2359,"fibre_pct":100.0},{"code_insee":"25264","nom":"Gémonval","codes_postaux":["25250"],"code_dep":"25","code_region":"27","population":81,"surface_km2":3.44,"lat":47.5355,"lon":6.5928,"fibre_pct":100.0},{"code_insee":"25265","nom":"Geneuille","codes_postaux":["25870"],"code_dep":"25","code_region":"27","population":1280,"surface_km2":6.43,"lat":47.3217,"lon":5.9696,"fibre_pct":99.9},{"code_insee":"25266","nom":"Geney","codes_postaux":["25250"],"code_dep":"25","code_region":"27","population":125,"surface_km2":4.39,"lat":47.4815,"lon":6.5671,"fibre_pct":95.9},{"code_insee":"25267","nom":"Gennes","codes_postaux":["25660"],"code_dep":"25","code_region":"27","population":669,"surface_km2":7.24,"lat":47.2481,"lon":6.1305,"fibre_pct":93.1},{"code_insee":"25268","nom":"Germéfontaine","codes_postaux":["25510"],"code_dep":"25","code_region":"27","population":121,"surface_km2":11.17,"lat":47.2256,"lon":6.4859,"fibre_pct":100.0},{"code_insee":"25269","nom":"Germondans","codes_postaux":["25640"],"code_dep":"25","code_region":"27","population":57,"surface_km2":3.72,"lat":47.4165,"lon":6.1992,"fibre_pct":100.0},{"code_insee":"25270","nom":"Gevresin","codes_postaux":["25270"],"code_dep":"25","code_region":"27","population":158,"surface_km2":7.06,"lat":46.9641,"lon":6.0495,"fibre_pct":100.0},{"code_insee":"25271","nom":"Gilley","codes_postaux":["25650"],"code_dep":"25","code_region":"27","population":1842,"surface_km2":17.46,"lat":47.0554,"lon":6.4832,"fibre_pct":99.6},{"code_insee":"25273","nom":"Glamondans","codes_postaux":["25360"],"code_dep":"25","code_region":"27","population":195,"surface_km2":9.73,"lat":47.2658,"lon":6.2865,"fibre_pct":100.0},{"code_insee":"25274","nom":"Glay","codes_postaux":["25310"],"code_dep":"25","code_region":"27","population":339,"surface_km2":6.62,"lat":47.4019,"lon":6.8944,"fibre_pct":98.1},{"code_insee":"25275","nom":"Glère","codes_postaux":["25190"],"code_dep":"25","code_region":"27","population":176,"surface_km2":16.18,"lat":47.3444,"lon":6.984,"fibre_pct":96.0},{"code_insee":"25276","nom":"Gondenans-Montby","codes_postaux":["25340"],"code_dep":"25","code_region":"27","population":161,"surface_km2":11.84,"lat":47.443,"lon":6.4619,"fibre_pct":100.0},{"code_insee":"25277","nom":"Gondenans-les-Moulins","codes_postaux":["25680"],"code_dep":"25","code_region":"27","population":84,"surface_km2":3.94,"lat":47.4667,"lon":6.3832,"fibre_pct":92.6},{"code_insee":"25278","nom":"Gonsans","codes_postaux":["25360"],"code_dep":"25","code_region":"27","population":554,"surface_km2":17.35,"lat":47.2255,"lon":6.299,"fibre_pct":100.0},{"code_insee":"25279","nom":"Gouhelans","codes_postaux":["25680"],"code_dep":"25","code_region":"27","population":118,"surface_km2":6.2,"lat":47.4532,"lon":6.3622,"fibre_pct":100.0},{"code_insee":"25280","nom":"Goumois","codes_postaux":["25470"],"code_dep":"25","code_region":"27","population":181,"surface_km2":5.92,"lat":47.2662,"lon":6.94,"fibre_pct":100.0},{"code_insee":"25281","nom":"Goux-lès-Dambelin","codes_postaux":["25150"],"code_dep":"25","code_region":"27","population":270,"surface_km2":8.87,"lat":47.3981,"lon":6.6814,"fibre_pct":100.0},{"code_insee":"25283","nom":"Goux-sous-Landet","codes_postaux":["25440"],"code_dep":"25","code_region":"27","population":61,"surface_km2":5.44,"lat":47.0788,"lon":5.934,"fibre_pct":100.0},{"code_insee":"25284","nom":"Grand-Charmont","codes_postaux":["25200"],"code_dep":"25","code_region":"27","population":5873,"surface_km2":4.5,"lat":47.5332,"lon":6.823,"fibre_pct":98.1},{"code_insee":"25285","nom":"Grand'Combe-Châteleu","codes_postaux":["25570"],"code_dep":"25","code_region":"27","population":1491,"surface_km2":21.6,"lat":47.016,"lon":6.555,"fibre_pct":100.0},{"code_insee":"25286","nom":"Grand'Combe-des-Bois","codes_postaux":["25210"],"code_dep":"25","code_region":"27","population":125,"surface_km2":11.89,"lat":47.1329,"lon":6.7794,"fibre_pct":100.0},{"code_insee":"25287","nom":"Grandfontaine","codes_postaux":["25320"],"code_dep":"25","code_region":"27","population":1827,"surface_km2":5.73,"lat":47.1982,"lon":5.9053,"fibre_pct":100.0},{"code_insee":"25288","nom":"Fournets-Luisans","codes_postaux":["25390"],"code_dep":"25","code_region":"27","population":744,"surface_km2":27.78,"lat":47.1077,"lon":6.5663,"fibre_pct":100.0},{"code_insee":"25289","nom":"Grandfontaine-sur-Creuse","codes_postaux":["25510"],"code_dep":"25","code_region":"27","population":75,"surface_km2":5.97,"lat":47.1867,"lon":6.4575,"fibre_pct":100.0},{"code_insee":"25290","nom":"La Grange","codes_postaux":["25380"],"code_dep":"25","code_region":"27","population":97,"surface_km2":6.32,"lat":47.285,"lon":6.6711,"fibre_pct":94.1},{"code_insee":"25293","nom":"Granges-Narboz","codes_postaux":["25300"],"code_dep":"25","code_region":"27","population":1359,"surface_km2":16.28,"lat":46.8781,"lon":6.3227,"fibre_pct":98.5},{"code_insee":"25295","nom":"Les Grangettes","codes_postaux":["25160"],"code_dep":"25","code_region":"27","population":334,"surface_km2":5.47,"lat":46.8324,"lon":6.3165,"fibre_pct":100.0},{"code_insee":"25296","nom":"Les Gras","codes_postaux":["25790"],"code_dep":"25","code_region":"27","population":817,"surface_km2":14.97,"lat":46.9894,"lon":6.5404,"fibre_pct":100.0},{"code_insee":"25298","nom":"Grosbois","codes_postaux":["25110"],"code_dep":"25","code_region":"27","population":255,"surface_km2":2.95,"lat":47.3491,"lon":6.3054,"fibre_pct":100.0},{"code_insee":"25299","nom":"Guillon-les-Bains","codes_postaux":["25110"],"code_dep":"25","code_region":"27","population":108,"surface_km2":4.77,"lat":47.3147,"lon":6.3946,"fibre_pct":100.0},{"code_insee":"25300","nom":"Guyans-Durnes","codes_postaux":["25580"],"code_dep":"25","code_region":"27","population":318,"surface_km2":9.14,"lat":47.1292,"lon":6.2427,"fibre_pct":100.0},{"code_insee":"25301","nom":"Guyans-Vennes","codes_postaux":["25390"],"code_dep":"25","code_region":"27","population":838,"surface_km2":19.72,"lat":47.1669,"lon":6.5914,"fibre_pct":94.7},{"code_insee":"25304","nom":"Hérimoncourt","codes_postaux":["25310"],"code_dep":"25","code_region":"27","population":3508,"surface_km2":7.3,"lat":47.4358,"lon":6.8868,"fibre_pct":94.2},{"code_insee":"25305","nom":"L'Hôpital-du-Grosbois","codes_postaux":["25620"],"code_dep":"25","code_region":"27","population":611,"surface_km2":7.77,"lat":47.1794,"lon":6.2111,"fibre_pct":98.9},{"code_insee":"25306","nom":"L'Hôpital-Saint-Lieffroy","codes_postaux":["25340"],"code_dep":"25","code_region":"27","population":121,"surface_km2":3.47,"lat":47.4006,"lon":6.4555,"fibre_pct":100.0},{"code_insee":"25307","nom":"Les Hôpitaux-Neufs","codes_postaux":["25370"],"code_dep":"25","code_region":"27","population":967,"surface_km2":6.57,"lat":46.7838,"lon":6.3957,"fibre_pct":96.0},{"code_insee":"25308","nom":"Les Hôpitaux-Vieux","codes_postaux":["25370"],"code_dep":"25","code_region":"27","population":462,"surface_km2":14.29,"lat":46.802,"lon":6.3988,"fibre_pct":100.0},{"code_insee":"25309","nom":"Houtaud","codes_postaux":["25300"],"code_dep":"25","code_region":"27","population":1216,"surface_km2":7.84,"lat":46.915,"lon":6.3021,"fibre_pct":100.0},{"code_insee":"25310","nom":"Huanne-Montmartin","codes_postaux":["25680"],"code_dep":"25","code_region":"27","population":101,"surface_km2":3.56,"lat":47.4302,"lon":6.3418,"fibre_pct":100.0},{"code_insee":"25311","nom":"Hyémondans","codes_postaux":["25250"],"code_dep":"25","code_region":"27","population":191,"surface_km2":6.91,"lat":47.3816,"lon":6.6422,"fibre_pct":96.3},{"code_insee":"25312","nom":"Hyèvre-Magny","codes_postaux":["25110"],"code_dep":"25","code_region":"27","population":61,"surface_km2":3.39,"lat":47.3616,"lon":6.43,"fibre_pct":74.3},{"code_insee":"25313","nom":"Hyèvre-Paroisse","codes_postaux":["25110"],"code_dep":"25","code_region":"27","population":190,"surface_km2":8.78,"lat":47.3749,"lon":6.4297,"fibre_pct":100.0},{"code_insee":"25314","nom":"Indevillers","codes_postaux":["25470"],"code_dep":"25","code_region":"27","population":236,"surface_km2":23.06,"lat":47.3146,"lon":6.9706,"fibre_pct":99.5},{"code_insee":"25315","nom":"L'Isle-sur-le-Doubs","codes_postaux":["25250"],"code_dep":"25","code_region":"27","population":2780,"surface_km2":10.76,"lat":47.4242,"lon":6.5912,"fibre_pct":95.6},{"code_insee":"25316","nom":"Issans","codes_postaux":["25550"],"code_dep":"25","code_region":"27","population":239,"surface_km2":2.72,"lat":47.5255,"lon":6.7338,"fibre_pct":100.0},{"code_insee":"25317","nom":"Jallerange","codes_postaux":["25170"],"code_dep":"25","code_region":"27","population":279,"surface_km2":5.53,"lat":47.2541,"lon":5.719,"fibre_pct":100.0},{"code_insee":"25318","nom":"Jougne","codes_postaux":["25370"],"code_dep":"25","code_region":"27","population":1937,"surface_km2":29.06,"lat":46.7598,"lon":6.4064,"fibre_pct":92.9},{"code_insee":"25320","nom":"Labergement-Sainte-Marie","codes_postaux":["25160"],"code_dep":"25","code_region":"27","population":1273,"surface_km2":22.07,"lat":46.7817,"lon":6.282,"fibre_pct":95.0},{"code_insee":"25321","nom":"Villers-le-Lac","codes_postaux":["25130"],"code_dep":"25","code_region":"27","population":5292,"surface_km2":30.3,"lat":47.073,"lon":6.6946,"fibre_pct":98.0},{"code_insee":"25322","nom":"Laire","codes_postaux":["25550"],"code_dep":"25","code_region":"27","population":405,"surface_km2":3.19,"lat":47.5509,"lon":6.7385,"fibre_pct":100.0},{"code_insee":"25323","nom":"Laissey","codes_postaux":["25820"],"code_dep":"25","code_region":"27","population":438,"surface_km2":2.83,"lat":47.3006,"lon":6.2336,"fibre_pct":100.0},{"code_insee":"25324","nom":"Lanans","codes_postaux":["25360"],"code_dep":"25","code_region":"27","population":163,"surface_km2":10.21,"lat":47.2932,"lon":6.4465,"fibre_pct":100.0},{"code_insee":"25325","nom":"Landresse","codes_postaux":["25530"],"code_dep":"25","code_region":"27","population":236,"surface_km2":14.43,"lat":47.2597,"lon":6.4855,"fibre_pct":100.0},{"code_insee":"25326","nom":"Lantenne-Vertière","codes_postaux":["25170"],"code_dep":"25","code_region":"27","population":562,"surface_km2":9.87,"lat":47.2308,"lon":5.7757,"fibre_pct":100.0},{"code_insee":"25327","nom":"Lanthenans","codes_postaux":["25250"],"code_dep":"25","code_region":"27","population":68,"surface_km2":3.32,"lat":47.3915,"lon":6.6257,"fibre_pct":100.0},{"code_insee":"25328","nom":"Larnod","codes_postaux":["25720"],"code_dep":"25","code_region":"27","population":773,"surface_km2":4.09,"lat":47.1762,"lon":5.9718,"fibre_pct":98.7},{"code_insee":"25329","nom":"Laval-le-Prieuré","codes_postaux":["25210"],"code_dep":"25","code_region":"27","population":32,"surface_km2":5.4,"lat":47.1794,"lon":6.6207,"fibre_pct":100.0},{"code_insee":"25330","nom":"Lavans-Quingey","codes_postaux":["25440"],"code_dep":"25","code_region":"27","population":188,"surface_km2":5.91,"lat":47.0888,"lon":5.896,"fibre_pct":100.0},{"code_insee":"25331","nom":"Lavans-Vuillafans","codes_postaux":["25580"],"code_dep":"25","code_region":"27","population":232,"surface_km2":10.05,"lat":47.0774,"lon":6.2536,"fibre_pct":100.0},{"code_insee":"25332","nom":"Lavernay","codes_postaux":["25170"],"code_dep":"25","code_region":"27","population":589,"surface_km2":7.78,"lat":47.2447,"lon":5.8194,"fibre_pct":98.1},{"code_insee":"25333","nom":"Laviron","codes_postaux":["25510"],"code_dep":"25","code_region":"27","population":356,"surface_km2":20.19,"lat":47.2553,"lon":6.5614,"fibre_pct":98.3},{"code_insee":"25334","nom":"Levier","codes_postaux":["25270"],"code_dep":"25","code_region":"27","population":2400,"surface_km2":44.37,"lat":46.9655,"lon":6.1196,"fibre_pct":100.0},{"code_insee":"25335","nom":"Liebvillers","codes_postaux":["25190"],"code_dep":"25","code_region":"27","population":148,"surface_km2":3.11,"lat":47.3323,"lon":6.7845,"fibre_pct":94.9},{"code_insee":"25336","nom":"Liesle","codes_postaux":["25440"],"code_dep":"25","code_region":"27","population":558,"surface_km2":16.61,"lat":47.0683,"lon":5.8109,"fibre_pct":96.0},{"code_insee":"25338","nom":"Lizine","codes_postaux":["25330"],"code_dep":"25","code_region":"27","population":87,"surface_km2":7.3,"lat":47.0534,"lon":5.9921,"fibre_pct":100.0},{"code_insee":"25339","nom":"Lods","codes_postaux":["25930"],"code_dep":"25","code_region":"27","population":253,"surface_km2":6.33,"lat":47.0499,"lon":6.2591,"fibre_pct":97.7},{"code_insee":"25340","nom":"Lombard","codes_postaux":["25440"],"code_dep":"25","code_region":"27","population":195,"surface_km2":5.91,"lat":47.0826,"lon":5.8507,"fibre_pct":100.0},{"code_insee":"25341","nom":"Lomont-sur-Crête","codes_postaux":["25110"],"code_dep":"25","code_region":"27","population":170,"surface_km2":9.86,"lat":47.3381,"lon":6.4338,"fibre_pct":100.0},{"code_insee":"25342","nom":"Longechaux","codes_postaux":["25690"],"code_dep":"25","code_region":"27","population":78,"surface_km2":5.1,"lat":47.1647,"lon":6.4368,"fibre_pct":80.7},{"code_insee":"25343","nom":"Longemaison","codes_postaux":["25690"],"code_dep":"25","code_region":"27","population":167,"surface_km2":9.92,"lat":47.0847,"lon":6.459,"fibre_pct":100.0},{"code_insee":"25344","nom":"Longevelle-lès-Russey","codes_postaux":["25380"],"code_dep":"25","code_region":"27","population":37,"surface_km2":2.56,"lat":47.222,"lon":6.6557,"fibre_pct":100.0},{"code_insee":"25345","nom":"Longevelle-sur-Doubs","codes_postaux":["25260"],"code_dep":"25","code_region":"27","population":646,"surface_km2":8.35,"lat":47.4627,"lon":6.6503,"fibre_pct":98.6},{"code_insee":"25346","nom":"Longeville","codes_postaux":["25330"],"code_dep":"25","code_region":"27","population":174,"surface_km2":9.37,"lat":47.033,"lon":6.2309,"fibre_pct":99.1},{"code_insee":"25348","nom":"Longevilles-Mont-d'Or","codes_postaux":["25370"],"code_dep":"25","code_region":"27","population":625,"surface_km2":13.19,"lat":46.7451,"lon":6.3293,"fibre_pct":96.7},{"code_insee":"25349","nom":"Loray","codes_postaux":["25390"],"code_dep":"25","code_region":"27","population":623,"surface_km2":14.36,"lat":47.1572,"lon":6.4933,"fibre_pct":95.1},{"code_insee":"25350","nom":"Lougres","codes_postaux":["25260"],"code_dep":"25","code_region":"27","population":742,"surface_km2":5.96,"lat":47.4718,"lon":6.6801,"fibre_pct":100.0},{"code_insee":"25351","nom":"Le Luhier","codes_postaux":["25210"],"code_dep":"25","code_region":"27","population":244,"surface_km2":5.22,"lat":47.1689,"lon":6.6777,"fibre_pct":96.6},{"code_insee":"25354","nom":"Luxiol","codes_postaux":["25110"],"code_dep":"25","code_region":"27","population":157,"surface_km2":6.39,"lat":47.3794,"lon":6.3483,"fibre_pct":100.0},{"code_insee":"25355","nom":"Magny-Châtelard","codes_postaux":["25360"],"code_dep":"25","code_region":"27","population":60,"surface_km2":4.12,"lat":47.2345,"lon":6.3283,"fibre_pct":100.0},{"code_insee":"25356","nom":"Maîche","codes_postaux":["25120"],"code_dep":"25","code_region":"27","population":4254,"surface_km2":17.45,"lat":47.2412,"lon":6.7915,"fibre_pct":96.4},{"code_insee":"25357","nom":"Maisons-du-Bois-Lièvremont","codes_postaux":["25650"],"code_dep":"25","code_region":"27","population":835,"surface_km2":15.84,"lat":46.9796,"lon":6.4131,"fibre_pct":97.7},{"code_insee":"25359","nom":"Malans","codes_postaux":["25330"],"code_dep":"25","code_region":"27","population":157,"surface_km2":10.54,"lat":47.0452,"lon":6.0295,"fibre_pct":100.0},{"code_insee":"25360","nom":"Malbrans","codes_postaux":["25620"],"code_dep":"25","code_region":"27","population":155,"surface_km2":8.71,"lat":47.1241,"lon":6.0897,"fibre_pct":100.0},{"code_insee":"25361","nom":"Malbuisson","codes_postaux":["25160"],"code_dep":"25","code_region":"27","population":903,"surface_km2":6.71,"lat":46.8015,"lon":6.31,"fibre_pct":99.1},{"code_insee":"25362","nom":"Malpas","codes_postaux":["25160"],"code_dep":"25","code_region":"27","population":300,"surface_km2":5.76,"lat":46.8283,"lon":6.2892,"fibre_pct":96.7},{"code_insee":"25364","nom":"Mamirolle","codes_postaux":["25620"],"code_dep":"25","code_region":"27","population":1988,"surface_km2":14.52,"lat":47.1947,"lon":6.1531,"fibre_pct":99.0},{"code_insee":"25365","nom":"Mancenans","codes_postaux":["25250"],"code_dep":"25","code_region":"27","population":321,"surface_km2":11.98,"lat":47.4637,"lon":6.5433,"fibre_pct":100.0},{"code_insee":"25366","nom":"Mancenans-Lizerne","codes_postaux":["25120"],"code_dep":"25","code_region":"27","population":181,"surface_km2":6.07,"lat":47.2555,"lon":6.7741,"fibre_pct":100.0},{"code_insee":"25367","nom":"Mandeure","codes_postaux":["25350"],"code_dep":"25","code_region":"27","population":4612,"surface_km2":15.2,"lat":47.4315,"lon":6.8125,"fibre_pct":93.1},{"code_insee":"25368","nom":"Marchaux-Chaudefontaine","codes_postaux":["25640"],"code_dep":"25","code_region":"27","population":1447,"surface_km2":16.37,"lat":47.3338,"lon":6.1376,"fibre_pct":98.6},{"code_insee":"25369","nom":"Marvelise","codes_postaux":["25250"],"code_dep":"25","code_region":"27","population":147,"surface_km2":4.19,"lat":47.5209,"lon":6.5947,"fibre_pct":100.0},{"code_insee":"25370","nom":"Mathay","codes_postaux":["25700"],"code_dep":"25","code_region":"27","population":2115,"surface_km2":14.89,"lat":47.4394,"lon":6.7755,"fibre_pct":97.1},{"code_insee":"25371","nom":"Mazerolles-le-Salin","codes_postaux":["25170"],"code_dep":"25","code_region":"27","population":218,"surface_km2":4.2,"lat":47.2424,"lon":5.8689,"fibre_pct":97.2},{"code_insee":"25372","nom":"Médière","codes_postaux":["25250"],"code_dep":"25","code_region":"27","population":281,"surface_km2":5.74,"lat":47.4624,"lon":6.6022,"fibre_pct":100.0},{"code_insee":"25373","nom":"Le Mémont","codes_postaux":["25210"],"code_dep":"25","code_region":"27","population":47,"surface_km2":3.17,"lat":47.1598,"lon":6.6885,"fibre_pct":100.0},{"code_insee":"25374","nom":"Mercey-le-Grand","codes_postaux":["25410"],"code_dep":"25","code_region":"27","population":520,"surface_km2":6.6,"lat":47.2095,"lon":5.7547,"fibre_pct":100.0},{"code_insee":"25375","nom":"Les Monts-Ronds","codes_postaux":["25620","25660"],"code_dep":"25","code_region":"27","population":667,"surface_km2":17.14,"lat":47.1581,"lon":6.0733,"fibre_pct":87.0},{"code_insee":"25376","nom":"Mérey-Vieilley","codes_postaux":["25870"],"code_dep":"25","code_region":"27","population":178,"surface_km2":3.39,"lat":47.331,"lon":6.0629,"fibre_pct":100.0},{"code_insee":"25377","nom":"Mésandans","codes_postaux":["25680"],"code_dep":"25","code_region":"27","population":233,"surface_km2":5.63,"lat":47.43,"lon":6.378,"fibre_pct":100.0},{"code_insee":"25378","nom":"Meslières","codes_postaux":["25310"],"code_dep":"25","code_region":"27","population":323,"surface_km2":2.96,"lat":47.4185,"lon":6.8942,"fibre_pct":100.0},{"code_insee":"25379","nom":"Mesmay","codes_postaux":["25440"],"code_dep":"25","code_region":"27","population":67,"surface_km2":3.08,"lat":47.0582,"lon":5.8509,"fibre_pct":100.0},{"code_insee":"25380","nom":"Métabief","codes_postaux":["25370"],"code_dep":"25","code_region":"27","population":1375,"surface_km2":5.83,"lat":46.7619,"lon":6.3512,"fibre_pct":97.0},{"code_insee":"25381","nom":"Miserey-Salines","codes_postaux":["25480"],"code_dep":"25","code_region":"27","population":2661,"surface_km2":6.19,"lat":47.2897,"lon":5.9705,"fibre_pct":97.1},{"code_insee":"25382","nom":"Moncey","codes_postaux":["25870"],"code_dep":"25","code_region":"27","population":610,"surface_km2":4.98,"lat":47.3612,"lon":6.1327,"fibre_pct":93.8},{"code_insee":"25383","nom":"Moncley","codes_postaux":["25170"],"code_dep":"25","code_region":"27","population":308,"surface_km2":7.94,"lat":47.3056,"lon":5.9026,"fibre_pct":100.0},{"code_insee":"25384","nom":"Mondon","codes_postaux":["25680"],"code_dep":"25","code_region":"27","population":77,"surface_km2":4.56,"lat":47.4478,"lon":6.3133,"fibre_pct":100.0},{"code_insee":"25385","nom":"Montagney-Servigney","codes_postaux":["25680"],"code_dep":"25","code_region":"27","population":121,"surface_km2":6.62,"lat":47.4685,"lon":6.3054,"fibre_pct":100.0},{"code_insee":"25386","nom":"Montancy","codes_postaux":["25190"],"code_dep":"25","code_region":"27","population":127,"surface_km2":8.84,"lat":47.354,"lon":7.0259,"fibre_pct":99.0},{"code_insee":"25387","nom":"Montandon","codes_postaux":["25190"],"code_dep":"25","code_region":"27","population":371,"surface_km2":12.72,"lat":47.2986,"lon":6.8365,"fibre_pct":100.0},{"code_insee":"25388","nom":"Montbéliard","codes_postaux":["25200"],"code_dep":"25","code_region":"27","population":24672,"surface_km2":15.01,"lat":47.5168,"lon":6.7834,"fibre_pct":95.5},{"code_insee":"25389","nom":"Montbéliardot","codes_postaux":["25210"],"code_dep":"25","code_region":"27","population":114,"surface_km2":3.88,"lat":47.1822,"lon":6.6694,"fibre_pct":100.0},{"code_insee":"25390","nom":"Pays-de-Montbenoît","codes_postaux":["25650"],"code_dep":"25","code_region":"27","population":1923,"surface_km2":46.74,"lat":46.9985,"lon":6.4652,"fibre_pct":97.2},{"code_insee":"25391","nom":"Mont-de-Laval","codes_postaux":["25210"],"code_dep":"25","code_region":"27","population":194,"surface_km2":8.5,"lat":47.1633,"lon":6.6408,"fibre_pct":99.1},{"code_insee":"25392","nom":"Mont-de-Vougney","codes_postaux":["25120"],"code_dep":"25","code_region":"27","population":193,"surface_km2":7.11,"lat":47.2417,"lon":6.7371,"fibre_pct":100.0},{"code_insee":"25393","nom":"Montécheroux","codes_postaux":["25190"],"code_dep":"25","code_region":"27","population":563,"surface_km2":13.24,"lat":47.3469,"lon":6.7965,"fibre_pct":98.9},{"code_insee":"25394","nom":"Montenois","codes_postaux":["25260"],"code_dep":"25","code_region":"27","population":1362,"surface_km2":8.13,"lat":47.4921,"lon":6.6573,"fibre_pct":99.4},{"code_insee":"25395","nom":"Montfaucon","codes_postaux":["25660"],"code_dep":"25","code_region":"27","population":1622,"surface_km2":7.25,"lat":47.2408,"lon":6.0881,"fibre_pct":99.0},{"code_insee":"25397","nom":"Montferrand-le-Château","codes_postaux":["25320"],"code_dep":"25","code_region":"27","population":2180,"surface_km2":7.5,"lat":47.191,"lon":5.9185,"fibre_pct":90.5},{"code_insee":"25400","nom":"Montgesoye","codes_postaux":["25111"],"code_dep":"25","code_region":"27","population":498,"surface_km2":11.27,"lat":47.0877,"lon":6.1963,"fibre_pct":100.0},{"code_insee":"25401","nom":"Montivernage","codes_postaux":["25110"],"code_dep":"25","code_region":"27","population":27,"surface_km2":3.3,"lat":47.3099,"lon":6.4225,"fibre_pct":100.0},{"code_insee":"25402","nom":"Montjoie-le-Château","codes_postaux":["25190"],"code_dep":"25","code_region":"27","population":23,"surface_km2":5.46,"lat":47.3461,"lon":6.8965,"fibre_pct":58.7},{"code_insee":"25403","nom":"Montlebon","codes_postaux":["25500"],"code_dep":"25","code_region":"27","population":2244,"surface_km2":27.32,"lat":47.0216,"lon":6.6316,"fibre_pct":98.5},{"code_insee":"25404","nom":"Montmahoux","codes_postaux":["25270"],"code_dep":"25","code_region":"27","population":94,"surface_km2":6.71,"lat":46.9817,"lon":6.0317,"fibre_pct":100.0},{"code_insee":"25405","nom":"Montperreux","codes_postaux":["25160"],"code_dep":"25","code_region":"27","population":940,"surface_km2":11.62,"lat":46.8205,"lon":6.3424,"fibre_pct":98.4},{"code_insee":"25406","nom":"Montrond-le-Château","codes_postaux":["25660"],"code_dep":"25","code_region":"27","population":558,"surface_km2":11.06,"lat":47.146,"lon":6.0433,"fibre_pct":100.0},{"code_insee":"25408","nom":"Montussaint","codes_postaux":["25680"],"code_dep":"25","code_region":"27","population":54,"surface_km2":3.04,"lat":47.4364,"lon":6.2927,"fibre_pct":100.0},{"code_insee":"25410","nom":"Morre","codes_postaux":["25660"],"code_dep":"25","code_region":"27","population":1303,"surface_km2":5.3,"lat":47.2188,"lon":6.0688,"fibre_pct":92.6},{"code_insee":"25411","nom":"Morteau","codes_postaux":["25500"],"code_dep":"25","code_region":"27","population":6953,"surface_km2":14.29,"lat":47.0643,"lon":6.5891,"fibre_pct":97.6},{"code_insee":"25413","nom":"Mouthe","codes_postaux":["25240"],"code_dep":"25","code_region":"27","population":1037,"surface_km2":38.81,"lat":46.6836,"lon":6.2089,"fibre_pct":96.1},{"code_insee":"25414","nom":"Le Moutherot","codes_postaux":["25170"],"code_dep":"25","code_region":"27","population":132,"surface_km2":1.25,"lat":47.2429,"lon":5.7317,"fibre_pct":100.0},{"code_insee":"25415","nom":"Mouthier-Haute-Pierre","codes_postaux":["25920"],"code_dep":"25","code_region":"27","population":363,"surface_km2":12.23,"lat":47.0378,"lon":6.2812,"fibre_pct":98.2},{"code_insee":"25416","nom":"Myon","codes_postaux":["25440"],"code_dep":"25","code_region":"27","population":182,"surface_km2":15.86,"lat":47.0076,"lon":5.9404,"fibre_pct":88.6},{"code_insee":"25417","nom":"Naisey-les-Granges","codes_postaux":["25360"],"code_dep":"25","code_region":"27","population":835,"surface_km2":25.17,"lat":47.2079,"lon":6.2385,"fibre_pct":98.5},{"code_insee":"25418","nom":"Nancray","codes_postaux":["25360"],"code_dep":"25","code_region":"27","population":1308,"surface_km2":16.63,"lat":47.2488,"lon":6.177,"fibre_pct":92.3},{"code_insee":"25419","nom":"Nans","codes_postaux":["25680"],"code_dep":"25","code_region":"27","population":96,"surface_km2":3.25,"lat":47.4765,"lon":6.4113,"fibre_pct":100.0},{"code_insee":"25420","nom":"Nans-sous-Sainte-Anne","codes_postaux":["25330"],"code_dep":"25","code_region":"27","population":167,"surface_km2":8.77,"lat":46.9772,"lon":5.9904,"fibre_pct":100.0},{"code_insee":"25421","nom":"Narbief","codes_postaux":["25210"],"code_dep":"25","code_region":"27","population":109,"surface_km2":3.49,"lat":47.1299,"lon":6.6937,"fibre_pct":100.0},{"code_insee":"25422","nom":"Neuchâtel-Urtière","codes_postaux":["25150"],"code_dep":"25","code_region":"27","population":164,"surface_km2":6.17,"lat":47.3799,"lon":6.7285,"fibre_pct":100.0},{"code_insee":"25424","nom":"Les Premiers Sapins","codes_postaux":["25580"],"code_dep":"25","code_region":"27","population":1587,"surface_km2":52.44,"lat":47.0774,"lon":6.3426,"fibre_pct":98.3},{"code_insee":"25425","nom":"Noël-Cerneux","codes_postaux":["25500"],"code_dep":"25","code_region":"27","population":453,"surface_km2":6.37,"lat":47.1062,"lon":6.6556,"fibre_pct":100.0},{"code_insee":"25426","nom":"Noirefontaine","codes_postaux":["25190"],"code_dep":"25","code_region":"27","population":324,"surface_km2":3.39,"lat":47.3461,"lon":6.7669,"fibre_pct":93.4},{"code_insee":"25427","nom":"Noironte","codes_postaux":["25170"],"code_dep":"25","code_region":"27","population":405,"surface_km2":6.76,"lat":47.2743,"lon":5.8701,"fibre_pct":98.1},{"code_insee":"25428","nom":"Nommay","codes_postaux":["25600"],"code_dep":"25","code_region":"27","population":1596,"surface_km2":3.25,"lat":47.537,"lon":6.8454,"fibre_pct":98.0},{"code_insee":"25429","nom":"Novillars","codes_postaux":["25220"],"code_dep":"25","code_region":"27","population":1334,"surface_km2":2.05,"lat":47.2876,"lon":6.1301,"fibre_pct":99.4},{"code_insee":"25430","nom":"Ollans","codes_postaux":["25640"],"code_dep":"25","code_region":"27","population":43,"surface_km2":2.23,"lat":47.4208,"lon":6.2455,"fibre_pct":100.0},{"code_insee":"25431","nom":"Onans","codes_postaux":["25250"],"code_dep":"25","code_region":"27","population":368,"surface_km2":14.18,"lat":47.5011,"lon":6.6036,"fibre_pct":100.0},{"code_insee":"25432","nom":"Orchamps-Vennes","codes_postaux":["25390"],"code_dep":"25","code_region":"27","population":2189,"surface_km2":24.79,"lat":47.109,"lon":6.5122,"fibre_pct":93.1},{"code_insee":"25433","nom":"Orgeans-Blanchefontaine","codes_postaux":["25120"],"code_dep":"25","code_region":"27","population":41,"surface_km2":4.85,"lat":47.2675,"lon":6.7554,"fibre_pct":100.0},{"code_insee":"25434","nom":"Ornans","codes_postaux":["25290","25620"],"code_dep":"25","code_region":"27","population":4419,"surface_km2":35.85,"lat":47.1,"lon":6.1534,"fibre_pct":98.8},{"code_insee":"25435","nom":"Orsans","codes_postaux":["25530"],"code_dep":"25","code_region":"27","population":179,"surface_km2":8.37,"lat":47.2468,"lon":6.3832,"fibre_pct":100.0},{"code_insee":"25436","nom":"Orve","codes_postaux":["25430"],"code_dep":"25","code_region":"27","population":59,"surface_km2":5.6,"lat":47.338,"lon":6.5589,"fibre_pct":100.0},{"code_insee":"25437","nom":"Osse","codes_postaux":["25360"],"code_dep":"25","code_region":"27","population":372,"surface_km2":8.31,"lat":47.2718,"lon":6.2115,"fibre_pct":100.0},{"code_insee":"25438","nom":"Osselle-Routelle","codes_postaux":["25320","25410"],"code_dep":"25","code_region":"27","population":961,"surface_km2":10.78,"lat":47.1565,"lon":5.8622,"fibre_pct":100.0},{"code_insee":"25439","nom":"Ougney-Douvot","codes_postaux":["25640"],"code_dep":"25","code_region":"27","population":252,"surface_km2":6.62,"lat":47.3184,"lon":6.2707,"fibre_pct":100.0},{"code_insee":"25440","nom":"Ouhans","codes_postaux":["25520"],"code_dep":"25","code_region":"27","population":398,"surface_km2":15.87,"lat":47.0027,"lon":6.3134,"fibre_pct":100.0},{"code_insee":"25441","nom":"Ouvans","codes_postaux":["25530"],"code_dep":"25","code_region":"27","population":68,"surface_km2":5.14,"lat":47.2768,"lon":6.488,"fibre_pct":92.7},{"code_insee":"25442","nom":"Oye-et-Pallet","codes_postaux":["25160"],"code_dep":"25","code_region":"27","population":709,"surface_km2":10.52,"lat":46.8533,"lon":6.3367,"fibre_pct":95.6},{"code_insee":"25443","nom":"Palantine","codes_postaux":["25440"],"code_dep":"25","code_region":"27","population":61,"surface_km2":4.36,"lat":47.1004,"lon":5.9424,"fibre_pct":100.0},{"code_insee":"25444","nom":"Palise","codes_postaux":["25870"],"code_dep":"25","code_region":"27","population":150,"surface_km2":2.08,"lat":47.3658,"lon":6.0925,"fibre_pct":98.7},{"code_insee":"25445","nom":"Paroy","codes_postaux":["25440"],"code_dep":"25","code_region":"27","population":116,"surface_km2":4.4,"lat":47.0341,"lon":5.8854,"fibre_pct":100.0},{"code_insee":"25446","nom":"Passavant","codes_postaux":["25360"],"code_dep":"25","code_region":"27","population":191,"surface_km2":14.96,"lat":47.2793,"lon":6.3955,"fibre_pct":100.0},{"code_insee":"25447","nom":"Passonfontaine","codes_postaux":["25690"],"code_dep":"25","code_region":"27","population":331,"surface_km2":19.59,"lat":47.0989,"lon":6.4253,"fibre_pct":98.0},{"code_insee":"25448","nom":"Pelousey","codes_postaux":["25170"],"code_dep":"25","code_region":"27","population":1617,"surface_km2":6.2,"lat":47.2798,"lon":5.9251,"fibre_pct":95.4},{"code_insee":"25449","nom":"Péseux","codes_postaux":["25190"],"code_dep":"25","code_region":"27","population":133,"surface_km2":6.65,"lat":47.3173,"lon":6.6872,"fibre_pct":100.0},{"code_insee":"25450","nom":"Pessans","codes_postaux":["25440"],"code_dep":"25","code_region":"27","population":89,"surface_km2":4.35,"lat":47.0716,"lon":5.8907,"fibre_pct":100.0},{"code_insee":"25451","nom":"Petite-Chaux","codes_postaux":["25240"],"code_dep":"25","code_region":"27","population":177,"surface_km2":9.76,"lat":46.6754,"lon":6.1617,"fibre_pct":100.0},{"code_insee":"25452","nom":"Pierrefontaine-lès-Blamont","codes_postaux":["25310"],"code_dep":"25","code_region":"27","population":484,"surface_km2":8.68,"lat":47.3716,"lon":6.8225,"fibre_pct":100.0},{"code_insee":"25453","nom":"Pierrefontaine-les-Varans","codes_postaux":["25510"],"code_dep":"25","code_region":"27","population":1356,"surface_km2":29.13,"lat":47.2153,"lon":6.554,"fibre_pct":97.9},{"code_insee":"25454","nom":"Pirey","codes_postaux":["25480"],"code_dep":"25","code_region":"27","population":2156,"surface_km2":6.75,"lat":47.2597,"lon":5.9696,"fibre_pct":99.0},{"code_insee":"25455","nom":"Placey","codes_postaux":["25170"],"code_dep":"25","code_region":"27","population":197,"surface_km2":2.57,"lat":47.258,"lon":5.8481,"fibre_pct":100.0},{"code_insee":"25456","nom":"Plaimbois-du-Miroir","codes_postaux":["25210"],"code_dep":"25","code_region":"27","population":276,"surface_km2":11.83,"lat":47.192,"lon":6.6453,"fibre_pct":100.0},{"code_insee":"25457","nom":"Plaimbois-Vennes","codes_postaux":["25390"],"code_dep":"25","code_region":"27","population":113,"surface_km2":10.87,"lat":47.1831,"lon":6.5613,"fibre_pct":100.0},{"code_insee":"25458","nom":"Les Plains-et-Grands-Essarts","codes_postaux":["25470"],"code_dep":"25","code_region":"27","population":207,"surface_km2":10.46,"lat":47.3025,"lon":6.8954,"fibre_pct":100.0},{"code_insee":"25459","nom":"La Planée","codes_postaux":["25160"],"code_dep":"25","code_region":"27","population":332,"surface_km2":13.02,"lat":46.8402,"lon":6.2746,"fibre_pct":100.0},{"code_insee":"25460","nom":"Le Val","codes_postaux":["25440"],"code_dep":"25","code_region":"27","population":251,"surface_km2":6.59,"lat":47.0636,"lon":5.9006,"fibre_pct":100.0},{"code_insee":"25461","nom":"Pompierre-sur-Doubs","codes_postaux":["25340"],"code_dep":"25","code_region":"27","population":300,"surface_km2":8.17,"lat":47.4265,"lon":6.5275,"fibre_pct":100.0},{"code_insee":"25462","nom":"Pontarlier","codes_postaux":["25300"],"code_dep":"25","code_region":"27","population":18067,"surface_km2":41.35,"lat":46.9167,"lon":6.3796,"fibre_pct":95.8},{"code_insee":"25463","nom":"Pont-de-Roide-Vermondans","codes_postaux":["25150"],"code_dep":"25","code_region":"27","population":3912,"surface_km2":13.51,"lat":47.3872,"lon":6.7657,"fibre_pct":93.4},{"code_insee":"25464","nom":"Les Pontets","codes_postaux":["25240"],"code_dep":"25","code_region":"27","population":141,"surface_km2":6.39,"lat":46.7209,"lon":6.1639,"fibre_pct":100.0},{"code_insee":"25465","nom":"Pont-les-Moulins","codes_postaux":["25110"],"code_dep":"25","code_region":"27","population":208,"surface_km2":4.96,"lat":47.3268,"lon":6.3633,"fibre_pct":100.0},{"code_insee":"25466","nom":"Pouilley-Français","codes_postaux":["25410"],"code_dep":"25","code_region":"27","population":816,"surface_km2":6.11,"lat":47.2015,"lon":5.8429,"fibre_pct":100.0},{"code_insee":"25467","nom":"Pouilley-les-Vignes","codes_postaux":["25115"],"code_dep":"25","code_region":"27","population":2195,"surface_km2":9.37,"lat":47.2614,"lon":5.9292,"fibre_pct":94.2},{"code_insee":"25468","nom":"Pouligney-Lusans","codes_postaux":["25640"],"code_dep":"25","code_region":"27","population":850,"surface_km2":11.67,"lat":47.3389,"lon":6.1998,"fibre_pct":100.0},{"code_insee":"25469","nom":"Présentevillers","codes_postaux":["25550"],"code_dep":"25","code_region":"27","population":461,"surface_km2":3.85,"lat":47.5026,"lon":6.7303,"fibre_pct":100.0},{"code_insee":"25470","nom":"La Prétière","codes_postaux":["25250"],"code_dep":"25","code_region":"27","population":159,"surface_km2":2.74,"lat":47.4494,"lon":6.6108,"fibre_pct":100.0},{"code_insee":"25471","nom":"Provenchère","codes_postaux":["25380"],"code_dep":"25","code_region":"27","population":142,"surface_km2":6.99,"lat":47.2897,"lon":6.6464,"fibre_pct":100.0},{"code_insee":"25472","nom":"Puessans","codes_postaux":["25680"],"code_dep":"25","code_region":"27","population":32,"surface_km2":3.55,"lat":47.4336,"lon":6.3214,"fibre_pct":100.0},{"code_insee":"25473","nom":"Pugey","codes_postaux":["25720"],"code_dep":"25","code_region":"27","population":676,"surface_km2":7.44,"lat":47.1741,"lon":5.9952,"fibre_pct":91.1},{"code_insee":"25474","nom":"Le Puy","codes_postaux":["25640"],"code_dep":"25","code_region":"27","population":104,"surface_km2":3.54,"lat":47.3455,"lon":6.2327,"fibre_pct":100.0},{"code_insee":"25475","nom":"Quingey","codes_postaux":["25440"],"code_dep":"25","code_region":"27","population":1299,"surface_km2":8.66,"lat":47.1115,"lon":5.8819,"fibre_pct":98.1},{"code_insee":"25476","nom":"Rahon","codes_postaux":["25430"],"code_dep":"25","code_region":"27","population":140,"surface_km2":5.71,"lat":47.3266,"lon":6.5838,"fibre_pct":100.0},{"code_insee":"25477","nom":"Rancenay","codes_postaux":["25320"],"code_dep":"25","code_region":"27","population":436,"surface_km2":3.65,"lat":47.1843,"lon":5.945,"fibre_pct":99.5},{"code_insee":"25478","nom":"Randevillers","codes_postaux":["25430"],"code_dep":"25","code_region":"27","population":106,"surface_km2":4.35,"lat":47.3048,"lon":6.5276,"fibre_pct":100.0},{"code_insee":"25479","nom":"Rang","codes_postaux":["25250"],"code_dep":"25","code_region":"27","population":389,"surface_km2":10.43,"lat":47.4192,"lon":6.557,"fibre_pct":96.9},{"code_insee":"25481","nom":"Raynans","codes_postaux":["25550"],"code_dep":"25","code_region":"27","population":338,"surface_km2":4.04,"lat":47.534,"lon":6.7241,"fibre_pct":100.0},{"code_insee":"25482","nom":"Recologne","codes_postaux":["25170"],"code_dep":"25","code_region":"27","population":730,"surface_km2":6.8,"lat":47.2754,"lon":5.8343,"fibre_pct":96.9},{"code_insee":"25483","nom":"Reculfoz","codes_postaux":["25240"],"code_dep":"25","code_region":"27","population":45,"surface_km2":2.52,"lat":46.7123,"lon":6.1471,"fibre_pct":100.0},{"code_insee":"25485","nom":"Rémondans-Vaivre","codes_postaux":["25150"],"code_dep":"25","code_region":"27","population":205,"surface_km2":9.11,"lat":47.381,"lon":6.7115,"fibre_pct":100.0},{"code_insee":"25486","nom":"Remoray-Boujeons","codes_postaux":["25160"],"code_dep":"25","code_region":"27","population":466,"surface_km2":15.21,"lat":46.7581,"lon":6.22,"fibre_pct":100.0},{"code_insee":"25487","nom":"Renédale","codes_postaux":["25520"],"code_dep":"25","code_region":"27","population":41,"surface_km2":2.81,"lat":47.0174,"lon":6.2756,"fibre_pct":99.5},{"code_insee":"25488","nom":"Rennes-sur-Loue","codes_postaux":["25440"],"code_dep":"25","code_region":"27","population":108,"surface_km2":5.5,"lat":47.0168,"lon":5.8609,"fibre_pct":100.0},{"code_insee":"25489","nom":"Reugney","codes_postaux":["25330"],"code_dep":"25","code_region":"27","population":268,"surface_km2":8.27,"lat":47.0093,"lon":6.1555,"fibre_pct":100.0},{"code_insee":"25490","nom":"Rigney","codes_postaux":["25640"],"code_dep":"25","code_region":"27","population":367,"surface_km2":9.48,"lat":47.3844,"lon":6.1848,"fibre_pct":100.0},{"code_insee":"25491","nom":"Rignosot","codes_postaux":["25640"],"code_dep":"25","code_region":"27","population":106,"surface_km2":3.88,"lat":47.3821,"lon":6.1988,"fibre_pct":100.0},{"code_insee":"25492","nom":"Rillans","codes_postaux":["25110"],"code_dep":"25","code_region":"27","population":97,"surface_km2":3.47,"lat":47.4138,"lon":6.3649,"fibre_pct":100.0},{"code_insee":"25493","nom":"La Rivière-Drugeon","codes_postaux":["25560"],"code_dep":"25","code_region":"27","population":933,"surface_km2":19.11,"lat":46.8761,"lon":6.2089,"fibre_pct":96.2},{"code_insee":"25494","nom":"Rochejean","codes_postaux":["25370"],"code_dep":"25","code_region":"27","population":754,"surface_km2":24.32,"lat":46.7299,"lon":6.3086,"fibre_pct":98.2},{"code_insee":"25495","nom":"Roche-lez-Beaupré","codes_postaux":["25220"],"code_dep":"25","code_region":"27","population":2158,"surface_km2":5.64,"lat":47.2819,"lon":6.1064,"fibre_pct":97.7},{"code_insee":"25496","nom":"Roche-lès-Clerval","codes_postaux":["25340"],"code_dep":"25","code_region":"27","population":98,"surface_km2":5.33,"lat":47.3633,"lon":6.4733,"fibre_pct":100.0},{"code_insee":"25497","nom":"Roches-lès-Blamont","codes_postaux":["25310"],"code_dep":"25","code_region":"27","population":612,"surface_km2":5.48,"lat":47.4108,"lon":6.8538,"fibre_pct":100.0},{"code_insee":"25498","nom":"Rognon","codes_postaux":["25680"],"code_dep":"25","code_region":"27","population":44,"surface_km2":4.04,"lat":47.4182,"lon":6.31,"fibre_pct":100.0},{"code_insee":"25499","nom":"Romain","codes_postaux":["25680"],"code_dep":"25","code_region":"27","population":116,"surface_km2":4.94,"lat":47.4445,"lon":6.3785,"fibre_pct":100.0},{"code_insee":"25500","nom":"Ronchaux","codes_postaux":["25440"],"code_dep":"25","code_region":"27","population":103,"surface_km2":5.19,"lat":47.043,"lon":5.8989,"fibre_pct":100.0},{"code_insee":"25501","nom":"Rondefontaine","codes_postaux":["25240"],"code_dep":"25","code_region":"27","population":38,"surface_km2":2.78,"lat":46.7332,"lon":6.1816,"fibre_pct":100.0},{"code_insee":"25502","nom":"Roset-Fluans","codes_postaux":["25410"],"code_dep":"25","code_region":"27","population":599,"surface_km2":8.31,"lat":47.1505,"lon":5.832,"fibre_pct":99.1},{"code_insee":"25503","nom":"Rosières-sur-Barbèche","codes_postaux":["25190"],"code_dep":"25","code_region":"27","population":108,"surface_km2":5.34,"lat":47.3152,"lon":6.6583,"fibre_pct":100.0},{"code_insee":"25504","nom":"Rosureux","codes_postaux":["25380"],"code_dep":"25","code_region":"27","population":79,"surface_km2":6.18,"lat":47.2136,"lon":6.6747,"fibre_pct":100.0},{"code_insee":"25505","nom":"Rougemont","codes_postaux":["25680"],"code_dep":"25","code_region":"27","population":1051,"surface_km2":18.25,"lat":47.4766,"lon":6.35,"fibre_pct":97.0},{"code_insee":"25506","nom":"Rougemontot","codes_postaux":["25640"],"code_dep":"25","code_region":"27","population":87,"surface_km2":4.2,"lat":47.3877,"lon":6.2631,"fibre_pct":100.0},{"code_insee":"25507","nom":"Rouhe","codes_postaux":["25440"],"code_dep":"25","code_region":"27","population":87,"surface_km2":4.17,"lat":47.0857,"lon":5.9663,"fibre_pct":100.0},{"code_insee":"25508","nom":"Roulans","codes_postaux":["25640"],"code_dep":"25","code_region":"27","population":1125,"surface_km2":8.31,"lat":47.3187,"lon":6.2361,"fibre_pct":99.4},{"code_insee":"25510","nom":"Ruffey-le-Château","codes_postaux":["25170"],"code_dep":"25","code_region":"27","population":366,"surface_km2":7.28,"lat":47.2818,"lon":5.8058,"fibre_pct":100.0},{"code_insee":"25511","nom":"Rurey","codes_postaux":["25290"],"code_dep":"25","code_region":"27","population":354,"surface_km2":14.87,"lat":47.0972,"lon":5.9962,"fibre_pct":98.1},{"code_insee":"25512","nom":"Le Russey","codes_postaux":["25210"],"code_dep":"25","code_region":"27","population":2599,"surface_km2":24.33,"lat":47.1526,"lon":6.7396,"fibre_pct":98.6},{"code_insee":"25513","nom":"Sainte-Anne","codes_postaux":["25270"],"code_dep":"25","code_region":"27","population":50,"surface_km2":6.85,"lat":46.9505,"lon":5.981,"fibre_pct":98.8},{"code_insee":"25514","nom":"Saint-Antoine","codes_postaux":["25370"],"code_dep":"25","code_region":"27","population":305,"surface_km2":4.51,"lat":46.783,"lon":6.3335,"fibre_pct":100.0},{"code_insee":"25515","nom":"Sainte-Colombe","codes_postaux":["25300"],"code_dep":"25","code_region":"27","population":488,"surface_km2":10.51,"lat":46.8738,"lon":6.2722,"fibre_pct":98.4},{"code_insee":"25516","nom":"Saint-Georges-Armont","codes_postaux":["25340"],"code_dep":"25","code_region":"27","population":122,"surface_km2":4.73,"lat":47.404,"lon":6.547,"fibre_pct":100.0},{"code_insee":"25517","nom":"Saint-Gorgon-Main","codes_postaux":["25520"],"code_dep":"25","code_region":"27","population":250,"surface_km2":7.96,"lat":47.0181,"lon":6.3383,"fibre_pct":100.0},{"code_insee":"25518","nom":"Saint-Hilaire","codes_postaux":["25640"],"code_dep":"25","code_region":"27","population":157,"surface_km2":2.6,"lat":47.3347,"lon":6.2448,"fibre_pct":100.0},{"code_insee":"25519","nom":"Saint-Hippolyte","codes_postaux":["25190"],"code_dep":"25","code_region":"27","population":981,"surface_km2":11.17,"lat":47.3082,"lon":6.8124,"fibre_pct":92.0},{"code_insee":"25520","nom":"Saint-Juan","codes_postaux":["25360"],"code_dep":"25","code_region":"27","population":191,"surface_km2":12.23,"lat":47.2887,"lon":6.3455,"fibre_pct":100.0},{"code_insee":"25521","nom":"Saint-Julien-lès-Montbéliard","codes_postaux":["25550"],"code_dep":"25","code_region":"27","population":158,"surface_km2":3.8,"lat":47.5203,"lon":6.7043,"fibre_pct":100.0},{"code_insee":"25522","nom":"Saint-Julien-lès-Russey","codes_postaux":["25210"],"code_dep":"25","code_region":"27","population":181,"surface_km2":10.04,"lat":47.2181,"lon":6.7268,"fibre_pct":100.0},{"code_insee":"25523","nom":"Sainte-Marie","codes_postaux":["25113"],"code_dep":"25","code_region":"27","population":648,"surface_km2":7.31,"lat":47.5004,"lon":6.6943,"fibre_pct":100.0},{"code_insee":"25524","nom":"Saint-Maurice-Colombier","codes_postaux":["25260"],"code_dep":"25","code_region":"27","population":875,"surface_km2":13.42,"lat":47.4297,"lon":6.6484,"fibre_pct":100.0},{"code_insee":"25525","nom":"Saint-Point-Lac","codes_postaux":["25160"],"code_dep":"25","code_region":"27","population":306,"surface_km2":4.55,"lat":46.8078,"lon":6.2976,"fibre_pct":95.5},{"code_insee":"25526","nom":"Sainte-Suzanne","codes_postaux":["25630"],"code_dep":"25","code_region":"27","population":1501,"surface_km2":1.58,"lat":47.5088,"lon":6.7693,"fibre_pct":93.9},{"code_insee":"25527","nom":"Saint-Vit","codes_postaux":["25410"],"code_dep":"25","code_region":"27","population":5133,"surface_km2":16.52,"lat":47.1882,"lon":5.8266,"fibre_pct":97.2},{"code_insee":"25528","nom":"Samson","codes_postaux":["25440"],"code_dep":"25","code_region":"27","population":74,"surface_km2":1.96,"lat":47.0535,"lon":5.8802,"fibre_pct":100.0},{"code_insee":"25529","nom":"Sancey","codes_postaux":["25430"],"code_dep":"25","code_region":"27","population":1385,"surface_km2":30.43,"lat":47.2942,"lon":6.5758,"fibre_pct":94.8},{"code_insee":"25532","nom":"Saône","codes_postaux":["25660"],"code_dep":"25","code_region":"27","population":3195,"surface_km2":20.65,"lat":47.2131,"lon":6.1126,"fibre_pct":93.8},{"code_insee":"25534","nom":"Sarrageois","codes_postaux":["25240"],"code_dep":"25","code_region":"27","population":197,"surface_km2":13.33,"lat":46.7048,"lon":6.2308,"fibre_pct":100.0},{"code_insee":"25535","nom":"Saules","codes_postaux":["25580"],"code_dep":"25","code_region":"27","population":234,"surface_km2":7.67,"lat":47.1238,"lon":6.2032,"fibre_pct":100.0},{"code_insee":"25536","nom":"Sauvagney","codes_postaux":["25170"],"code_dep":"25","code_region":"27","population":196,"surface_km2":3.95,"lat":47.3223,"lon":5.9117,"fibre_pct":100.0},{"code_insee":"25537","nom":"Scey-Maisières","codes_postaux":["25290"],"code_dep":"25","code_region":"27","population":286,"surface_km2":12.62,"lat":47.1104,"lon":6.084,"fibre_pct":100.0},{"code_insee":"25538","nom":"Séchin","codes_postaux":["25110"],"code_dep":"25","code_region":"27","population":114,"surface_km2":1.09,"lat":47.3413,"lon":6.2854,"fibre_pct":100.0},{"code_insee":"25539","nom":"Seloncourt","codes_postaux":["25230"],"code_dep":"25","code_region":"27","population":5854,"surface_km2":8.0,"lat":47.4558,"lon":6.865,"fibre_pct":91.8},{"code_insee":"25540","nom":"Semondans","codes_postaux":["25750"],"code_dep":"25","code_region":"27","population":301,"surface_km2":2.74,"lat":47.5416,"lon":6.6925,"fibre_pct":97.5},{"code_insee":"25541","nom":"Septfontaines","codes_postaux":["25270"],"code_dep":"25","code_region":"27","population":371,"surface_km2":18.5,"lat":46.9772,"lon":6.1789,"fibre_pct":96.0},{"code_insee":"25542","nom":"Serre-les-Sapins","codes_postaux":["25770"],"code_dep":"25","code_region":"27","population":2004,"surface_km2":5.26,"lat":47.2383,"lon":5.9316,"fibre_pct":98.1},{"code_insee":"25544","nom":"Servin","codes_postaux":["25430"],"code_dep":"25","code_region":"27","population":195,"surface_km2":10.18,"lat":47.3042,"lon":6.4737,"fibre_pct":97.0},{"code_insee":"25545","nom":"Silley-Amancey","codes_postaux":["25330"],"code_dep":"25","code_region":"27","population":129,"surface_km2":5.22,"lat":47.0372,"lon":6.1391,"fibre_pct":100.0},{"code_insee":"25546","nom":"Silley-Bléfond","codes_postaux":["25110"],"code_dep":"25","code_region":"27","population":54,"surface_km2":4.33,"lat":47.3203,"lon":6.3314,"fibre_pct":100.0},{"code_insee":"25547","nom":"Sochaux","codes_postaux":["25600"],"code_dep":"25","code_region":"27","population":3721,"surface_km2":2.17,"lat":47.5146,"lon":6.8305,"fibre_pct":89.2},{"code_insee":"25548","nom":"Solemont","codes_postaux":["25190"],"code_dep":"25","code_region":"27","population":131,"surface_km2":8.22,"lat":47.3447,"lon":6.7027,"fibre_pct":100.0},{"code_insee":"25550","nom":"La Sommette","codes_postaux":["25510"],"code_dep":"25","code_region":"27","population":238,"surface_km2":7.41,"lat":47.1949,"lon":6.5121,"fibre_pct":100.0},{"code_insee":"25551","nom":"Soulce-Cernay","codes_postaux":["25190"],"code_dep":"25","code_region":"27","population":136,"surface_km2":8.64,"lat":47.3278,"lon":6.8663,"fibre_pct":100.0},{"code_insee":"25552","nom":"Sourans","codes_postaux":["25250"],"code_dep":"25","code_region":"27","population":113,"surface_km2":4.2,"lat":47.4107,"lon":6.6399,"fibre_pct":100.0},{"code_insee":"25553","nom":"Soye","codes_postaux":["25250"],"code_dep":"25","code_region":"27","population":360,"surface_km2":14.04,"lat":47.4517,"lon":6.5028,"fibre_pct":100.0},{"code_insee":"25554","nom":"Surmont","codes_postaux":["25380"],"code_dep":"25","code_region":"27","population":127,"surface_km2":7.39,"lat":47.2775,"lon":6.6074,"fibre_pct":100.0},{"code_insee":"25555","nom":"Taillecourt","codes_postaux":["25400"],"code_dep":"25","code_region":"27","population":1144,"surface_km2":1.87,"lat":47.494,"lon":6.8527,"fibre_pct":97.1},{"code_insee":"25556","nom":"Tallans","codes_postaux":["25680"],"code_dep":"25","code_region":"27","population":47,"surface_km2":4.07,"lat":47.4095,"lon":6.2867,"fibre_pct":100.0},{"code_insee":"25557","nom":"Tallenay","codes_postaux":["25870"],"code_dep":"25","code_region":"27","population":436,"surface_km2":2.37,"lat":47.305,"lon":6.0186,"fibre_pct":100.0},{"code_insee":"25558","nom":"Tarcenay-Foucherans","codes_postaux":["25620"],"code_dep":"25","code_region":"27","population":1498,"surface_km2":24.12,"lat":47.1636,"lon":6.1335,"fibre_pct":96.6},{"code_insee":"25559","nom":"Thiébouhans","codes_postaux":["25470"],"code_dep":"25","code_region":"27","population":229,"surface_km2":5.81,"lat":47.2683,"lon":6.8375,"fibre_pct":100.0},{"code_insee":"25560","nom":"Thise","codes_postaux":["25220"],"code_dep":"25","code_region":"27","population":2994,"surface_km2":8.93,"lat":47.2875,"lon":6.0804,"fibre_pct":95.3},{"code_insee":"25561","nom":"Thoraise","codes_postaux":["25320"],"code_dep":"25","code_region":"27","population":336,"surface_km2":3.97,"lat":47.1711,"lon":5.9133,"fibre_pct":100.0},{"code_insee":"25562","nom":"Thulay","codes_postaux":["25310"],"code_dep":"25","code_region":"27","population":203,"surface_km2":2.25,"lat":47.4291,"lon":6.8585,"fibre_pct":100.0},{"code_insee":"25563","nom":"Thurey-le-Mont","codes_postaux":["25870"],"code_dep":"25","code_region":"27","population":114,"surface_km2":4.89,"lat":47.3753,"lon":6.1334,"fibre_pct":86.5},{"code_insee":"25564","nom":"Torpes","codes_postaux":["25320"],"code_dep":"25","code_region":"27","population":995,"surface_km2":5.62,"lat":47.171,"lon":5.8806,"fibre_pct":99.1},{"code_insee":"25565","nom":"Touillon-et-Loutelet","codes_postaux":["25370"],"code_dep":"25","code_region":"27","population":262,"surface_km2":4.75,"lat":46.798,"lon":6.3493,"fibre_pct":100.0},{"code_insee":"25566","nom":"La Tour-de-Sçay","codes_postaux":["25640"],"code_dep":"25","code_region":"27","population":315,"surface_km2":8.89,"lat":47.383,"lon":6.2239,"fibre_pct":100.0},{"code_insee":"25567","nom":"Tournans","codes_postaux":["25680"],"code_dep":"25","code_region":"27","population":112,"surface_km2":9.14,"lat":47.4015,"lon":6.3116,"fibre_pct":100.0},{"code_insee":"25569","nom":"Trépot","codes_postaux":["25620"],"code_dep":"25","code_region":"27","population":565,"surface_km2":14.74,"lat":47.1688,"lon":6.1688,"fibre_pct":100.0},{"code_insee":"25570","nom":"Tressandans","codes_postaux":["25680"],"code_dep":"25","code_region":"27","population":28,"surface_km2":2.37,"lat":47.4968,"lon":6.3365,"fibre_pct":95.8},{"code_insee":"25571","nom":"Trévillers","codes_postaux":["25470"],"code_dep":"25","code_region":"27","population":533,"surface_km2":10.8,"lat":47.2835,"lon":6.8792,"fibre_pct":98.4},{"code_insee":"25572","nom":"Trouvans","codes_postaux":["25680"],"code_dep":"25","code_region":"27","population":100,"surface_km2":2.76,"lat":47.4197,"lon":6.3479,"fibre_pct":100.0},{"code_insee":"25573","nom":"Urtière","codes_postaux":["25470"],"code_dep":"25","code_region":"27","population":15,"surface_km2":2.16,"lat":47.2588,"lon":6.9225,"fibre_pct":100.0},{"code_insee":"25574","nom":"Uzelle","codes_postaux":["25340"],"code_dep":"25","code_region":"27","population":194,"surface_km2":11.78,"lat":47.4647,"lon":6.447,"fibre_pct":100.0},{"code_insee":"25575","nom":"Vaire","codes_postaux":["25220"],"code_dep":"25","code_region":"27","population":812,"surface_km2":14.09,"lat":47.2766,"lon":6.1556,"fibre_pct":95.0},{"code_insee":"25578","nom":"Valdahon","codes_postaux":["25800"],"code_dep":"25","code_region":"27","population":5705,"surface_km2":25.38,"lat":47.1643,"lon":6.3332,"fibre_pct":90.5},{"code_insee":"25579","nom":"Val-de-Roulans","codes_postaux":["25640"],"code_dep":"25","code_region":"27","population":190,"surface_km2":2.96,"lat":47.3606,"lon":6.2692,"fibre_pct":100.0},{"code_insee":"25580","nom":"Valentigney","codes_postaux":["25700"],"code_dep":"25","code_region":"27","population":10501,"surface_km2":9.75,"lat":47.464,"lon":6.8243,"fibre_pct":92.7},{"code_insee":"25582","nom":"Valleroy","codes_postaux":["25870"],"code_dep":"25","code_region":"27","population":148,"surface_km2":3.04,"lat":47.3871,"lon":6.1278,"fibre_pct":100.0},{"code_insee":"25583","nom":"Valonne","codes_postaux":["25190"],"code_dep":"25","code_region":"27","population":269,"surface_km2":8.38,"lat":47.3417,"lon":6.6695,"fibre_pct":100.0},{"code_insee":"25584","nom":"Valoreille","codes_postaux":["25190"],"code_dep":"25","code_region":"27","population":128,"surface_km2":7.64,"lat":47.2945,"lon":6.7379,"fibre_pct":100.0},{"code_insee":"25586","nom":"Vandoncourt","codes_postaux":["25230"],"code_dep":"25","code_region":"27","population":788,"surface_km2":8.63,"lat":47.4597,"lon":6.9076,"fibre_pct":97.4},{"code_insee":"25588","nom":"Vaucluse","codes_postaux":["25380"],"code_dep":"25","code_region":"27","population":115,"surface_km2":5.07,"lat":47.2478,"lon":6.6905,"fibre_pct":100.0},{"code_insee":"25589","nom":"Vauclusotte","codes_postaux":["25380"],"code_dep":"25","code_region":"27","population":74,"surface_km2":7.67,"lat":47.2769,"lon":6.7297,"fibre_pct":81.3},{"code_insee":"25590","nom":"Vaudrivillers","codes_postaux":["25360"],"code_dep":"25","code_region":"27","population":77,"surface_km2":3.74,"lat":47.2866,"lon":6.4287,"fibre_pct":100.0},{"code_insee":"25591","nom":"Vaufrey","codes_postaux":["25190"],"code_dep":"25","code_region":"27","population":147,"surface_km2":9.37,"lat":47.3412,"lon":6.9339,"fibre_pct":100.0},{"code_insee":"25592","nom":"Vaux-et-Chantegrue","codes_postaux":["25160"],"code_dep":"25","code_region":"27","population":689,"surface_km2":13.97,"lat":46.7971,"lon":6.2343,"fibre_pct":99.8},{"code_insee":"25594","nom":"Velesmes-Essarts","codes_postaux":["25410"],"code_dep":"25","code_region":"27","population":369,"surface_km2":2.9,"lat":47.19,"lon":5.868,"fibre_pct":100.0},{"code_insee":"25595","nom":"Vellerot-lès-Belvoir","codes_postaux":["25430"],"code_dep":"25","code_region":"27","population":95,"surface_km2":6.06,"lat":47.3474,"lon":6.5887,"fibre_pct":100.0},{"code_insee":"25596","nom":"Vellerot-lès-Vercel","codes_postaux":["25530"],"code_dep":"25","code_region":"27","population":65,"surface_km2":4.59,"lat":47.2466,"lon":6.4515,"fibre_pct":100.0},{"code_insee":"25597","nom":"Vellevans","codes_postaux":["25430"],"code_dep":"25","code_region":"27","population":253,"surface_km2":13.71,"lat":47.3089,"lon":6.5054,"fibre_pct":100.0},{"code_insee":"25598","nom":"Venise","codes_postaux":["25870"],"code_dep":"25","code_region":"27","population":518,"surface_km2":6.12,"lat":47.3485,"lon":6.1164,"fibre_pct":100.0},{"code_insee":"25599","nom":"Vennans","codes_postaux":["25640"],"code_dep":"25","code_region":"27","population":248,"surface_km2":1.38,"lat":47.3311,"lon":6.2357,"fibre_pct":100.0},{"code_insee":"25600","nom":"Vennes","codes_postaux":["25390"],"code_dep":"25","code_region":"27","population":238,"surface_km2":7.28,"lat":47.1626,"lon":6.5404,"fibre_pct":96.5},{"code_insee":"25601","nom":"Vercel-Villedieu-le-Camp","codes_postaux":["25530"],"code_dep":"25","code_region":"27","population":1762,"surface_km2":30.41,"lat":47.1852,"lon":6.3777,"fibre_pct":99.4},{"code_insee":"25602","nom":"Vergranne","codes_postaux":["25110"],"code_dep":"25","code_region":"27","population":116,"surface_km2":5.27,"lat":47.4081,"lon":6.3935,"fibre_pct":100.0},{"code_insee":"25604","nom":"Verne","codes_postaux":["25110"],"code_dep":"25","code_region":"27","population":125,"surface_km2":7.72,"lat":47.3984,"lon":6.3449,"fibre_pct":100.0},{"code_insee":"25605","nom":"Vernierfontaine","codes_postaux":["25580"],"code_dep":"25","code_region":"27","population":486,"surface_km2":13.57,"lat":47.1119,"lon":6.2943,"fibre_pct":100.0},{"code_insee":"25607","nom":"Vernois-lès-Belvoir","codes_postaux":["25430"],"code_dep":"25","code_region":"27","population":50,"surface_km2":4.69,"lat":47.3188,"lon":6.6427,"fibre_pct":100.0},{"code_insee":"25608","nom":"Le Vernoy","codes_postaux":["25750"],"code_dep":"25","code_region":"27","population":179,"surface_km2":3.32,"lat":47.5676,"lon":6.6706,"fibre_pct":100.0},{"code_insee":"25609","nom":"Verrières-de-Joux","codes_postaux":["25300"],"code_dep":"25","code_region":"27","population":464,"surface_km2":10.13,"lat":46.8865,"lon":6.4442,"fibre_pct":94.9},{"code_insee":"25611","nom":"La Vèze","codes_postaux":["25660"],"code_dep":"25","code_region":"27","population":493,"surface_km2":5.31,"lat":47.1982,"lon":6.073,"fibre_pct":100.0},