[{"code_insee":"2B002","nom":"Aghione","codes_postaux":["20270"],"code_dep":"2B","code_region":"94","population":258,"surface_km2":33.87,"lat":42.0934,"lon":9.4064,"fibre_pct":72.7,"vivrescore":60},{"code_insee":"2B003","nom":"Aiti","codes_postaux":["20244"],"code_dep":"2B","code_region":"94","population":27,"surface_km2":12.13,"lat":42.4026,"lon":9.2284,"fibre_pct":100.0,"vivrescore":100},{"code_insee":"2B005","nom":"Alando","codes_postaux":["20212"],"code_dep":"2B","code_region":"94","population":30,"surface_km2":3.06,"lat":42.3083,"lon":9.2899,"fibre_pct":92.8,"vivrescore":80},{"code_insee":"2B007","nom":"Albertacce","codes_postaux":["20224"],"code_dep":"2B","code_region":"94","population":196,"surface_km2":96.95,"lat":42.3145,"lon":8.9277,"fibre_pct":98.6,"vivrescore":100},{"code_insee":"2B009","nom":"Aléria","codes_postaux":["20270"],"code_dep":"2B","code_region":"94","population":2267,"surface_km2":63.12,"lat":42.0993,"lon":9.4972,"fibre_pct":96.6,"vivrescore":100},{"code_insee":"2B010","nom":"Algajola","codes_postaux":["20220"],"code_dep":"2B","code_region":"94","population":363,"surface_km2":1.69,"lat":42.6051,"lon":8.8587,"fibre_pct":78.6,"vivrescore":60},{"code_insee":"2B012","nom":"Altiani","codes_postaux":["20251"],"code_dep":"2B","code_region":"94","population":53,"surface_km2":18.48,"lat":42.2198,"lon":9.2766,"fibre_pct":89.0,"vivrescore":80},{"code_insee":"2B013","nom":"Alzi","codes_postaux":["20212"],"code_dep":"2B","code_region":"94","population":27,"surface_km2":2.7,"lat":42.3133,"lon":9.3175,"fibre_pct":100.0,"vivrescore":100},{"code_insee":"2B015","nom":"Ampriani","codes_postaux":["20272"],"code_dep":"2B","code_region":"94","population":23,"surface_km2":2.31,"lat":42.2537,"lon":9.3566,"fibre_pct":100.0,"vivrescore":100},{"code_insee":"2B016","nom":"Antisanti","codes_postaux":["20270"],"code_dep":"2B","code_region":"94","population":591,"surface_km2":48.13,"lat":42.157,"lon":9.3861,"fibre_pct":98.4,"vivrescore":100},{"code_insee":"2B020","nom":"Aregno","codes_postaux":["20220"],"code_dep":"2B","code_region":"94","population":588,"surface_km2":9.3,"lat":42.5943,"lon":8.8765,"fibre_pct":100.0,"vivrescore":100},{"code_insee":"2B023","nom":"Asco","codes_postaux":["20276"],"code_dep":"2B","code_region":"94","population":116,"surface_km2":123.85,"lat":42.4386,"lon":8.9924,"fibre_pct":0.0,"vivrescore":20},{"code_insee":"2B025","nom":"Avapessa","codes_postaux":["20225"],"code_dep":"2B","code_region":"94","population":80,"surface_km2":3.25,"lat":42.5592,"lon":8.8962,"fibre_pct":91.4,"vivrescore":80},{"code_insee":"2B029","nom":"Barbaggio","codes_postaux":["20253"],"code_dep":"2B","code_region":"94","population":362,"surface_km2":10.9,"lat":42.6826,"lon":9.3636,"fibre_pct":94.9,"vivrescore":80},{"code_insee":"2B030","nom":"Barrettali","codes_postaux":["20228"],"code_dep":"2B","code_region":"94","population":174,"surface_km2":18.23,"lat":42.8732,"lon":9.3614,"fibre_pct":100.0,"vivrescore":100},{"code_insee":"2B033","nom":"Bastia","codes_postaux":["20200","20600"],"code_dep":"2B","code_region":"94","population":46867,"surface_km2":19.92,"lat":42.6861,"lon":9.424,"fibre_pct":91.6,"vivrescore":80},{"code_insee":"2B034","nom":"Belgodère","codes_postaux":["20226"],"code_dep":"2B","code_region":"94","population":835,"surface_km2":13.05,"lat":42.6085,"lon":9.0196,"fibre_pct":76.8,"vivrescore":60},{"code_insee":"2B036","nom":"Bigorno","codes_postaux":["20252"],"code_dep":"2B","code_region":"94","population":97,"surface_km2":8.95,"lat":42.5274,"lon":9.3044,"fibre_pct":100.0,"vivrescore":100},{"code_insee":"2B037","nom":"Biguglia","codes_postaux":["20620"],"code_dep":"2B","code_region":"94","population":7642,"surface_km2":26.7,"lat":42.6133,"lon":9.4401,"fibre_pct":98.9,"vivrescore":100},{"code_insee":"2B039","nom":"Bisinchi","codes_postaux":["20235"],"code_dep":"2B","code_region":"94","population":183,"surface_km2":12.69,"lat":42.4816,"lon":9.3137,"fibre_pct":96.4,"vivrescore":100},{"code_insee":"2B042","nom":"Borgo","codes_postaux":["20290"],"code_dep":"2B","code_region":"94","population":10311,"surface_km2":48.17,"lat":42.5809,"lon":9.4546,"fibre_pct":96.7,"vivrescore":100},{"code_insee":"2B043","nom":"Brando","codes_postaux":["20222"],"code_dep":"2B","code_region":"94","population":1584,"surface_km2":22.19,"lat":42.7771,"lon":9.4527,"fibre_pct":99.8,"vivrescore":100},{"code_insee":"2B045","nom":"Bustanico","codes_postaux":["20212"],"code_dep":"2B","code_region":"94","population":65,"surface_km2":11.56,"lat":42.326,"lon":9.3112,"fibre_pct":85.1,"vivrescore":80},{"code_insee":"2B046","nom":"Cagnano","codes_postaux":["20228"],"code_dep":"2B","code_region":"94","population":148,"surface_km2":14.77,"lat":42.8725,"lon":9.4431,"fibre_pct":98.1,"vivrescore":100},{"code_insee":"2B047","nom":"Calacuccia","codes_postaux":["20224"],"code_dep":"2B","code_region":"94","population":272,"surface_km2":18.21,"lat":42.3242,"lon":9.0345,"fibre_pct":99.2,"vivrescore":100},{"code_insee":"2B049","nom":"Calenzana","codes_postaux":["20214","20260"],"code_dep":"2B","code_region":"94","population":2684,"surface_km2":183.89,"lat":42.4736,"lon":8.7864,"fibre_pct":97.5,"vivrescore":100},{"code_insee":"2B050","nom":"Calvi","codes_postaux":["20260"],"code_dep":"2B","code_region":"94","population":5788,"surface_km2":31.5,"lat":42.5498,"lon":8.7611,"fibre_pct":98.8,"vivrescore":100},{"code_insee":"2B051","nom":"Cambia","codes_postaux":["20244"],"code_dep":"2B","code_region":"94","population":61,"surface_km2":8.35,"lat":42.367,"lon":9.303,"fibre_pct":100.0,"vivrescore":100},{"code_insee":"2B052","nom":"Campana","codes_postaux":["20229"],"code_dep":"2B","code_region":"94","population":22,"surface_km2":2.35,"lat":42.3892,"lon":9.3418,"fibre_pct":84.8,"vivrescore":80},{"code_insee":"2B053","nom":"Campi","codes_postaux":["20270"],"code_dep":"2B","code_region":"94","population":19,"surface_km2":4.86,"lat":42.268,"lon":9.424,"fibre_pct":100.0,"vivrescore":100},{"code_insee":"2B054","nom":"Campile","codes_postaux":["20290"],"code_dep":"2B","code_region":"94","population":181,"surface_km2":9.76,"lat":42.4947,"lon":9.3575,"fibre_pct":100.0,"vivrescore":100},{"code_insee":"2B055","nom":"Campitello","codes_postaux":["20252"],"code_dep":"2B","code_region":"94","population":107,"surface_km2":8.18,"lat":42.5272,"lon":9.3279,"fibre_pct":87.2,"vivrescore":80},{"code_insee":"2B057","nom":"Canale-di-Verde","codes_postaux":["20230"],"code_dep":"2B","code_region":"94","population":302,"surface_km2":14.6,"lat":42.2634,"lon":9.4997,"fibre_pct":100.0,"vivrescore":100},{"code_insee":"2B058","nom":"Canari","codes_postaux":["20217"],"code_dep":"2B","code_region":"94","population":305,"surface_km2":16.87,"lat":42.8393,"lon":9.3506,"fibre_pct":94.9,"vivrescore":80},{"code_insee":"2B059","nom":"Canavaggia","codes_postaux":["20235"],"code_dep":"2B","code_region":"94","population":123,"surface_km2":34.99,"lat":42.4987,"lon":9.2341,"fibre_pct":99.0,"vivrescore":100},{"code_insee":"2B063","nom":"Carcheto-Brustico","codes_postaux":["20229"],"code_dep":"2B","code_region":"94","population":57,"surface_km2":5.21,"lat":42.3554,"lon":9.3593,"fibre_pct":93.9,"vivrescore":80},{"code_insee":"2B067","nom":"Carpineto","codes_postaux":["20229"],"code_dep":"2B","code_region":"94","population":38,"surface_km2":2.43,"lat":42.3561,"lon":9.3793,"fibre_pct":92.2,"vivrescore":80},{"code_insee":"2B068","nom":"Carticasi","codes_postaux":["20244"],"code_dep":"2B","code_region":"94","population":25,"surface_km2":13.13,"lat":42.3485,"lon":9.3052,"fibre_pct":100.0,"vivrescore":100},{"code_insee":"2B069","nom":"Casabianca","codes_postaux":["20237"],"code_dep":"2B","code_region":"94","population":123,"surface_km2":3.66,"lat":42.4467,"lon":9.3748,"fibre_pct":93.7,"vivrescore":80},{"code_insee":"2B072","nom":"Casalta","codes_postaux":["20215"],"code_dep":"2B","code_region":"94","population":51,"surface_km2":4.91,"lat":42.4367,"lon":9.4258,"fibre_pct":90.9,"vivrescore":80},{"code_insee":"2B073","nom":"Casamaccioli","codes_postaux":["20224"],"code_dep":"2B","code_region":"94","population":115,"surface_km2":36.27,"lat":42.2832,"lon":8.9828,"fibre_pct":95.6,"vivrescore":100},{"code_insee":"2B074","nom":"Casanova","codes_postaux":["20250"],"code_dep":"2B","code_region":"94","population":384,"surface_km2":9.9,"lat":42.2589,"lon":9.1502,"fibre_pct":97.9,"vivrescore":100},{"code_insee":"2B075","nom":"Casevecchie","codes_postaux":["20270"],"code_dep":"2B","code_region":"94","population":69,"surface_km2":9.02,"lat":42.1368,"lon":9.3678,"fibre_pct":89.7,"vivrescore":80},{"code_insee":"2B077","nom":"Castellare-di-Casinca","codes_postaux":["20213"],"code_dep":"2B","code_region":"94","population":701,"surface_km2":9.11,"lat":42.4718,"lon":9.5003,"fibre_pct":68.4,"vivrescore":60},{"code_insee":"2B078","nom":"Castellare-di-Mercurio","codes_postaux":["20212"],"code_dep":"2B","code_region":"94","population":31,"surface_km2":6.12,"lat":42.3121,"lon":9.2439,"fibre_pct":100.0,"vivrescore":100},{"code_insee":"2B079","nom":"Castello-di-Rostino","codes_postaux":["20235"],"code_dep":"2B","code_region":"94","population":522,"surface_km2":12.48,"lat":42.4732,"lon":9.2967,"fibre_pct":100.0,"vivrescore":100},{"code_insee":"2B080","nom":"Castifao","codes_postaux":["20218"],"code_dep":"2B","code_region":"94","population":168,"surface_km2":42.4,"lat":42.5308,"lon":9.1339,"fibre_pct":97.2,"vivrescore":100},{"code_insee":"2B081","nom":"Castiglione","codes_postaux":["20218"],"code_dep":"2B","code_region":"94","population":40,"surface_km2":23.15,"lat":42.4084,"lon":9.1129,"fibre_pct":100.0,"vivrescore":100},{"code_insee":"2B082","nom":"Castineta","codes_postaux":["20218"],"code_dep":"2B","code_region":"94","population":34,"surface_km2":9.39,"lat":42.4254,"lon":9.2732,"fibre_pct":63.9,"vivrescore":60},{"code_insee":"2B083","nom":"Castirla","codes_postaux":["20236"],"code_dep":"2B","code_region":"94","population":166,"surface_km2":24.49,"lat":42.3666,"lon":9.1246,"fibre_pct":97.6,"vivrescore":100},{"code_insee":"2B084","nom":"Cateri","codes_postaux":["20225"],"code_dep":"2B","code_region":"94","population":247,"surface_km2":3.21,"lat":42.5678,"lon":8.897,"fibre_pct":84.6,"vivrescore":80},{"code_insee":"2B086","nom":"Centuri","codes_postaux":["20238"],"code_dep":"2B","code_region":"94","population":175,"surface_km2":8.57,"lat":42.9715,"lon":9.3685,"fibre_pct":98.0,"vivrescore":100},{"code_insee":"2B087","nom":"Cervione","codes_postaux":["20221"],"code_dep":"2B","code_region":"94","population":2149,"surface_km2":11.48,"lat":42.3193,"lon":9.5114,"fibre_pct":88.3,"vivrescore":80},{"code_insee":"2B088","nom":"Chiatra","codes_postaux":["20230"],"code_dep":"2B","code_region":"94","population":231,"surface_km2":8.27,"lat":42.2854,"lon":9.4867,"fibre_pct":92.9,"vivrescore":80},{"code_insee":"2B093","nom":"Corbara","codes_postaux":["20220","20256"],"code_dep":"2B","code_region":"94","population":962,"surface_km2":10.12,"lat":42.6197,"lon":8.8995,"fibre_pct":99.4,"vivrescore":100},{"code_insee":"2B095","nom":"Corscia","codes_postaux":["20224"],"code_dep":"2B","code_region":"94","population":123,"surface_km2":58.95,"lat":42.3627,"lon":9.0453,"fibre_pct":98.9,"vivrescore":100},{"code_insee":"2B096","nom":"Corte","codes_postaux":["20250"],"code_dep":"2B","code_region":"94","population":7819,"surface_km2":149.1,"lat":42.2737,"lon":9.0691,"fibre_pct":99.3,"vivrescore":100},{"code_insee":"2B097","nom":"Costa","codes_postaux":["20226"],"code_dep":"2B","code_region":"94","population":49,"surface_km2":1.07,"lat":42.5764,"lon":8.9986,"fibre_pct":100.0,"vivrescore":100},{"code_insee":"2B101","nom":"Croce","codes_postaux":["20237"],"code_dep":"2B","code_region":"94","population":78,"surface_km2":6.45,"lat":42.4081,"lon":9.3578,"fibre_pct":91.9,"vivrescore":80},{"code_insee":"2B102","nom":"Crocicchia","codes_postaux":["20290"],"code_dep":"2B","code_region":"94","population":81,"surface_km2":4.26,"lat":42.4737,"lon":9.3528,"fibre_pct":92.0,"vivrescore":80},{"code_insee":"2B105","nom":"Erbajolo","codes_postaux":["20212"],"code_dep":"2B","code_region":"94","population":90,"surface_km2":15.6,"lat":42.252,"lon":9.2642,"fibre_pct":91.6,"vivrescore":80},{"code_insee":"2B106","nom":"Érone","codes_postaux":["20244"],"code_dep":"2B","code_region":"94","population":9,"surface_km2":3.97,"lat":42.3755,"lon":9.2665,"fibre_pct":7.1,"vivrescore":20},{"code_insee":"2B107","nom":"Ersa","codes_postaux":["20275"],"code_dep":"2B","code_region":"94","population":124,"surface_km2":20.28,"lat":42.9913,"lon":9.3791,"fibre_pct":96.1,"vivrescore":100},{"code_insee":"2B109","nom":"Farinole","codes_postaux":["20253"],"code_dep":"2B","code_region":"94","population":236,"surface_km2":14.79,"lat":42.7306,"lon":9.3631,"fibre_pct":97.2,"vivrescore":100},{"code_insee":"2B110","nom":"Favalello","codes_postaux":["20212"],"code_dep":"2B","code_region":"94","population":71,"surface_km2":5.54,"lat":42.2886,"lon":9.2519,"fibre_pct":92.2,"vivrescore":80},{"code_insee":"2B111","nom":"Felce","codes_postaux":["20234"],"code_dep":"2B","code_region":"94","population":54,"surface_km2":4.71,"lat":42.3467,"lon":9.4278,"fibre_pct":100.0,"vivrescore":100},{"code_insee":"2B112","nom":"Feliceto","codes_postaux":["20225"],"code_dep":"2B","code_region":"94","population":232,"surface_km2":15.28,"lat":42.5515,"lon":8.9415,"fibre_pct":90.1,"vivrescore":80},{"code_insee":"2B113","nom":"Ficaja","codes_postaux":["20237"],"code_dep":"2B","code_region":"94","population":54,"surface_km2":5.08,"lat":42.4205,"lon":9.3777,"fibre_pct":95.2,"vivrescore":100},{"code_insee":"2B116","nom":"Focicchia","codes_postaux":["20212"],"code_dep":"2B","code_region":"94","population":36,"surface_km2":7.23,"lat":42.2472,"lon":9.2856,"fibre_pct":78.7,"vivrescore":60},{"code_insee":"2B120","nom":"Furiani","codes_postaux":["20600"],"code_dep":"2B","code_region":"94","population":6585,"surface_km2":19.0,"lat":42.6548,"lon":9.4213,"fibre_pct":93.1,"vivrescore":80},{"code_insee":"2B121","nom":"Galéria","codes_postaux":["20245"],"code_dep":"2B","code_region":"94","population":395,"surface_km2":136.1,"lat":42.4048,"lon":8.706,"fibre_pct":85.8,"vivrescore":80},{"code_insee":"2B122","nom":"Gavignano","codes_postaux":["20218"],"code_dep":"2B","code_region":"94","population":61,"surface_km2":10.79,"lat":42.4228,"lon":9.2642,"fibre_pct":89.1,"vivrescore":80},{"code_insee":"2B123","nom":"Ghisonaccia","codes_postaux":["20240"],"code_dep":"2B","code_region":"94","population":4405,"surface_km2":76.06,"lat":42.0454,"lon":9.4192,"fibre_pct":76.6,"vivrescore":60},{"code_insee":"2B124","nom":"Ghisoni","codes_postaux":["20227"],"code_dep":"2B","code_region":"94","population":182,"surface_km2":125.59,"lat":42.094,"lon":9.2365,"fibre_pct":82.1,"vivrescore":80},{"code_insee":"2B125","nom":"Giocatojo","codes_postaux":["20237"],"code_dep":"2B","code_region":"94","population":46,"surface_km2":2.45,"lat":42.4442,"lon":9.3439,"fibre_pct":100.0,"vivrescore":100},{"code_insee":"2B126","nom":"Giuncaggio","codes_postaux":["20251"],"code_dep":"2B","code_region":"94","population":91,"surface_km2":16.05,"lat":42.1829,"lon":9.398,"fibre_pct":99.0,"vivrescore":100},{"code_insee":"2B134","nom":"L'Île-Rousse","codes_postaux":["20220"],"code_dep":"2B","code_region":"94","population":3231,"surface_km2":2.59,"lat":42.6344,"lon":8.9364,"fibre_pct":96.7,"vivrescore":100},{"code_insee":"2B135","nom":"Isolaccio-di-Fiumorbo","codes_postaux":["20243"],"code_dep":"2B","code_region":"94","population":330,"surface_km2":41.32,"lat":42.0169,"lon":9.2694,"fibre_pct":97.7,"vivrescore":100},{"code_insee":"2B136","nom":"Lama","codes_postaux":["20218"],"code_dep":"2B","code_region":"94","population":155,"surface_km2":19.97,"lat":42.5831,"lon":9.169,"fibre_pct":93.4,"vivrescore":80},{"code_insee":"2B137","nom":"Lano","codes_postaux":["20244"],"code_dep":"2B","code_region":"94","population":21,"surface_km2":8.25,"lat":42.3753,"lon":9.2298,"fibre_pct":91.3,"vivrescore":80},{"code_insee":"2B138","nom":"Lavatoggio","codes_postaux":["20225"],"code_dep":"2B","code_region":"94","population":154,"surface_km2":6.84,"lat":42.5754,"lon":8.8624,"fibre_pct":97.5,"vivrescore":100},{"code_insee":"2B140","nom":"Lento","codes_postaux":["20252"],"code_dep":"2B","code_region":"94","population":117,"surface_km2":23.56,"lat":42.5259,"lon":9.2642,"fibre_pct":85.0,"vivrescore":80},{"code_insee":"2B143","nom":"Linguizzetta","codes_postaux":["20230"],"code_dep":"2B","code_region":"94","population":1166,"surface_km2":64.77,"lat":42.2144,"lon":9.5014,"fibre_pct":68.2,"vivrescore":60},{"code_insee":"2B145","nom":"Loreto-di-Casinca","codes_postaux":["20215"],"code_dep":"2B","code_region":"94","population":188,"surface_km2":8.12,"lat":42.4767,"lon":9.4268,"fibre_pct":99.3,"vivrescore":100},{"code_insee":"2B147","nom":"Lozzi","codes_postaux":["20224"],"code_dep":"2B","code_region":"94","population":110,"surface_km2":30.62,"lat":42.3624,"lon":8.9773,"fibre_pct":100.0,"vivrescore":100},{"code_insee":"2B148","nom":"Lucciana","codes_postaux":["20290"],"code_dep":"2B","code_region":"94","population":6923,"surface_km2":29.11,"lat":42.5393,"lon":9.465,"fibre_pct":98.7,"vivrescore":100},{"code_insee":"2B149","nom":"Lugo-di-Nazza","codes_postaux":["20240"],"code_dep":"2B","code_region":"94","population":85,"surface_km2":25.34,"lat":42.0722,"lon":9.3225,"fibre_pct":100.0,"vivrescore":100},{"code_insee":"2B150","nom":"Lumio","codes_postaux":["20260"],"code_dep":"2B","code_region":"94","population":1224,"surface_km2":19.47,"lat":42.5801,"lon":8.8262,"fibre_pct":88.5,"vivrescore":80},{"code_insee":"2B152","nom":"Luri","codes_postaux":["20228"],"code_dep":"2B","code_region":"94","population":872,"surface_km2":27.59,"lat":42.8912,"lon":9.4192,"fibre_pct":98.2,"vivrescore":100},{"code_insee":"2B153","nom":"Manso","codes_postaux":["20245"],"code_dep":"2B","code_region":"94","population":116,"surface_km2":120.94,"lat":42.3686,"lon":8.814,"fibre_pct":99.0,"vivrescore":100},{"code_insee":"2B155","nom":"Matra","codes_postaux":["20270"],"code_dep":"2B","code_region":"94","population":54,"surface_km2":6.51,"lat":42.2823,"lon":9.3866,"fibre_pct":100.0,"vivrescore":100},{"code_insee":"2B156","nom":"Mausoléo","codes_postaux":["20259"],"code_dep":"2B","code_region":"94","population":24,"surface_km2":19.43,"lat":42.498,"lon":8.968,"fibre_pct":78.0,"vivrescore":60},{"code_insee":"2B157","nom":"Mazzola","codes_postaux":["20212"],"code_dep":"2B","code_region":"94","population":22,"surface_km2":6.57,"lat":42.306,"lon":9.3251,"fibre_pct":97.8,"vivrescore":100},{"code_insee":"2B159","nom":"Meria","codes_postaux":["20287"],"code_dep":"2B","code_region":"94","population":81,"surface_km2":20.64,"lat":42.9179,"lon":9.4319,"fibre_pct":99.5,"vivrescore":100},{"code_insee":"2B161","nom":"Moïta","codes_postaux":["20270"],"code_dep":"2B","code_region":"94","population":59,"surface_km2":5.7,"lat":42.2802,"lon":9.4136,"fibre_pct":95.2,"vivrescore":100},{"code_insee":"2B162","nom":"Moltifao","codes_postaux":["20218"],"code_dep":"2B","code_region":"94","population":735,"surface_km2":55.53,"lat":42.469,"lon":9.1248,"fibre_pct":99.2,"vivrescore":100},{"code_insee":"2B164","nom":"Monacia-d'Orezza","codes_postaux":["20229"],"code_dep":"2B","code_region":"94","population":25,"surface_km2":4.61,"lat":42.3818,"lon":9.407,"fibre_pct":99.9,"vivrescore":100},{"code_insee":"2B165","nom":"Moncale","codes_postaux":["20214"],"code_dep":"2B","code_region":"94","population":348,"surface_km2":7.24,"lat":42.5024,"lon":8.8212,"fibre_pct":89.6,"vivrescore":80},{"code_insee":"2B166","nom":"Monte","codes_postaux":["20290"],"code_dep":"2B","code_region":"94","population":650,"surface_km2":14.84,"lat":42.4874,"lon":9.4118,"fibre_pct":97.6,"vivrescore":100},{"code_insee":"2B167","nom":"Montegrosso","codes_postaux":["20214"],"code_dep":"2B","code_region":"94","population":413,"surface_km2":22.86,"lat":42.5445,"lon":8.8542,"fibre_pct":98.2,"vivrescore":100},{"code_insee":"2B168","nom":"Monticello","codes_postaux":["20220"],"code_dep":"2B","code_region":"94","population":2065,"surface_km2":10.66,"lat":42.6213,"lon":8.9613,"fibre_pct":91.4,"vivrescore":80},{"code_insee":"2B169","nom":"Morosaglia","codes_postaux":["20218"],"code_dep":"2B","code_region":"94","population":961,"surface_km2":24.49,"lat":42.45,"lon":9.2514,"fibre_pct":97.1,"vivrescore":100},{"code_insee":"2B170","nom":"Morsiglia","codes_postaux":["20238"],"code_dep":"2B","code_region":"94","population":109,"surface_km2":13.46,"lat":42.9363,"lon":9.3742,"fibre_pct":96.2,"vivrescore":100},{"code_insee":"2B171","nom":"Muracciole","codes_postaux":["20219"],"code_dep":"2B","code_region":"94","population":33,"surface_km2":14.17,"lat":42.1701,"lon":9.1938,"fibre_pct":98.4,"vivrescore":100},{"code_insee":"2B172","nom":"Murato","codes_postaux":["20239"],"code_dep":"2B","code_region":"94","population":560,"surface_km2":20.61,"lat":42.572,"lon":9.3302,"fibre_pct":95.4,"vivrescore":100},{"code_insee":"2B173","nom":"Muro","codes_postaux":["20225"],"code_dep":"2B","code_region":"94","population":243,"surface_km2":7.93,"lat":42.5454,"lon":8.915,"fibre_pct":98.3,"vivrescore":100},{"code_insee":"2B175","nom":"Nessa","codes_postaux":["20225"],"code_dep":"2B","code_region":"94","population":122,"surface_km2":5.88,"lat":42.5517,"lon":8.9576,"fibre_pct":95.4,"vivrescore":100},{"code_insee":"2B176","nom":"Nocario","codes_postaux":["20229"],"code_dep":"2B","code_region":"94","population":74,"surface_km2":3.09,"lat":42.3929,"lon":9.3466,"fibre_pct":90.1,"vivrescore":80},{"code_insee":"2B177","nom":"Noceta","codes_postaux":["20242"],"code_dep":"2B","code_region":"94","population":73,"surface_km2":18.61,"lat":42.1966,"lon":9.21,"fibre_pct":86.9,"vivrescore":80},{"code_insee":"2B178","nom":"Nonza","codes_postaux":["20217"],"code_dep":"2B","code_region":"94","population":62,"surface_km2":8.4,"lat":42.784,"lon":9.3594,"fibre_pct":94.2,"vivrescore":80},{"code_insee":"2B179","nom":"Novale","codes_postaux":["20234"],"code_dep":"2B","code_region":"94","population":57,"surface_km2":4.93,"lat":42.3034,"lon":9.411,"fibre_pct":100.0,"vivrescore":100},{"code_insee":"2B180","nom":"Novella","codes_postaux":["20226"],"code_dep":"2B","code_region":"94","population":80,"surface_km2":30.15,"lat":42.6035,"lon":9.1028,"fibre_pct":98.4,"vivrescore":100},{"code_insee":"2B182","nom":"Occhiatana","codes_postaux":["20226"],"code_dep":"2B","code_region":"94","population":235,"surface_km2":12.55,"lat":42.5952,"lon":9.0056,"fibre_pct":90.3,"vivrescore":80},{"code_insee":"2B183","nom":"Ogliastro","codes_postaux":["20217"],"code_dep":"2B","code_region":"94","population":90,"surface_km2":9.51,"lat":42.8216,"lon":9.3565,"fibre_pct":100.0,"vivrescore":100},{"code_insee":"2B184","nom":"Olcani","codes_postaux":["20217"],"code_dep":"2B","code_region":"94","population":96,"surface_km2":14.35,"lat":42.8074,"lon":9.3861,"fibre_pct":100.0,"vivrescore":100},{"code_insee":"2B185","nom":"Oletta","codes_postaux":["20232"],"code_dep":"2B","code_region":"94","population":1780,"surface_km2":26.57,"lat":42.6451,"lon":9.3453,"fibre_pct":99.5,"vivrescore":100},{"code_insee":"2B187","nom":"Olmeta-di-Capocorso","codes_postaux":["20217"],"code_dep":"2B","code_region":"94","population":123,"surface_km2":21.53,"lat":42.7643,"lon":9.3791,"fibre_pct":0.0,"vivrescore":20},{"code_insee":"2B188","nom":"Olmeta-di-Tuda","codes_postaux":["20232"],"code_dep":"2B","code_region":"94","population":583,"surface_km2":17.4,"lat":42.6095,"lon":9.3612,"fibre_pct":83.4,"vivrescore":80},{"code_insee":"2B190","nom":"Olmi-Cappella","codes_postaux":["20259"],"code_dep":"2B","code_region":"94","population":190,"surface_km2":51.16,"lat":42.5231,"lon":9.0107,"fibre_pct":90.0,"vivrescore":80},{"code_insee":"2B192","nom":"Olmo","codes_postaux":["20290"],"code_dep":"2B","code_region":"94","population":138,"surface_km2":4.43,"lat":42.5018,"lon":9.4139,"fibre_pct":80.4,"vivrescore":80},{"code_insee":"2B193","nom":"Omessa","codes_postaux":["20236"],"code_dep":"2B","code_region":"94","population":595,"surface_km2":24.46,"lat":42.387,"lon":9.1946,"fibre_pct":98.5,"vivrescore":100},{"code_insee":"2B194","nom":"Ortale","codes_postaux":["20234"],"code_dep":"2B","code_region":"94","population":25,"surface_km2":4.17,"lat":42.3105,"lon":9.4365,"fibre_pct":85.0,"vivrescore":80},{"code_insee":"2B195","nom":"Ortiporio","codes_postaux":["20290"],"code_dep":"2B","code_region":"94","population":139,"surface_km2":5.02,"lat":42.4568,"lon":9.3457,"fibre_pct":95.7,"vivrescore":100},{"code_insee":"2B199","nom":"Palasca","codes_postaux":["20226"],"code_dep":"2B","code_region":"94","population":222,"surface_km2":49.83,"lat":42.6358,"lon":9.061,"fibre_pct":55.6,"vivrescore":40},{"code_insee":"2B201","nom":"Pancheraccia","codes_postaux":["20251","20270"],"code_dep":"2B","code_region":"94","population":198,"surface_km2":14.5,"lat":42.1891,"lon":9.4093,"fibre_pct":99.5,"vivrescore":100},{"code_insee":"2B202","nom":"Parata","codes_postaux":["20229"],"code_dep":"2B","code_region":"94","population":22,"surface_km2":2.79,"lat":42.3658,"lon":9.4174,"fibre_pct":88.4,"vivrescore":80},{"code_insee":"2B205","nom":"Patrimonio","codes_postaux":["20253"],"code_dep":"2B","code_region":"94","population":897,"surface_km2":17.48,"lat":42.7092,"lon":9.3647,"fibre_pct":98.2,"vivrescore":100},{"code_insee":"2B206","nom":"Penta-Acquatella","codes_postaux":["20290"],"code_dep":"2B","code_region":"94","population":41,"surface_km2":3.06,"lat":42.4651,"lon":9.3729,"fibre_pct":100.0,"vivrescore":100},{"code_insee":"2B207","nom":"Penta-di-Casinca","codes_postaux":["20213"],"code_dep":"2B","code_region":"94","population":3671,"surface_km2":18.88,"lat":42.4565,"lon":9.4888,"fibre_pct":93.7,"vivrescore":80},{"code_insee":"2B208","nom":"Perelli","codes_postaux":["20234"],"code_dep":"2B","code_region":"94","population":109,"surface_km2":6.2,"lat":42.3145,"lon":9.3876,"fibre_pct":96.2,"vivrescore":100},{"code_insee":"2B210","nom":"Pero-Casevecchie","codes_postaux":["20230"],"code_dep":"2B","code_region":"94","population":109,"surface_km2":4.63,"lat":42.4168,"lon":9.464,"fibre_pct":100.0,"vivrescore":100},{"code_insee":"2B213","nom":"Pianello","codes_postaux":["20272"],"code_dep":"2B","code_region":"94","population":53,"surface_km2":16.96,"lat":42.3004,"lon":9.3577,"fibre_pct":100.0,"vivrescore":100},{"code_insee":"2B214","nom":"Piano","codes_postaux":["20215"],"code_dep":"2B","code_region":"94","population":17,"surface_km2":3.43,"lat":42.4407,"lon":9.3964,"fibre_pct":94.1,"vivrescore":80},{"code_insee":"2B216","nom":"Piazzali","codes_postaux":["20234"],"code_dep":"2B","code_region":"94","population":19,"surface_km2":0.83,"lat":42.3196,"lon":9.4046,"fibre_pct":96.0,"vivrescore":100},{"code_insee":"2B217","nom":"Piazzole","codes_postaux":["20229"],"code_dep":"2B","code_region":"94","population":50,"surface_km2":3.9,"lat":42.3946,"lon":9.4058,"fibre_pct":100.0,"vivrescore":100},{"code_insee":"2B218","nom":"Piedicorte-di-Gaggio","codes_postaux":["20251"],"code_dep":"2B","code_region":"94","population":114,"surface_km2":27.36,"lat":42.2175,"lon":9.3223,"fibre_pct":85.5,"vivrescore":80},{"code_insee":"2B219","nom":"Piedicroce","codes_postaux":["20229"],"code_dep":"2B","code_region":"94","population":81,"surface_km2":3.28,"lat":42.3847,"lon":9.367,"fibre_pct":89.9,"vivrescore":80},{"code_insee":"2B220","nom":"Piedigriggio","codes_postaux":["20218"],"code_dep":"2B","code_region":"94","population":164,"surface_km2":10.51,"lat":42.4456,"lon":9.1798,"fibre_pct":100.0,"vivrescore":100},{"code_insee":"2B221","nom":"Piedipartino","codes_postaux":["20229"],"code_dep":"2B","code_region":"94","population":19,"surface_km2":3.3,"lat":42.3569,"lon":9.3483,"fibre_pct":100.0,"vivrescore":100},{"code_insee":"2B222","nom":"Pie-d'Orezza","codes_postaux":["20229"],"code_dep":"2B","code_region":"94","population":35,"surface_km2":5.78,"lat":42.3756,"lon":9.3404,"fibre_pct":94.1,"vivrescore":80},{"code_insee":"2B223","nom":"Pietralba","codes_postaux":["20218"],"code_dep":"2B","code_region":"94","population":507,"surface_km2":38.86,"lat":42.5427,"lon":9.1778,"fibre_pct":96.6,"vivrescore":100},{"code_insee":"2B224","nom":"Pietracorbara","codes_postaux":["20233"],"code_dep":"2B","code_region":"94","population":652,"surface_km2":26.2,"lat":42.8459,"lon":9.4361,"fibre_pct":99.6,"vivrescore":100},{"code_insee":"2B225","nom":"Pietra-di-Verde","codes_postaux":["20230"],"code_dep":"2B","code_region":"94","population":102,"surface_km2":8.73,"lat":42.2898,"lon":9.4443,"fibre_pct":96.1,"vivrescore":100},{"code_insee":"2B226","nom":"Pietraserena","codes_postaux":["20251"],"code_dep":"2B","code_region":"94","population":62,"surface_km2":6.75,"lat":42.2346,"lon":9.36,"fibre_pct":81.2,"vivrescore":80},{"code_insee":"2B227","nom":"Pietricaggio","codes_postaux":["20234"],"code_dep":"2B","code_region":"94","population":32,"surface_km2":5.32,"lat":42.3283,"lon":9.378,"fibre_pct":100.0,"vivrescore":100},{"code_insee":"2B229","nom":"Pietroso","codes_postaux":["20242"],"code_dep":"2B","code_region":"94","population":334,"surface_km2":25.9,"lat":42.1231,"lon":9.3123,"fibre_pct":97.7,"vivrescore":100},{"code_insee":"2B230","nom":"Piève","codes_postaux":["20246"],"code_dep":"2B","code_region":"94","population":115,"surface_km2":19.62,"lat":42.5991,"lon":9.2838,"fibre_pct":89.4,"vivrescore":80},{"code_insee":"2B231","nom":"Pigna","codes_postaux":["20220"],"code_dep":"2B","code_region":"94","population":128,"surface_km2":2.21,"lat":42.6003,"lon":8.9,"fibre_pct":96.9,"vivrescore":100},{"code_insee":"2B233","nom":"Pino","codes_postaux":["20228"],"code_dep":"2B","code_region":"94","population":148,"surface_km2":7.2,"lat":42.9063,"lon":9.3518,"fibre_pct":95.2,"vivrescore":100},{"code_insee":"2B234","nom":"Piobetta","codes_postaux":["20234"],"code_dep":"2B","code_region":"94","population":20,"surface_km2":5.05,"lat":42.3409,"lon":9.3693,"fibre_pct":100.0,"vivrescore":100},{"code_insee":"2B235","nom":"Pioggiola","codes_postaux":["20259"],"code_dep":"2B","code_region":"94","population":87,"surface_km2":18.63,"lat":42.5251,"lon":8.9696,"fibre_pct":94.8,"vivrescore":80},{"code_insee":"2B236","nom":"Poggio-di-Nazza","codes_postaux":["20240"],"code_dep":"2B","code_region":"94","population":187,"surface_km2":32.82,"lat":42.0539,"lon":9.2998,"fibre_pct":79.6,"vivrescore":60},{"code_insee":"2B238","nom":"Poggio-di-Venaco","codes_postaux":["20250"],"code_dep":"2B","code_region":"94","population":211,"surface_km2":13.31,"lat":42.269,"lon":9.2048,"fibre_pct":22.3,"vivrescore":20},{"code_insee":"2B239","nom":"Poggio-d'Oletta","codes_postaux":["20232"],"code_dep":"2B","code_region":"94","population":215,"surface_km2":16.06,"lat":42.6558,"lon":9.3566,"fibre_pct":78.8,"vivrescore":60},{"code_insee":"2B241","nom":"Poggio-Marinaccio","codes_postaux":["20237"],"code_dep":"2B","code_region":"94","population":38,"surface_km2":2.91,"lat":42.4374,"lon":9.3493,"fibre_pct":100.0,"vivrescore":100},{"code_insee":"2B242","nom":"Poggio-Mezzana","codes_postaux":["20230"],"code_dep":"2B","code_region":"94","population":885,"surface_km2":8.91,"lat":42.4009,"lon":9.5121,"fibre_pct":70.8,"vivrescore":60},{"code_insee":"2B243","nom":"Polveroso","codes_postaux":["20229"],"code_dep":"2B","code_region":"94","population":31,"surface_km2":1.98,"lat":42.4011,"lon":9.3625,"fibre_pct":77.4,"vivrescore":60},{"code_insee":"2B244","nom":"Popolasca","codes_postaux":["20218"],"code_dep":"2B","code_region":"94","population":41,"surface_km2":10.46,"lat":42.4379,"lon":9.1328,"fibre_pct":100.0,"vivrescore":100},{"code_insee":"2B245","nom":"Porri","codes_postaux":["20215"],"code_dep":"2B","code_region":"94","population":44,"surface_km2":4.54,"lat":42.4486,"lon":9.4445,"fibre_pct":88.1,"vivrescore":80},{"code_insee":"2B246","nom":"La Porta","codes_postaux":["20237"],"code_dep":"2B","code_region":"94","population":187,"surface_km2":5.13,"lat":42.4271,"lon":9.3602,"fibre_pct":98.7,"vivrescore":100},{"code_insee":"2B248","nom":"Prato-di-Giovellina","codes_postaux":["20218"],"code_dep":"2B","code_region":"94","population":52,"surface_km2":12.27,"lat":42.418,"lon":9.1751,"fibre_pct":100.0,"vivrescore":100},{"code_insee":"2B250","nom":"Prunelli-di-Casacconi","codes_postaux":["20290"],"code_dep":"2B","code_region":"94","population":151,"surface_km2":6.01,"lat":42.5094,"lon":9.4043,"fibre_pct":98.0,"vivrescore":100},{"code_insee":"2B251","nom":"Prunelli-di-Fiumorbo","codes_postaux":["20243"],"code_dep":"2B","code_region":"94","population":3880,"surface_km2":37.58,"lat":42.0069,"lon":9.3749,"fibre_pct":99.0,"vivrescore":100},{"code_insee":"2B252","nom":"Pruno","codes_postaux":["20213"],"code_dep":"2B","code_region":"94","population":180,"surface_km2":6.38,"lat":42.4268,"lon":9.4473,"fibre_pct":81.6,"vivrescore":80},{"code_insee":"2B255","nom":"Quercitello","codes_postaux":["20237"],"code_dep":"2B","code_region":"94","population":53,"surface_km2":2.97,"lat":42.4279,"lon":9.3511,"fibre_pct":98.5,"vivrescore":100},{"code_insee":"2B256","nom":"Rapaggio","codes_postaux":["20229"],"code_dep":"2B","code_region":"94","population":32,"surface_km2":2.56,"lat":42.3768,"lon":9.3847,"fibre_pct":100.0,"vivrescore":100},{"code_insee":"2B257","nom":"Rapale","codes_postaux":["20246"],"code_dep":"2B","code_region":"94","population":162,"surface_km2":10.09,"lat":42.625,"lon":9.2972,"fibre_pct":98.8,"vivrescore":100},{"code_insee":"2B260","nom":"Riventosa","codes_postaux":["20250"],"code_dep":"2B","code_region":"94","population":145,"surface_km2":5.9,"lat":42.2484,"lon":9.2061,"fibre_pct":92.5,"vivrescore":80},{"code_insee":"2B261","nom":"Rogliano","codes_postaux":["20247","20248"],"code_dep":"2B","code_region":"94","population":530,"surface_km2":26.73,"lat":42.974,"lon":9.4323,"fibre_pct":96.7,"vivrescore":100},{"code_insee":"2B263","nom":"Rospigliani","codes_postaux":["20242"],"code_dep":"2B","code_region":"94","population":70,"surface_km2":9.87,"lat":42.1922,"lon":9.2387,"fibre_pct":93.7,"vivrescore":80},{"code_insee":"2B264","nom":"Rusio","codes_postaux":["20244"],"code_dep":"2B","code_region":"94","population":65,"surface_km2":8.62,"lat":42.3501,"lon":9.2572,"fibre_pct":0.0,"vivrescore":20},{"code_insee":"2B265","nom":"Rutali","codes_postaux":["20239"],"code_dep":"2B","code_region":"94","population":531,"surface_km2":17.49,"lat":42.5809,"lon":9.3829,"fibre_pct":92.5,"vivrescore":80},{"code_insee":"2B267","nom":"Saliceto","codes_postaux":["20218"],"code_dep":"2B","code_region":"94","population":46,"surface_km2":12.55,"lat":42.4126,"lon":9.262,"fibre_pct":100.0,"vivrescore":100},{"code_insee":"2B273","nom":"Scata","codes_postaux":["20213"],"code_dep":"2B","code_region":"94","population":41,"surface_km2":2.81,"lat":42.4225,"lon":9.4042,"fibre_pct":99.8,"vivrescore":100},{"code_insee":"2B274","nom":"Scolca","codes_postaux":["20290"],"code_dep":"2B","code_region":"94","population":92,"surface_km2":6.88,"lat":42.5389,"lon":9.3675,"fibre_pct":100.0,"vivrescore":100},{"code_insee":"2B275","nom":"Sermano","codes_postaux":["20212"],"code_dep":"2B","code_region":"94","population":72,"surface_km2":7.64,"lat":42.3155,"lon":9.2637,"fibre_pct":97.0,"vivrescore":100},{"code_insee":"2B277","nom":"Serra-di-Fiumorbo","codes_postaux":["20243"],"code_dep":"2B","code_region":"94","population":365,"surface_km2":43.61,"lat":41.9668,"lon":9.3352,"fibre_pct":71.5,"vivrescore":60},{"code_insee":"2B280","nom":"Silvareccio","codes_postaux":["20215"],"code_dep":"2B","code_region":"94","population":99,"surface_km2":4.8,"lat":42.4514,"lon":9.4166,"fibre_pct":88.7,"vivrescore":80},{"code_insee":"2B281","nom":"Sisco","codes_postaux":["20233"],"code_dep":"2B","code_region":"94","population":1182,"surface_km2":24.88,"lat":42.8152,"lon":9.4389,"fibre_pct":100.0,"vivrescore":100},{"code_insee":"2B283","nom":"Solaro","codes_postaux":["20240"],"code_dep":"2B","code_region":"94","population":736,"surface_km2":94.03,"lat":41.8789,"lon":9.3181,"fibre_pct":99.9,"vivrescore":100},{"code_insee":"2B286","nom":"Sorbo-Ocagnano","codes_postaux":["20213"],"code_dep":"2B","code_region":"94","population":904,"surface_km2":10.76,"lat":42.4811,"lon":9.483,"fibre_pct":67.5,"vivrescore":60},{"code_insee":"2B287","nom":"Sorio","codes_postaux":["20246"],"code_dep":"2B","code_region":"94","population":118,"surface_km2":15.53,"lat":42.5781,"lon":9.2449,"fibre_pct":100.0,"vivrescore":100},{"code_insee":"2B289","nom":"Soveria","codes_postaux":["20250"],"code_dep":"2B","code_region":"94","population":109,"surface_km2":12.13,"lat":42.3473,"lon":9.1425,"fibre_pct":93.3,"vivrescore":80},{"code_insee":"2B290","nom":"Speloncato","codes_postaux":["20226"],"code_dep":"2B","code_region":"94","population":261,"surface_km2":17.64,"lat":42.5757,"lon":8.9731,"fibre_pct":97.6,"vivrescore":100},{"code_insee":"2B291","nom":"Stazzona","codes_postaux":["20229"],"code_dep":"2B","code_region":"94","population":38,"surface_km2":1.39,"lat":42.38,"lon":9.3745,"fibre_pct":100.0,"vivrescore":100},{"code_insee":"2B292","nom":"Sant'Andréa-di-Bozio","codes_postaux":["20212"],"code_dep":"2B","code_region":"94","population":55,"surface_km2":24.05,"lat":42.2767,"lon":9.2792,"fibre_pct":100.0,"vivrescore":100},{"code_insee":"2B293","nom":"Sant'Andréa-di-Cotone","codes_postaux":["20221"],"code_dep":"2B","code_region":"94","population":193,"surface_km2":8.79,"lat":42.3187,"lon":9.4768,"fibre_pct":90.6,"vivrescore":80},{"code_insee":"2B296","nom":"Sant'Antonino","codes_postaux":["20220"],"code_dep":"2B","code_region":"94","population":127,"surface_km2":4.12,"lat":42.5861,"lon":8.9095,"fibre_pct":100.0,"vivrescore":100},{"code_insee":"2B297","nom":"San-Damiano","codes_postaux":["20213"],"code_dep":"2B","code_region":"94","population":54,"surface_km2":5.83,"lat":42.4041,"lon":9.4178,"fibre_pct":80.6,"vivrescore":80},{"code_insee":"2B298","nom":"Saint-Florent","codes_postaux":["20217"],"code_dep":"2B","code_region":"94","population":1694,"surface_km2":18.11,"lat":42.689,"lon":9.2797,"fibre_pct":77.3,"vivrescore":60},{"code_insee":"2B299","nom":"San-Gavino-d'Ampugnani","codes_postaux":["20213"],"code_dep":"2B","code_region":"94","population":103,"surface_km2":3.2,"lat":42.4173,"lon":9.4266,"fibre_pct":94.5,"vivrescore":80},{"code_insee":"2B301","nom":"San-Gavino-di-Tenda","codes_postaux":["20246"],"code_dep":"2B","code_region":"94","population":64,"surface_km2":50.5,"lat":42.6448,"lon":9.1688,"fibre_pct":97.4,"vivrescore":100},{"code_insee":"2B302","nom":"San-Giovanni-di-Moriani","codes_postaux":["20230"],"code_dep":"2B","code_region":"94","population":102,"surface_km2":10.09,"lat":42.3714,"lon":9.4607,"fibre_pct":96.2,"vivrescore":100},{"code_insee":"2B303","nom":"San-Giuliano","codes_postaux":["20230"],"code_dep":"2B","code_region":"94","population":812,"surface_km2":23.75,"lat":42.2844,"lon":9.5211,"fibre_pct":90.5,"vivrescore":80},{"code_insee":"2B304","nom":"San-Lorenzo","codes_postaux":["20244"],"code_dep":"2B","code_region":"94","population":138,"surface_km2":10.15,"lat":42.3907,"lon":9.2916,"fibre_pct":100.0,"vivrescore":100},{"code_insee":"2B305","nom":"San-Martino-di-Lota","codes_postaux":["20200"],"code_dep":"2B","code_region":"94","population":3056,"surface_km2":9.57,"lat":42.7306,"lon":9.4289,"fibre_pct":99.5,"vivrescore":100},{"code_insee":"2B306","nom":"Santa-Lucia-di-Mercurio","codes_postaux":["20250"],"code_dep":"2B","code_region":"94","population":115,"surface_km2":23.8,"lat":42.3186,"lon":9.2217,"fibre_pct":100.0,"vivrescore":100},{"code_insee":"2B307","nom":"Santa-Lucia-di-Moriani","codes_postaux":["20230"],"code_dep":"2B","code_region":"94","population":1514,"surface_km2":6.1,"lat":42.3841,"lon":9.5089,"fibre_pct":96.3,"vivrescore":100},{"code_insee":"2B309","nom":"Santa-Maria-di-Lota","codes_postaux":["20200"],"code_dep":"2B","code_region":"94","population":1973,"surface_km2":13.22,"lat":42.7544,"lon":9.428,"fibre_pct":95.9,"vivrescore":100},{"code_insee":"2B311","nom":"Santa-Maria-Poggio","codes_postaux":["20221"],"code_dep":"2B","code_region":"94","population":807,"surface_km2":10.21,"lat":42.3499,"lon":9.509,"fibre_pct":97.7,"vivrescore":100},{"code_insee":"2B313","nom":"San-Nicolao","codes_postaux":["20230"],"code_dep":"2B","code_region":"94","population":2062,"surface_km2":7.66,"lat":42.3687,"lon":9.5068,"fibre_pct":92.2,"vivrescore":80},{"code_insee":"2B314","nom":"Santo-Pietro-di-Tenda","codes_postaux":["20217","20246"],"code_dep":"2B","code_region":"94","population":341,"surface_km2":125.84,"lat":42.6676,"lon":9.1995,"fibre_pct":98.8,"vivrescore":100},{"code_insee":"2B315","nom":"Santo-Pietro-di-Venaco","codes_postaux":["20250"],"code_dep":"2B","code_region":"94","population":305,"surface_km2":7.89,"lat":42.2472,"lon":9.1764,"fibre_pct":94.6,"vivrescore":80},{"code_insee":"2B316","nom":"Santa-Reparata-di-Balagna","codes_postaux":["20220"],"code_dep":"2B","code_region":"94","population":1024,"surface_km2":10.14,"lat":42.6038,"lon":8.9332,"fibre_pct":100.0,"vivrescore":100},{"code_insee":"2B317","nom":"Santa-Reparata-di-Moriani","codes_postaux":["20230"],"code_dep":"2B","code_region":"94","population":52,"surface_km2":9.0,"lat":42.3515,"lon":9.4553,"fibre_pct":93.8,"vivrescore":80},{"code_insee":"2B318","nom":"Taglio-Isolaccio","codes_postaux":["20230"],"code_dep":"2B","code_region":"94","population":623,"surface_km2":11.26,"lat":42.4336,"lon":9.5007,"fibre_pct":86.5,"vivrescore":80},{"code_insee":"2B319","nom":"Talasani","codes_postaux":["20230"],"code_dep":"2B","code_region":"94","population":847,"surface_km2":9.98,"lat":42.4163,"lon":9.5076,"fibre_pct":81.7,"vivrescore":80},{"code_insee":"2B320","nom":"Tallone","codes_postaux":["20270"],"code_dep":"2B","code_region":"94","population":288,"surface_km2":69.96,"lat":42.1897,"lon":9.4697,"fibre_pct":98.3,"vivrescore":100},{"code_insee":"2B321","nom":"Tarrano","codes_postaux":["20234"],"code_dep":"2B","code_region":"94","population":16,"surface_km2":3.89,"lat":42.3438,"lon":9.4006,"fibre_pct":85.0,"vivrescore":80},{"code_insee":"2B327","nom":"Tomino","codes_postaux":["20248"],"code_dep":"2B","code_region":"94","population":184,"surface_km2":5.85,"lat":42.9459,"lon":9.4448,"fibre_pct":91.8,"vivrescore":80},{"code_insee":"2B328","nom":"Tox","codes_postaux":["20270"],"code_dep":"2B","code_region":"94","population":96,"surface_km2":14.57,"lat":42.2454,"lon":9.4436,"fibre_pct":86.5,"vivrescore":80},{"code_insee":"2B329","nom":"Tralonca","codes_postaux":["20250"],"code_dep":"2B","code_region":"94","population":118,"surface_km2":15.66,"lat":42.3389,"lon":9.1956,"fibre_pct":98.7,"vivrescore":100},{"code_insee":"2B332","nom":"Urtaca","codes_postaux":["20218"],"code_dep":"2B","code_region":"94","population":263,"surface_km2":31.22,"lat":42.6257,"lon":9.1528,"fibre_pct":92.0,"vivrescore":80},{"code_insee":"2B333","nom":"Vallecalle","codes_postaux":["20232"],"code_dep":"2B","code_region":"94","population":169,"surface_km2":6.97,"lat":42.6003,"lon":9.3373,"fibre_pct":100.0,"vivrescore":100},{"code_insee":"2B334","nom":"Valle-d'Alesani","codes_postaux":["20234"],"code_dep":"2B","code_region":"94","population":124,"surface_km2":9.62,"lat":42.3269,"lon":9.4318,"fibre_pct":87.8,"vivrescore":80},{"code_insee":"2B335","nom":"Valle-di-Campoloro","codes_postaux":["20221"],"code_dep":"2B","code_region":"94","population":336,"surface_km2":5.69,"lat":42.3335,"lon":9.511,"fibre_pct":96.3,"vivrescore":100},{"code_insee":"2B337","nom":"Valle-di-Rostino","codes_postaux":["20235"],"code_dep":"2B","code_region":"94","population":167,"surface_km2":15.6,"lat":42.46,"lon":9.2592,"fibre_pct":93.6,"vivrescore":80},{"code_insee":"2B338","nom":"Valle-d'Orezza","codes_postaux":["20229"],"code_dep":"2B","code_region":"94","population":25,"surface_km2":4.04,"lat":42.3636,"lon":9.4058,"fibre_pct":100.0,"vivrescore":100},{"code_insee":"2B339","nom":"Vallica","codes_postaux":["20259"],"code_dep":"2B","code_region":"94","population":29,"surface_km2":12.1,"lat":42.5167,"lon":9.0582,"fibre_pct":100.0,"vivrescore":100},{"code_insee":"2B340","nom":"Velone-Orneto","codes_postaux":["20230"],"code_dep":"2B","code_region":"94","population":101,"surface_km2":12.25,"lat":42.3874,"lon":9.4545,"fibre_pct":81.5,"vivrescore":80},{"code_insee":"2B341","nom":"Venaco","codes_postaux":["20231"],"code_dep":"2B","code_region":"94","population":644,"surface_km2":53.58,"lat":42.2129,"lon":9.1455,"fibre_pct":91.9,"vivrescore":80},{"code_insee":"2B342","nom":"Ventiseri","codes_postaux":["20240"],"code_dep":"2B","code_region":"94","population":2629,"surface_km2":47.02,"lat":41.9386,"lon":9.3552,"fibre_pct":99.8,"vivrescore":100},{"code_insee":"2B343","nom":"Venzolasca","codes_postaux":["20215"],"code_dep":"2B","code_region":"94","population":1874,"surface_km2":16.52,"lat":42.4998,"lon":9.4887,"fibre_pct":90.9,"vivrescore":80},{"code_insee":"2B344","nom":"Verdèse","codes_postaux":["20229"],"code_dep":"2B","code_region":"94","population":42,"surface_km2":0.99,"lat":42.3935,"lon":9.3738,"fibre_pct":96.4,"vivrescore":100},{"code_insee":"2B346","nom":"Vescovato","codes_postaux":["20215"],"code_dep":"2B","code_region":"94","population":3406,"surface_km2":17.63,"lat":42.5122,"lon":9.4756,"fibre_pct":97.6,"vivrescore":100},{"code_insee":"2B347","nom":"Vezzani","codes_postaux":["20242"],"code_dep":"2B","code_region":"94","population":269,"surface_km2":46.26,"lat":42.1501,"lon":9.2936,"fibre_pct":79.1,"vivrescore":60},{"code_insee":"2B350","nom":"Vignale","codes_postaux":["20290"],"code_dep":"2B","code_region":"94","population":222,"surface_km2":10.82,"lat":42.539,"lon":9.3997,"fibre_pct":100.0,"vivrescore":100},{"code_insee":"2B352","nom":"Ville-di-Paraso","codes_postaux":["20279"],"code_dep":"2B","code_region":"94","population":205,"surface_km2":9.43,"lat":42.5845,"lon":8.9917,"fibre_pct":98.8,"vivrescore":100},{"code_insee":"2B353","nom":"Ville-di-Pietrabugno","codes_postaux":["20200"],"code_dep":"2B","code_region":"94","population":3215,"surface_km2":7.51,"lat":42.7165,"lon":9.4263,"fibre_pct":95.1,"vivrescore":100},{"code_insee":"2B354","nom":"Vivario","codes_postaux":["20219"],"code_dep":"2B","code_region":"94","population":409,"surface_km2":78.34,"lat":42.1429,"lon":9.1139,"fibre_pct":80.8,"vivrescore":80},{"code_insee":"2B355","nom":"Volpajola","codes_postaux":["20290"],"code_dep":"2B","code_region":"94","population":418,"surface_km2":12.97,"lat":42.5237,"lon":9.3699,"fibre_pct":98.7,"vivrescore":100},{"code_insee":"2B356","nom":"Zalana","codes_postaux":["20272"],"code_dep":"2B","code_region":"94","population":153,"surface_km2":13.21,"lat":42.253,"lon":9.3837,"fibre_pct":100.0,"vivrescore":100},{"code_insee":"2B361","nom":"Zilia","codes_postaux":["20214"],"code_dep":"2B","code_region":"94","population":320,"surface_km2":13.98,"lat":42.5181,"lon":8.8989,"fibre_pct":90.1,"vivrescore":80},{"code_insee":"2B364","nom":"Zuani","codes_postaux":["20272"],"code_dep":"2B","code_region":"94","population":37,"surface_km2":5.18,"lat":42.2651,"lon":9.342,"fibre_pct":100.0,"vivrescore":100},{"code_insee":"2B365","nom":"San-Gavino-di-Fiumorbo","codes_postaux":["20243"],"code_dep":"2B","code_region":"94","population":99,"surface_km2":22.47,"lat":41.9658,"lon":9.2565,"fibre_pct":100.0,"vivrescore":100},{"code_insee":"2B366","nom":"Chisa","codes_postaux":["20240"],"code_dep":"2B","code_region":"94","population":104,"surface_km2":29.53,"lat":41.9132,"lon":9.2626,"fibre_pct":76.7,"vivrescore":60}]