[{"code_insee":"34001","nom":"Abeilhan","codes_postaux":["34290"],"code_dep":"34","code_region":"76","population":1850,"surface_km2":7.85,"lat":43.46,"lon":3.3026,"fibre_pct":99.9,"securite":{"taux_pour_mille":15.9,"annee":2024},"socio":{"annee":2021,"revenu_median":21720.0},"vivrescore":73},{"code_insee":"34002","nom":"Adissan","codes_postaux":["34230"],"code_dep":"34","code_region":"76","population":1371,"surface_km2":4.44,"lat":43.5358,"lon":3.4254,"fibre_pct":98.8,"securite":{"taux_pour_mille":9.7,"annee":2024},"socio":{"annee":2021,"revenu_median":21060.0},"vivrescore":80},{"code_insee":"34003","nom":"Agde","codes_postaux":["34300"],"code_dep":"34","code_region":"76","population":29939,"surface_km2":50.22,"lat":43.3084,"lon":3.4838,"fibre_pct":95.5,"securite":{"taux_pour_mille":97.3,"annee":2024},"socio":{"annee":2021,"revenu_median":20410.0,"taux_pauvrete":22.0},"vivrescore":60},{"code_insee":"34004","nom":"Agel","codes_postaux":["34210"],"code_dep":"34","code_region":"76","population":240,"surface_km2":12.16,"lat":43.3498,"lon":2.8544,"fibre_pct":96.4,"securite":{"taux_pour_mille":0.0,"annee":2024},"socio":{"annee":2021,"revenu_median":18830.0},"vivrescore":80},{"code_insee":"34005","nom":"Agonès","codes_postaux":["34190"],"code_dep":"34","code_region":"76","population":319,"surface_km2":4.22,"lat":43.899,"lon":3.7241,"fibre_pct":95.3,"securite":{"taux_pour_mille":0.0,"annee":2024},"socio":{"annee":2021,"revenu_median":23490.0},"vivrescore":87},{"code_insee":"34006","nom":"Aigne","codes_postaux":["34210"],"code_dep":"34","code_region":"76","population":301,"surface_km2":11.12,"lat":43.3241,"lon":2.7922,"fibre_pct":97.1,"securite":{"taux_pour_mille":0.0,"annee":2024},"socio":{"annee":2021,"revenu_median":18690.0},"vivrescore":80},{"code_insee":"34007","nom":"Aigues-Vives","codes_postaux":["34210"],"code_dep":"34","code_region":"76","population":476,"surface_km2":12.73,"lat":43.3503,"lon":2.8231,"fibre_pct":99.0,"securite":{"taux_pour_mille":0.0,"annee":2024},"socio":{"annee":2021,"revenu_median":19390.0},"vivrescore":80},{"code_insee":"34008","nom":"Les Aires","codes_postaux":["34600"],"code_dep":"34","code_region":"76","population":618,"surface_km2":20.64,"lat":43.5687,"lon":3.0676,"fibre_pct":99.1,"securite":{"taux_pour_mille":0.0,"annee":2024},"socio":{"annee":2021,"revenu_median":20570.0},"vivrescore":87},{"code_insee":"34009","nom":"Alignan-du-Vent","codes_postaux":["34290"],"code_dep":"34","code_region":"76","population":1796,"surface_km2":17.43,"lat":43.4678,"lon":3.3389,"fibre_pct":99.4,"securite":{"taux_pour_mille":10.8,"annee":2024},"socio":{"annee":2021,"revenu_median":22030.0},"vivrescore":80},{"code_insee":"34010","nom":"Aniane","codes_postaux":["34150"],"code_dep":"34","code_region":"76","population":2979,"surface_km2":30.35,"lat":43.686,"lon":3.5911,"fibre_pct":98.4,"securite":{"taux_pour_mille":41.3,"annee":2024},"socio":{"annee":2021,"taux_pauvrete":16.0,"revenu_median":22130.0},"vivrescore":60},{"code_insee":"34011","nom":"Arboras","codes_postaux":["34150"],"code_dep":"34","code_region":"76","population":107,"surface_km2":6.57,"lat":43.7205,"lon":3.4734,"fibre_pct":95.1,"securite":{"taux_pour_mille":0.0,"annee":2024},"socio":{"annee":2021,"revenu_median":22790.0},"vivrescore":87},{"code_insee":"34012","nom":"Argelliers","codes_postaux":["34380"],"code_dep":"34","code_region":"76","population":1002,"surface_km2":50.62,"lat":43.7326,"lon":3.6764,"fibre_pct":100.0,"securite":{"taux_pour_mille":0.0,"annee":2024},"socio":{"annee":2021,"revenu_median":26320.0},"vivrescore":93},{"code_insee":"34013","nom":"Aspiran","codes_postaux":["34800"],"code_dep":"34","code_region":"76","population":1672,"surface_km2":16.27,"lat":43.5654,"lon":3.4499,"fibre_pct":97.9,"securite":{"taux_pour_mille":19.0,"annee":2024},"socio":{"annee":2021,"revenu_median":20750.0},"vivrescore":73},{"code_insee":"34014","nom":"Assas","codes_postaux":["34820"],"code_dep":"34","code_region":"76","population":1405,"surface_km2":19.3,"lat":43.7144,"lon":3.9039,"fibre_pct":89.9,"securite":{"taux_pour_mille":25.2,"annee":2024},"socio":{"annee":2021,"revenu_median":31670.0},"vivrescore":73},{"code_insee":"34015","nom":"Assignan","codes_postaux":["34360"],"code_dep":"34","code_region":"76","population":174,"surface_km2":8.28,"lat":43.3997,"lon":2.8864,"fibre_pct":98.4,"securite":{"taux_pour_mille":0.0,"annee":2024},"socio":{"annee":2021,"revenu_median":20380.0},"vivrescore":87},{"code_insee":"34016","nom":"Aumelas","codes_postaux":["34230"],"code_dep":"34","code_region":"76","population":624,"surface_km2":58.32,"lat":43.5768,"lon":3.6056,"fibre_pct":92.4,"securite":{"taux_pour_mille":0.0,"annee":2024},"socio":{"annee":2021,"revenu_median":24750.0},"vivrescore":80},{"code_insee":"34017","nom":"Aumes","codes_postaux":["34530"],"code_dep":"34","code_region":"76","population":498,"surface_km2":7.41,"lat":43.4632,"lon":3.4695,"fibre_pct":100.0,"securite":{"taux_pour_mille":0.0,"annee":2024},"socio":{"annee":2021,"revenu_median":23840.0},"vivrescore":87},{"code_insee":"34018","nom":"Autignac","codes_postaux":["34480"],"code_dep":"34","code_region":"76","population":982,"surface_km2":11.63,"lat":43.4991,"lon":3.1636,"fibre_pct":99.9,"securite":{"taux_pour_mille":5.2,"annee":2024},"socio":{"annee":2021,"revenu_median":21750.0},"vivrescore":80},{"code_insee":"34019","nom":"Avène","codes_postaux":["34260"],"code_dep":"34","code_region":"76","population":294,"surface_km2":62.22,"lat":43.7513,"lon":3.1107,"fibre_pct":92.8,"securite":{"taux_pour_mille":0.0,"annee":2024},"socio":{"annee":2021,"revenu_median":18270.0},"vivrescore":73},{"code_insee":"34020","nom":"Azillanet","codes_postaux":["34210"],"code_dep":"34","code_region":"76","population":357,"surface_km2":14.36,"lat":43.3263,"lon":2.7475,"fibre_pct":98.2,"securite":{"taux_pour_mille":0.0,"annee":2024},"socio":{"annee":2021,"revenu_median":19560.0},"vivrescore":80},{"code_insee":"34021","nom":"Babeau-Bouldoux","codes_postaux":["34360"],"code_dep":"34","code_region":"76","population":309,"surface_km2":21.34,"lat":43.4395,"lon":2.8918,"fibre_pct":99.6,"securite":{"taux_pour_mille":0.0,"annee":2024},"socio":{"annee":2021,"revenu_median":19860.0},"vivrescore":80},{"code_insee":"34022","nom":"Baillargues","codes_postaux":["34670"],"code_dep":"34","code_region":"76","population":7829,"surface_km2":7.82,"lat":43.6565,"lon":4.0102,"fibre_pct":97.3,"securite":{"taux_pour_mille":49.4,"annee":2024},"socio":{"annee":2021,"revenu_median":25640.0,"taux_pauvrete":10.0},"vivrescore":75},{"code_insee":"34023","nom":"Balaruc-les-Bains","codes_postaux":["34540"],"code_dep":"34","code_region":"76","population":7139,"surface_km2":8.67,"lat":43.4476,"lon":3.6922,"fibre_pct":96.3,"securite":{"taux_pour_mille":52.6,"annee":2024},"socio":{"annee":2021,"taux_pauvrete":13.0,"revenu_median":23210.0},"vivrescore":65},{"code_insee":"34024","nom":"Balaruc-le-Vieux","codes_postaux":["34540"],"code_dep":"34","code_region":"76","population":2737,"surface_km2":6.92,"lat":43.465,"lon":3.6971,"fibre_pct":99.0,"securite":{"taux_pour_mille":70.6,"annee":2024},"socio":{"annee":2021,"revenu_median":24440.0,"taux_pauvrete":9.0},"vivrescore":70},{"code_insee":"34025","nom":"Bassan","codes_postaux":["34290"],"code_dep":"34","code_region":"76","population":2383,"surface_km2":6.86,"lat":43.4093,"lon":3.2563,"fibre_pct":98.3,"securite":{"taux_pour_mille":7.6,"annee":2024},"socio":{"annee":2021,"revenu_median":22540.0,"taux_pauvrete":14.0},"vivrescore":80},{"code_insee":"34026","nom":"Beaufort","codes_postaux":["34210"],"code_dep":"34","code_region":"76","population":214,"surface_km2":6.07,"lat":43.3032,"lon":2.7705,"fibre_pct":99.0,"securite":{"taux_pour_mille":0.0,"annee":2024},"socio":{"annee":2021,"revenu_median":20860.0},"vivrescore":87},{"code_insee":"34027","nom":"Beaulieu","codes_postaux":["34160"],"code_dep":"34","code_region":"76","population":2264,"surface_km2":7.89,"lat":43.7293,"lon":4.0256,"fibre_pct":98.7,"securite":{"taux_pour_mille":11.6,"annee":2024},"socio":{"annee":2021,"revenu_median":27020.0},"vivrescore":87},{"code_insee":"34028","nom":"Bédarieux","codes_postaux":["34600"],"code_dep":"34","code_region":"76","population":5804,"surface_km2":28.13,"lat":43.6113,"lon":3.1637,"fibre_pct":96.8,"securite":{"taux_pour_mille":64.6,"annee":2024},"socio":{"annee":2021,"taux_pauvrete":28.0,"revenu_median":18140.0},"vivrescore":50},{"code_insee":"34029","nom":"Bélarga","codes_postaux":["34230"],"code_dep":"34","code_region":"76","population":664,"surface_km2":4.16,"lat":43.5547,"lon":3.5001,"fibre_pct":98.7,"securite":{"taux_pour_mille":0.0,"annee":2024},"socio":{"annee":2021,"revenu_median":22200.0},"vivrescore":87},{"code_insee":"34030","nom":"Berlou","codes_postaux":["34360"],"code_dep":"34","code_region":"76","population":211,"surface_km2":11.28,"lat":43.4997,"lon":2.948,"fibre_pct":95.0,"securite":{"taux_pour_mille":0.0,"annee":2024},"socio":{"annee":2021,"revenu_median":19600.0},"vivrescore":80},{"code_insee":"34031","nom":"Bessan","codes_postaux":["34550"],"code_dep":"34","code_region":"76","population":5838,"surface_km2":27.88,"lat":43.3566,"lon":3.4141,"fibre_pct":97.4,"securite":{"taux_pour_mille":41.5,"annee":2024},"socio":{"annee":2021,"taux_pauvrete":19.0,"revenu_median":20810.0},"vivrescore":60},{"code_insee":"34032","nom":"Béziers","codes_postaux":["34500"],"code_dep":"34","code_region":"76","population":81545,"surface_km2":95.78,"lat":43.3481,"lon":3.2342,"fibre_pct":90.9,"securite":{"taux_pour_mille":70.6,"annee":2024},"socio":{"annee":2021,"taux_pauvrete":36.0,"revenu_median":16830.0},"vivrescore":40},{"code_insee":"34033","nom":"Boisseron","codes_postaux":["34160"],"code_dep":"34","code_region":"76","population":2185,"surface_km2":7.49,"lat":43.7535,"lon":4.0747,"fibre_pct":99.3,"securite":{"taux_pour_mille":17.9,"annee":2024},"socio":{"annee":2021,"revenu_median":25430.0},"vivrescore":80},{"code_insee":"34034","nom":"Boisset","codes_postaux":["34220"],"code_dep":"34","code_region":"76","population":43,"surface_km2":17.41,"lat":43.4041,"lon":2.6847,"fibre_pct":88.1,"securite":{"taux_pour_mille":0.0,"annee":2024},"vivrescore":90},{"code_insee":"34035","nom":"La Boissière","codes_postaux":["34150"],"code_dep":"34","code_region":"76","population":1072,"surface_km2":24.46,"lat":43.6594,"lon":3.6472,"fibre_pct":98.5,"securite":{"taux_pour_mille":0.0,"annee":2024},"socio":{"annee":2021,"revenu_median":26690.0},"vivrescore":93},{"code_insee":"34036","nom":"Le Bosc","codes_postaux":["34700"],"code_dep":"34","code_region":"76","population":1435,"surface_km2":28.08,"lat":43.6985,"lon":3.3896,"fibre_pct":98.7,"securite":{"taux_pour_mille":27.7,"annee":2024},"socio":{"annee":2021,"revenu_median":21880.0},"vivrescore":67},{"code_insee":"34037","nom":"Boujan-sur-Libron","codes_postaux":["34760"],"code_dep":"34","code_region":"76","population":3619,"surface_km2":7.07,"lat":43.3803,"lon":3.2628,"fibre_pct":99.3,"securite":{"taux_pour_mille":17.5,"annee":2024},"socio":{"annee":2021,"taux_pauvrete":15.0,"revenu_median":22710.0},"vivrescore":75},{"code_insee":"34038","nom":"Le Bousquet-d'Orb","codes_postaux":["34260"],"code_dep":"34","code_region":"76","population":1599,"surface_km2":11.84,"lat":43.7011,"lon":3.1495,"fibre_pct":98.3,"securite":{"taux_pour_mille":21.3,"annee":2024},"socio":{"annee":2021,"revenu_median":18710.0},"vivrescore":67},{"code_insee":"34039","nom":"Bouzigues","codes_postaux":["34140"],"code_dep":"34","code_region":"76","population":1601,"surface_km2":6.5,"lat":43.445,"lon":3.6563,"fibre_pct":97.9,"securite":{"taux_pour_mille":21.7,"annee":2024},"socio":{"annee":2021,"revenu_median":25250.0},"vivrescore":80},{"code_insee":"34040","nom":"Brenas","codes_postaux":["34650"],"code_dep":"34","code_region":"76","population":58,"surface_km2":10.51,"lat":43.6402,"lon":3.2521,"fibre_pct":84.1,"securite":{"taux_pour_mille":0.0,"annee":2024},"vivrescore":90},{"code_insee":"34041","nom":"Brignac","codes_postaux":["34800"],"code_dep":"34","code_region":"76","population":978,"surface_km2":4.7,"lat":43.6228,"lon":3.4704,"fibre_pct":97.0,"securite":{"taux_pour_mille":5.1,"annee":2024},"socio":{"annee":2021,"revenu_median":20840.0},"vivrescore":80},{"code_insee":"34042","nom":"Brissac","codes_postaux":["34190"],"code_dep":"34","code_region":"76","population":615,"surface_km2":43.96,"lat":43.8681,"lon":3.7119,"fibre_pct":87.4,"securite":{"taux_pour_mille":25.3,"annee":2024},"socio":{"annee":2021,"revenu_median":23020.0},"vivrescore":60},{"code_insee":"34043","nom":"Buzignargues","codes_postaux":["34160"],"code_dep":"34","code_region":"76","population":378,"surface_km2":4.61,"lat":43.7721,"lon":3.9951,"fibre_pct":96.7,"securite":{"taux_pour_mille":0.0,"annee":2024},"socio":{"annee":2021,"revenu_median":24990.0},"vivrescore":87},{"code_insee":"34044","nom":"Cabrerolles","codes_postaux":["34480"],"code_dep":"34","code_region":"76","population":343,"surface_km2":28.58,"lat":43.5363,"lon":3.1226,"fibre_pct":95.4,"securite":{"taux_pour_mille":0.0,"annee":2024},"socio":{"annee":2021,"revenu_median":21530.0},"vivrescore":87},{"code_insee":"34045","nom":"Cabrières","codes_postaux":["34800"],"code_dep":"34","code_region":"76","population":560,"surface_km2":28.96,"lat":43.5779,"lon":3.3473,"fibre_pct":98.5,"securite":{"taux_pour_mille":0.0,"annee":2024},"socio":{"annee":2021,"revenu_median":20460.0},"vivrescore":87},{"code_insee":"34046","nom":"Cambon-et-Salvergues","codes_postaux":["34330"],"code_dep":"34","code_region":"76","population":52,"surface_km2":49.93,"lat":43.6249,"lon":2.8877,"fibre_pct":82.4,"securite":{"taux_pour_mille":0.0,"annee":2024},"vivrescore":90},{"code_insee":"34047","nom":"Campagnan","codes_postaux":["34230"],"code_dep":"34","code_region":"76","population":714,"surface_km2":3.8,"lat":43.5406,"lon":3.4936,"fibre_pct":98.8,"securite":{"taux_pour_mille":13.9,"annee":2024},"socio":{"annee":2021,"revenu_median":22000.0},"vivrescore":80},{"code_insee":"34048","nom":"Campagne","codes_postaux":["34160"],"code_dep":"34","code_region":"76","population":318,"surface_km2":4.88,"lat":43.7868,"lon":4.0332,"fibre_pct":100.0,"securite":{"taux_pour_mille":0.0,"annee":2024},"socio":{"annee":2021,"revenu_median":22300.0},"vivrescore":87},{"code_insee":"34049","nom":"Camplong","codes_postaux":["34260"],"code_dep":"34","code_region":"76","population":212,"surface_km2":13.11,"lat":43.6842,"lon":3.1056,"fibre_pct":95.9,"securite":{"taux_pour_mille":0.0,"annee":2024},"socio":{"annee":2021,"revenu_median":20010.0},"vivrescore":87},{"code_insee":"34050","nom":"Candillargues","codes_postaux":["34130"],"code_dep":"34","code_region":"76","population":2091,"surface_km2":8.4,"lat":43.6185,"lon":4.0641,"fibre_pct":100.0,"securite":{"taux_pour_mille":9.5,"annee":2024},"socio":{"annee":2021,"revenu_median":25040.0},"vivrescore":87},{"code_insee":"34051","nom":"Canet","codes_postaux":["34800"],"code_dep":"34","code_region":"76","population":3619,"surface_km2":7.32,"lat":43.5992,"lon":3.4821,"fibre_pct":98.2,"securite":{"taux_pour_mille":26.1,"annee":2024},"socio":{"annee":2021,"revenu_median":22940.0,"taux_pauvrete":13.0},"vivrescore":70},{"code_insee":"34052","nom":"Capestang","codes_postaux":["34310"],"code_dep":"34","code_region":"76","population":3514,"surface_km2":40.53,"lat":43.3184,"lon":3.0501,"fibre_pct":97.3,"securite":{"taux_pour_mille":25.8,"annee":2024},"socio":{"annee":2021,"taux_pauvrete":19.0,"revenu_median":20850.0},"vivrescore":65},{"code_insee":"34053","nom":"Carlencas-et-Levas","codes_postaux":["34600"],"code_dep":"34","code_region":"76","population":110,"surface_km2":10.85,"lat":43.627,"lon":3.2191,"fibre_pct":93.3,"securite":{"taux_pour_mille":0.0,"annee":2024},"socio":{"annee":2021,"revenu_median":19960.0},"vivrescore":73},{"code_insee":"34054","nom":"Cassagnoles","codes_postaux":["34210"],"code_dep":"34","code_region":"76","population":109,"surface_km2":24.12,"lat":43.3994,"lon":2.5994,"fibre_pct":91.3,"securite":{"taux_pour_mille":0.0,"annee":2024},"socio":{"annee":2021,"revenu_median":13740.0},"vivrescore":67},{"code_insee":"34055","nom":"Castanet-le-Haut","codes_postaux":["34610"],"code_dep":"34","code_region":"76","population":224,"surface_km2":27.52,"lat":43.6771,"lon":2.95,"fibre_pct":87.9,"securite":{"taux_pour_mille":0.0,"annee":2024},"socio":{"annee":2021,"revenu_median":18220.0},"vivrescore":73},{"code_insee":"34056","nom":"Castelnau-de-Guers","codes_postaux":["34120"],"code_dep":"34","code_region":"76","population":1208,"surface_km2":22.61,"lat":43.436,"lon":3.4718,"fibre_pct":81.5,"securite":{"taux_pour_mille":15.8,"annee":2024},"socio":{"annee":2021,"revenu_median":21920.0},"vivrescore":67},{"code_insee":"34057","nom":"Castelnau-le-Lez","codes_postaux":["34170"],"code_dep":"34","code_region":"76","population":26058,"surface_km2":11.11,"lat":43.6372,"lon":3.9113,"fibre_pct":95.5,"securite":{"taux_pour_mille":60.5,"annee":2024},"socio":{"annee":2021,"revenu_median":25160.0,"taux_pauvrete":13.0},"vivrescore":70},{"code_insee":"34058","nom":"Castries","codes_postaux":["34160"],"code_dep":"34","code_region":"76","population":6883,"surface_km2":24.12,"lat":43.6905,"lon":3.9853,"fibre_pct":98.7,"securite":{"taux_pour_mille":34.5,"annee":2024},"socio":{"annee":2021,"taux_pauvrete":8.0,"revenu_median":26010.0},"vivrescore":80},{"code_insee":"34059","nom":"La Caunette","codes_postaux":["34210"],"code_dep":"34","code_region":"76","population":326,"surface_km2":21.67,"lat":43.3689,"lon":2.7895,"fibre_pct":99.5,"securite":{"taux_pour_mille":0.0,"annee":2024},"socio":{"annee":2021,"revenu_median":18590.0},"vivrescore":80},{"code_insee":"34060","nom":"Causse-de-la-Selle","codes_postaux":["34380"],"code_dep":"34","code_region":"76","population":454,"surface_km2":45.29,"lat":43.7926,"lon":3.6324,"fibre_pct":99.4,"securite":{"taux_pour_mille":13.5,"annee":2024},"socio":{"annee":2021,"revenu_median":22450.0},"vivrescore":80},{"code_insee":"34061","nom":"Causses-et-Veyran","codes_postaux":["34490"],"code_dep":"34","code_region":"76","population":613,"surface_km2":17.77,"lat":43.4656,"lon":3.0897,"fibre_pct":98.1,"securite":{"taux_pour_mille":0.0,"annee":2024},"socio":{"annee":2021,"revenu_median":19850.0},"vivrescore":80},{"code_insee":"34062","nom":"Caussiniojouls","codes_postaux":["34600"],"code_dep":"34","code_region":"76","population":164,"surface_km2":10.56,"lat":43.5461,"lon":3.1581,"fibre_pct":100.0,"securite":{"taux_pour_mille":0.0,"annee":2024},"socio":{"annee":2021,"revenu_median":20890.0},"vivrescore":87},{"code_insee":"34063","nom":"Caux","codes_postaux":["34720"],"code_dep":"34","code_region":"76","population":2718,"surface_km2":25.05,"lat":43.5031,"lon":3.3709,"fibre_pct":98.3,"securite":{"taux_pour_mille":20.1,"annee":2024},"socio":{"annee":2021,"revenu_median":21810.0,"taux_pauvrete":17.0},"vivrescore":70},{"code_insee":"34064","nom":"Le Caylar","codes_postaux":["34520"],"code_dep":"34","code_region":"76","population":460,"surface_km2":22.47,"lat":43.8717,"lon":3.3102,"fibre_pct":97.1,"securite":{"taux_pour_mille":75.8,"annee":2024},"socio":{"annee":2021,"revenu_median":18430.0},"vivrescore":53},{"code_insee":"34065","nom":"Cazedarnes","codes_postaux":["34460"],"code_dep":"34","code_region":"76","population":682,"surface_km2":11.62,"lat":43.4225,"lon":3.0299,"fibre_pct":91.1,"securite":{"taux_pour_mille":181.2,"annee":2024},"socio":{"annee":2021,"revenu_median":20940.0},"vivrescore":53},{"code_insee":"34066","nom":"Cazevieille","codes_postaux":["34270"],"code_dep":"34","code_region":"76","population":233,"surface_km2":16.24,"lat":43.7664,"lon":3.7869,"fibre_pct":77.4,"securite":{"taux_pour_mille":0.0,"annee":2024},"socio":{"annee":2021,"revenu_median":33500.0},"vivrescore":87},{"code_insee":"34067","nom":"Cazilhac","codes_postaux":["34190"],"code_dep":"34","code_region":"76","population":1605,"surface_km2":11.83,"lat":43.9176,"lon":3.694,"fibre_pct":95.3,"securite":{"taux_pour_mille":7.6,"annee":2024},"socio":{"annee":2021,"revenu_median":21630.0},"vivrescore":80},{"code_insee":"34068","nom":"Cazouls-d'Hérault","codes_postaux":["34120"],"code_dep":"34","code_region":"76","population":420,"surface_km2":4.37,"lat":43.4996,"lon":3.4566,"fibre_pct":99.3,"securite":{"taux_pour_mille":0.0,"annee":2024},"socio":{"annee":2021,"revenu_median":21250.0},"vivrescore":87},{"code_insee":"34069","nom":"Cazouls-lès-Béziers","codes_postaux":["34370"],"code_dep":"34","code_region":"76","population":5261,"surface_km2":38.46,"lat":43.3971,"lon":3.0923,"fibre_pct":97.5,"securite":{"taux_pour_mille":45.9,"annee":2024},"socio":{"annee":2021,"revenu_median":20990.0,"taux_pauvrete":17.0},"vivrescore":60},{"code_insee":"34070","nom":"Cébazan","codes_postaux":["34360"],"code_dep":"34","code_region":"76","population":646,"surface_km2":12.97,"lat":43.4063,"lon":2.9922,"fibre_pct":100.0,"securite":{"taux_pour_mille":0.0,"annee":2024},"socio":{"annee":2021,"revenu_median":22290.0},"vivrescore":87},{"code_insee":"34071","nom":"Ceilhes-et-Rocozels","codes_postaux":["34260"],"code_dep":"34","code_region":"76","population":242,"surface_km2":27.98,"lat":43.8093,"lon":3.0998,"fibre_pct":92.4,"securite":{"taux_pour_mille":0.0,"annee":2024},"socio":{"annee":2021,"revenu_median":17870.0},"vivrescore":73},{"code_insee":"34072","nom":"Celles","codes_postaux":["34700"],"code_dep":"34","code_region":"76","population":26,"surface_km2":7.59,"lat":43.668,"lon":3.3567,"fibre_pct":93.9,"securite":{"taux_pour_mille":320.0,"annee":2024},"vivrescore":50},{"code_insee":"34073","nom":"Cers","codes_postaux":["34420"],"code_dep":"34","code_region":"76","population":2503,"surface_km2":7.97,"lat":43.3314,"lon":3.3176,"fibre_pct":96.9,"securite":{"taux_pour_mille":14.7,"annee":2024},"socio":{"annee":2021,"taux_pauvrete":16.0,"revenu_median":21550.0},"vivrescore":75},{"code_insee":"34074","nom":"Cessenon-sur-Orb","codes_postaux":["34460"],"code_dep":"34","code_region":"76","population":2410,"surface_km2":36.76,"lat":43.4533,"lon":3.0363,"fibre_pct":97.7,"securite":{"taux_pour_mille":22.6,"annee":2024},"socio":{"annee":2021,"taux_pauvrete":19.0,"revenu_median":21500.0},"vivrescore":70},{"code_insee":"34075","nom":"Cesseras","codes_postaux":["34210"],"code_dep":"34","code_region":"76","population":435,"surface_km2":14.94,"lat":43.3311,"lon":2.7018,"fibre_pct":98.8,"securite":{"taux_pour_mille":0.0,"annee":2024},"socio":{"annee":2021,"revenu_median":18700.0},"vivrescore":80},{"code_insee":"34076","nom":"Ceyras","codes_postaux":["34800"],"code_dep":"34","code_region":"76","population":1404,"surface_km2":7.03,"lat":43.6512,"lon":3.4628,"fibre_pct":97.4,"securite":{"taux_pour_mille":13.7,"annee":2024},"socio":{"annee":2021,"revenu_median":22930.0},"vivrescore":80},{"code_insee":"34077","nom":"Clapiers","codes_postaux":["34830"],"code_dep":"34","code_region":"76","population":6006,"surface_km2":7.65,"lat":43.666,"lon":3.8848,"fibre_pct":88.7,"securite":{"taux_pour_mille":24.3,"annee":2024},"socio":{"annee":2021,"taux_pauvrete":9.0,"revenu_median":28000.0},"vivrescore":80},{"code_insee":"34078","nom":"Claret","codes_postaux":["34270"],"code_dep":"34","code_region":"76","population":1745,"surface_km2":28.6,"lat":43.8554,"lon":3.8764,"fibre_pct":99.5,"securite":{"taux_pour_mille":12.4,"annee":2024},"socio":{"annee":2021,"revenu_median":24800.0},"vivrescore":80},{"code_insee":"34079","nom":"Clermont-l'Hérault","codes_postaux":["34800"],"code_dep":"34","code_region":"76","population":9461,"surface_km2":32.69,"lat":43.6323,"lon":3.4017,"fibre_pct":97.2,"securite":{"taux_pour_mille":57.5,"annee":2024},"socio":{"annee":2021,"taux_pauvrete":24.0,"revenu_median":19320.0},"vivrescore":55},{"code_insee":"34080","nom":"Colombières-sur-Orb","codes_postaux":["34390"],"code_dep":"34","code_region":"76","population":498,"surface_km2":8.19,"lat":43.5858,"lon":3.0078,"fibre_pct":95.4,"securite":{"taux_pour_mille":0.0,"annee":2024},"socio":{"annee":2021,"revenu_median":21320.0},"vivrescore":87},{"code_insee":"34081","nom":"Colombiers","codes_postaux":["34440"],"code_dep":"34","code_region":"76","population":2814,"surface_km2":10.19,"lat":43.3175,"lon":3.1415,"fibre_pct":94.8,"securite":{"taux_pour_mille":28.7,"annee":2024},"socio":{"annee":2021,"taux_pauvrete":13.0,"revenu_median":22970.0},"vivrescore":65},{"code_insee":"34082","nom":"Combaillaux","codes_postaux":["34980"],"code_dep":"34","code_region":"76","population":2001,"surface_km2":9.04,"lat":43.6744,"lon":3.7847,"fibre_pct":97.4,"securite":{"taux_pour_mille":7.1,"annee":2024},"socio":{"annee":2021,"revenu_median":29020.0},"vivrescore":87},{"code_insee":"34083","nom":"Combes","codes_postaux":["34240"],"code_dep":"34","code_region":"76","population":318,"surface_km2":10.89,"lat":43.6025,"lon":3.0511,"fibre_pct":97.8,"securite":{"taux_pour_mille":0.0,"annee":2024},"socio":{"annee":2021,"revenu_median":21900.0},"vivrescore":87},{"code_insee":"34084","nom":"Corneilhan","codes_postaux":["34490"],"code_dep":"34","code_region":"76","population":1622,"surface_km2":14.32,"lat":43.4026,"lon":3.1927,"fibre_pct":99.6,"securite":{"taux_pour_mille":12.3,"annee":2024},"socio":{"annee":2021,"revenu_median":22500.0},"vivrescore":80},{"code_insee":"34085","nom":"Coulobres","codes_postaux":["34290"],"code_dep":"34","code_region":"76","population":367,"surface_km2":3.03,"lat":43.4506,"lon":3.2746,"fibre_pct":100.0,"securite":{"taux_pour_mille":0.0,"annee":2024},"socio":{"annee":2021,"revenu_median":22510.0},"vivrescore":87},{"code_insee":"34086","nom":"Courniou","codes_postaux":["34220"],"code_dep":"34","code_region":"76","population":610,"surface_km2":30.31,"lat":43.4889,"lon":2.6951,"fibre_pct":98.9,"securite":{"taux_pour_mille":0.0,"annee":2024},"socio":{"annee":2021,"revenu_median":19670.0},"vivrescore":80},{"code_insee":"34087","nom":"Cournonsec","codes_postaux":["34660"],"code_dep":"34","code_region":"76","population":3616,"surface_km2":12.18,"lat":43.5395,"lon":3.7024,"fibre_pct":95.3,"securite":{"taux_pour_mille":20.9,"annee":2024},"socio":{"annee":2021,"revenu_median":24160.0,"taux_pauvrete":11.0},"vivrescore":75},{"code_insee":"34088","nom":"Cournonterral","codes_postaux":["34660"],"code_dep":"34","code_region":"76","population":7359,"surface_km2":28.84,"lat":43.5712,"lon":3.7072,"fibre_pct":94.0,"securite":{"taux_pour_mille":32.8,"annee":2024},"socio":{"annee":2021,"taux_pauvrete":15.0,"revenu_median":22850.0},"vivrescore":65},{"code_insee":"34089","nom":"Creissan","codes_postaux":["34370"],"code_dep":"34","code_region":"76","population":1436,"surface_km2":8.65,"lat":43.3759,"lon":3.0021,"fibre_pct":98.8,"securite":{"taux_pour_mille":5.7,"annee":2024},"socio":{"annee":2021,"revenu_median":21720.0},"vivrescore":80},{"code_insee":"34090","nom":"Le Crès","codes_postaux":["34920"],"code_dep":"34","code_region":"76","population":9226,"surface_km2":5.81,"lat":43.6513,"lon":3.9343,"fibre_pct":98.9,"securite":{"taux_pour_mille":37.4,"annee":2024},"socio":{"annee":2021,"revenu_median":25900.0,"taux_pauvrete":9.0},"vivrescore":80},{"code_insee":"34091","nom":"Le Cros","codes_postaux":["34520"],"code_dep":"34","code_region":"76","population":60,"surface_km2":22.2,"lat":43.8825,"lon":3.3675,"fibre_pct":88.9,"securite":{"taux_pour_mille":0.0,"annee":2024},"vivrescore":90},{"code_insee":"34092","nom":"Cruzy","codes_postaux":["34310"],"code_dep":"34","code_region":"76","population":992,"surface_km2":25.98,"lat":43.3528,"lon":2.9244,"fibre_pct":97.9,"securite":{"taux_pour_mille":17.8,"annee":2024},"socio":{"annee":2021,"revenu_median":19610.0},"vivrescore":67},{"code_insee":"34094","nom":"Espondeilhan","codes_postaux":["34290"],"code_dep":"34","code_region":"76","population":1268,"surface_km2":5.1,"lat":43.4385,"lon":3.2594,"fibre_pct":85.8,"securite":{"taux_pour_mille":0.0,"annee":2024},"socio":{"annee":2021,"revenu_median":21880.0},"vivrescore":80},{"code_insee":"34095","nom":"Fabrègues","codes_postaux":["34690"],"code_dep":"34","code_region":"76","population":7447,"surface_km2":31.99,"lat":43.5312,"lon":3.7737,"fibre_pct":89.6,"securite":{"taux_pour_mille":60.1,"annee":2024},"socio":{"annee":2021,"taux_pauvrete":9.0,"revenu_median":24410.0},"vivrescore":65},{"code_insee":"34096","nom":"Faugères","codes_postaux":["34600"],"code_dep":"34","code_region":"76","population":548,"surface_km2":26.1,"lat":43.5665,"lon":3.174,"fibre_pct":98.2,"securite":{"taux_pour_mille":0.0,"annee":2024},"socio":{"annee":2021,"revenu_median":21290.0},"vivrescore":87},{"code_insee":"34097","nom":"Félines-Minervois","codes_postaux":["34210"],"code_dep":"34","code_region":"76","population":502,"surface_km2":30.22,"lat":43.3571,"lon":2.582,"fibre_pct":99.8,"securite":{"taux_pour_mille":0.0,"annee":2024},"socio":{"annee":2021,"revenu_median":18210.0},"vivrescore":80},{"code_insee":"34098","nom":"Ferrals-les-Montagnes","codes_postaux":["34210"],"code_dep":"34","code_region":"76","population":156,"surface_km2":25.55,"lat":43.4174,"lon":2.6392,"fibre_pct":96.2,"securite":{"taux_pour_mille":0.0,"annee":2024},"socio":{"annee":2021,"revenu_median":17330.0},"vivrescore":80},{"code_insee":"34099","nom":"Ferrières-les-Verreries","codes_postaux":["34190"],"code_dep":"34","code_region":"76","population":47,"surface_km2":17.39,"lat":43.8654,"lon":3.8026,"fibre_pct":100.0,"securite":{"taux_pour_mille":0.0,"annee":2024},"vivrescore":100},{"code_insee":"34100","nom":"Ferrières-Poussarou","codes_postaux":["34360"],"code_dep":"34","code_region":"76","population":74,"surface_km2":25.68,"lat":43.4811,"lon":2.9065,"fibre_pct":95.7,"securite":{"taux_pour_mille":0.0,"annee":2024},"vivrescore":100},{"code_insee":"34101","nom":"Florensac","codes_postaux":["34510"],"code_dep":"34","code_region":"76","population":5254,"surface_km2":36.01,"lat":43.382,"lon":3.4617,"fibre_pct":98.6,"securite":{"taux_pour_mille":39.3,"annee":2024},"socio":{"annee":2021,"revenu_median":20750.0,"taux_pauvrete":18.0},"vivrescore":65},{"code_insee":"34102","nom":"Fontanès","codes_postaux":["34270"],"code_dep":"34","code_region":"76","population":358,"surface_km2":8.25,"lat":43.7936,"lon":3.9203,"fibre_pct":95.5,"securite":{"taux_pour_mille":0.0,"annee":2024},"socio":{"annee":2021,"revenu_median":27330.0},"vivrescore":93},{"code_insee":"34103","nom":"Fontès","codes_postaux":["34320"],"code_dep":"34","code_region":"76","population":1060,"surface_km2":17.72,"lat":43.5414,"lon":3.3881,"fibre_pct":98.1,"securite":{"taux_pour_mille":0.0,"annee":2024},"socio":{"annee":2021,"revenu_median":21500.0},"vivrescore":87},{"code_insee":"34104","nom":"Fos","codes_postaux":["34320"],"code_dep":"34","code_region":"76","population":133,"surface_km2":6.56,"lat":43.567,"lon":3.2451,"fibre_pct":100.0,"securite":{"taux_pour_mille":0.0,"annee":2024},"socio":{"annee":2021,"revenu_median":18380.0},"vivrescore":80},{"code_insee":"34105","nom":"Fouzilhon","codes_postaux":["34480"],"code_dep":"34","code_region":"76","population":243,"surface_km2":5.43,"lat":43.5095,"lon":3.24,"fibre_pct":95.5,"securite":{"taux_pour_mille":0.0,"annee":2024},"socio":{"annee":2021,"revenu_median":23050.0},"vivrescore":87},{"code_insee":"34106","nom":"Fozières","codes_postaux":["34700"],"code_dep":"34","code_region":"76","population":194,"surface_km2":5.42,"lat":43.7517,"lon":3.354,"fibre_pct":100.0,"securite":{"taux_pour_mille":0.0,"annee":2024},"socio":{"annee":2021,"revenu_median":24900.0},"vivrescore":87},{"code_insee":"34107","nom":"Fraisse-sur-Agout","codes_postaux":["34330"],"code_dep":"34","code_region":"76","population":319,"surface_km2":58.48,"lat":43.5964,"lon":2.7992,"fibre_pct":84.0,"securite":{"taux_pour_mille":0.0,"annee":2024},"socio":{"annee":2021,"revenu_median":18790.0},"vivrescore":73},{"code_insee":"34108","nom":"Frontignan","codes_postaux":["34110"],"code_dep":"34","code_region":"76","population":24136,"surface_km2":40.01,"lat":43.4486,"lon":3.7493,"fibre_pct":97.1,"securite":{"taux_pour_mille":45.1,"annee":2024},"socio":{"annee":2021,"taux_pauvrete":16.0,"revenu_median":21830.0},"vivrescore":60},{"code_insee":"34109","nom":"Gabian","codes_postaux":["34320"],"code_dep":"34","code_region":"76","population":886,"surface_km2":16.08,"lat":43.5182,"lon":3.2621,"fibre_pct":99.0,"securite":{"taux_pour_mille":32.4,"annee":2024},"socio":{"annee":2021,"revenu_median":19550.0},"vivrescore":60},{"code_insee":"34110","nom":"Galargues","codes_postaux":["34160"],"code_dep":"34","code_region":"76","population":752,"surface_km2":11.4,"lat":43.7844,"lon":4.0141,"fibre_pct":92.2,"securite":{"taux_pour_mille":0.0,"annee":2024},"socio":{"annee":2021,"revenu_median":23120.0},"vivrescore":80},{"code_insee":"34111","nom":"Ganges","codes_postaux":["34190"],"code_dep":"34","code_region":"76","population":3724,"surface_km2":7.21,"lat":43.9448,"lon":3.7039,"fibre_pct":92.9,"securite":{"taux_pour_mille":74.7,"annee":2024},"socio":{"annee":2021,"revenu_median":17450.0,"taux_pauvrete":31.0},"vivrescore":45},{"code_insee":"34112","nom":"Garrigues","codes_postaux":["34160"],"code_dep":"34","code_region":"76","population":236,"surface_km2":4.94,"lat":43.7996,"lon":4.0129,"fibre_pct":97.6,"securite":{"taux_pour_mille":0.0,"annee":2024},"socio":{"annee":2021,"revenu_median":24840.0},"vivrescore":87},{"code_insee":"34113","nom":"Gigean","codes_postaux":["34770"],"code_dep":"34","code_region":"76","population":6639,"surface_km2":16.3,"lat":43.4953,"lon":3.7242,"fibre_pct":97.7,"securite":{"taux_pour_mille":46.3,"annee":2024},"socio":{"annee":2021,"revenu_median":22830.0,"taux_pauvrete":14.0},"vivrescore":65},{"code_insee":"34114","nom":"Gignac","codes_postaux":["34150"],"code_dep":"34","code_region":"76","population":6651,"surface_km2":29.89,"lat":43.6416,"lon":3.5661,"fibre_pct":97.5,"securite":{"taux_pour_mille":50.4,"annee":2024},"socio":{"annee":2021,"revenu_median":21810.0,"taux_pauvrete":16.0},"vivrescore":60},{"code_insee":"34115","nom":"Gorniès","codes_postaux":["34190"],"code_dep":"34","code_region":"76","population":103,"surface_km2":29.29,"lat":43.8848,"lon":3.6224,"fibre_pct":92.3,"securite":{"taux_pour_mille":0.0,"annee":2024},"socio":{"annee":2021,"revenu_median":21040.0},"vivrescore":80},{"code_insee":"34116","nom":"Grabels","codes_postaux":["34790"],"code_dep":"34","code_region":"76","population":9092,"surface_km2":16.58,"lat":43.6503,"lon":3.7894,"fibre_pct":94.1,"securite":{"taux_pour_mille":44.6,"annee":2024},"socio":{"annee":2021,"taux_pauvrete":15.0,"revenu_median":24100.0},"vivrescore":60},{"code_insee":"34117","nom":"Graissessac","codes_postaux":["34260"],"code_dep":"34","code_region":"76","population":554,"surface_km2":9.87,"lat":43.6866,"lon":3.0873,"fibre_pct":93.5,"securite":{"taux_pour_mille":0.0,"annee":2024},"socio":{"annee":2021,"revenu_median":17600.0},"vivrescore":73},{"code_insee":"34118","nom":"Guzargues","codes_postaux":["34820"],"code_dep":"34","code_region":"76","population":502,"surface_km2":11.61,"lat":43.728,"lon":3.923,"fibre_pct":99.6,"securite":{"taux_pour_mille":0.0,"annee":2024},"socio":{"annee":2021,"revenu_median":31110.0},"vivrescore":100},{"code_insee":"34119","nom":"Hérépian","codes_postaux":["34600"],"code_dep":"34","code_region":"76","population":1594,"surface_km2":8.85,"lat":43.5923,"lon":3.1194,"fibre_pct":98.9,"securite":{"taux_pour_mille":19.9,"annee":2024},"socio":{"annee":2021,"revenu_median":20040.0},"vivrescore":73},{"code_insee":"34120","nom":"Jacou","codes_postaux":["34830"],"code_dep":"34","code_region":"76","population":6924,"surface_km2":3.35,"lat":43.6648,"lon":3.9138,"fibre_pct":100.0,"securite":{"taux_pour_mille":36.2,"annee":2024},"socio":{"annee":2021,"revenu_median":26300.0,"taux_pauvrete":9.0},"vivrescore":80},{"code_insee":"34121","nom":"Joncels","codes_postaux":["34650"],"code_dep":"34","code_region":"76","population":256,"surface_km2":46.39,"lat":43.7691,"lon":3.1834,"fibre_pct":91.6,"securite":{"taux_pour_mille":130.3,"annee":2024},"socio":{"annee":2021,"revenu_median":20350.0},"vivrescore":53},{"code_insee":"34122","nom":"Jonquières","codes_postaux":["34725"],"code_dep":"34","code_region":"76","population":590,"surface_km2":2.06,"lat":43.6747,"lon":3.4781,"fibre_pct":98.0,"securite":{"taux_pour_mille":0.0,"annee":2024},"socio":{"annee":2021,"revenu_median":22180.0},"vivrescore":87},{"code_insee":"34123","nom":"Juvignac","codes_postaux":["34990"],"code_dep":"34","code_region":"76","population":14055,"surface_km2":10.9,"lat":43.6173,"lon":3.7908,"fibre_pct":98.7,"securite":{"taux_pour_mille":47.3,"annee":2024},"socio":{"annee":2021,"taux_pauvrete":15.0,"revenu_median":23130.0},"vivrescore":65},{"code_insee":"34124","nom":"Lacoste","codes_postaux":["34800"],"code_dep":"34","code_region":"76","population":303,"surface_km2":7.42,"lat":43.6557,"lon":3.4211,"fibre_pct":99.2,"securite":{"taux_pour_mille":0.0,"annee":2024},"socio":{"annee":2021,"revenu_median":24910.0},"vivrescore":87},{"code_insee":"34125","nom":"Lagamas","codes_postaux":["34150"],"code_dep":"34","code_region":"76","population":111,"surface_km2":4.51,"lat":43.6755,"lon":3.5319,"fibre_pct":87.0,"securite":{"taux_pour_mille":0.0,"annee":2024},"socio":{"annee":2021,"revenu_median":24950.0},"vivrescore":80},{"code_insee":"34126","nom":"Lamalou-les-Bains","codes_postaux":["34240"],"code_dep":"34","code_region":"76","population":2389,"surface_km2":6.23,"lat":43.5982,"lon":3.0847,"fibre_pct":83.5,"securite":{"taux_pour_mille":23.5,"annee":2024},"socio":{"annee":2021,"taux_pauvrete":17.0,"revenu_median":21110.0},"vivrescore":65},{"code_insee":"34127","nom":"Lansargues","codes_postaux":["34130"],"code_dep":"34","code_region":"76","population":3233,"surface_km2":18.59,"lat":43.6314,"lon":4.0789,"fibre_pct":98.6,"securite":{"taux_pour_mille":25.2,"annee":2024},"socio":{"annee":2021,"taux_pauvrete":9.0,"revenu_median":24270.0},"vivrescore":75},{"code_insee":"34128","nom":"Laroque","codes_postaux":["34190"],"code_dep":"34","code_region":"76","population":1668,"surface_km2":6.68,"lat":43.9253,"lon":3.7333,"fibre_pct":93.9,"securite":{"taux_pour_mille":26.9,"annee":2024},"socio":{"annee":2021,"revenu_median":21690.0},"vivrescore":60},{"code_insee":"34129","nom":"Lattes","codes_postaux":["34970"],"code_dep":"34","code_region":"76","population":17351,"surface_km2":32.24,"lat":43.567,"lon":3.899,"fibre_pct":90.6,"securite":{"taux_pour_mille":75.3,"annee":2024},"socio":{"annee":2021,"revenu_median":26460.0,"taux_pauvrete":10.0},"vivrescore":70},{"code_insee":"34130","nom":"Laurens","codes_postaux":["34480"],"code_dep":"34","code_region":"76","population":1815,"surface_km2":16.6,"lat":43.5185,"lon":3.1981,"fibre_pct":99.4,"securite":{"taux_pour_mille":5.6,"annee":2024},"socio":{"annee":2021,"revenu_median":21000.0},"vivrescore":80},{"code_insee":"34131","nom":"Lauret","codes_postaux":["34270"],"code_dep":"34","code_region":"76","population":626,"surface_km2":6.62,"lat":43.8309,"lon":3.881,"fibre_pct":99.2,"securite":{"taux_pour_mille":0.0,"annee":2024},"socio":{"annee":2021,"revenu_median":25390.0},"vivrescore":93},{"code_insee":"34132","nom":"Lauroux","codes_postaux":["34700"],"code_dep":"34","code_region":"76","population":214,"surface_km2":26.63,"lat":43.7914,"lon":3.2798,"fibre_pct":98.1,"securite":{"taux_pour_mille":0.0,"annee":2024},"socio":{"annee":2021,"revenu_median":20160.0},"vivrescore":87},{"code_insee":"34133","nom":"Lavalette","codes_postaux":["34700"],"code_dep":"34","code_region":"76","population":53,"surface_km2":8.57,"lat":43.6959,"lon":3.2691,"fibre_pct":84.5,"securite":{"taux_pour_mille":0.0,"annee":2024},"vivrescore":90},{"code_insee":"34134","nom":"Lavérune","codes_postaux":["34880"],"code_dep":"34","code_region":"76","population":3302,"surface_km2":7.16,"lat":43.5848,"lon":3.8003,"fibre_pct":89.6,"securite":{"taux_pour_mille":39.1,"annee":2024},"socio":{"annee":2021,"revenu_median":25360.0,"taux_pauvrete":11.0},"vivrescore":70},{"code_insee":"34135","nom":"Lespignan","codes_postaux":["34710"],"code_dep":"34","code_region":"76","population":3414,"surface_km2":23.0,"lat":43.2737,"lon":3.1689,"fibre_pct":98.7,"securite":{"taux_pour_mille":32.8,"annee":2024},"socio":{"annee":2021,"taux_pauvrete":17.0,"revenu_median":21340.0},"vivrescore":65},{"code_insee":"34136","nom":"Lézignan-la-Cèbe","codes_postaux":["34120"],"code_dep":"34","code_region":"76","population":1580,"surface_km2":6.21,"lat":43.4923,"lon":3.4405,"fibre_pct":99.1,"securite":{"taux_pour_mille":28.0,"annee":2024},"socio":{"annee":2021,"revenu_median":20790.0},"vivrescore":67},{"code_insee":"34137","nom":"Liausson","codes_postaux":["34800"],"code_dep":"34","code_region":"76","population":156,"surface_km2":8.04,"lat":43.6384,"lon":3.3604,"fibre_pct":100.0,"securite":{"taux_pour_mille":0.0,"annee":2024},"socio":{"annee":2021,"revenu_median":19820.0},"vivrescore":80},{"code_insee":"34138","nom":"Lieuran-Cabrières","codes_postaux":["34800"],"code_dep":"34","code_region":"76","population":335,"surface_km2":6.14,"lat":43.5907,"lon":3.4096,"fibre_pct":100.0,"securite":{"taux_pour_mille":0.0,"annee":2024},"socio":{"annee":2021,"revenu_median":24640.0},"vivrescore":87},{"code_insee":"34139","nom":"Lieuran-lès-Béziers","codes_postaux":["34290"],"code_dep":"34","code_region":"76","population":1486,"surface_km2":8.62,"lat":43.4109,"lon":3.2324,"fibre_pct":91.7,"securite":{"taux_pour_mille":10.8,"annee":2024},"socio":{"annee":2021,"revenu_median":23340.0},"vivrescore":73},{"code_insee":"34140","nom":"Lignan-sur-Orb","codes_postaux":["34490"],"code_dep":"34","code_region":"76","population":3227,"surface_km2":3.42,"lat":43.383,"lon":3.1728,"fibre_pct":97.6,"securite":{"taux_pour_mille":14.3,"annee":2024},"socio":{"annee":2021,"taux_pauvrete":11.0,"revenu_median":23050.0},"vivrescore":80},{"code_insee":"34141","nom":"La Livinière","codes_postaux":["34210"],"code_dep":"34","code_region":"76","population":530,"surface_km2":31.11,"lat":43.3377,"lon":2.637,"fibre_pct":100.0,"securite":{"taux_pour_mille":0.0,"annee":2024},"socio":{"annee":2021,"revenu_median":18790.0},"vivrescore":80},{"code_insee":"34142","nom":"Lodève","codes_postaux":["34700"],"code_dep":"34","code_region":"76","population":7251,"surface_km2":23.26,"lat":43.7296,"lon":3.2949,"fibre_pct":96.9,"securite":{"taux_pour_mille":57.3,"annee":2024},"socio":{"annee":2021,"revenu_median":18140.0,"taux_pauvrete":30.0},"vivrescore":50},{"code_insee":"34143","nom":"Loupian","codes_postaux":["34140"],"code_dep":"34","code_region":"76","population":2169,"surface_km2":23.26,"lat":43.4509,"lon":3.6279,"fibre_pct":98.6,"securite":{"taux_pour_mille":58.3,"annee":2024},"socio":{"annee":2021,"revenu_median":21680.0,"taux_pauvrete":15.0},"vivrescore":65},{"code_insee":"34144","nom":"Lunas-les-Châteaux","codes_postaux":["34650"],"code_dep":"34","code_region":"76","population":832,"surface_km2":63.6,"lat":43.6977,"lon":3.1951,"fibre_pct":97.8,"securite":{"taux_pour_mille":14.6,"annee":2024},"socio":{"annee":2021,"revenu_median":21020.0},"vivrescore":80},{"code_insee":"34145","nom":"Lunel","codes_postaux":["34400"],"code_dep":"34","code_region":"76","population":26623,"surface_km2":24.18,"lat":43.678,"lon":4.1329,"fibre_pct":98.9,"securite":{"taux_pour_mille":75.2,"annee":2024},"socio":{"annee":2021,"revenu_median":19600.0,"taux_pauvrete":24.0},"vivrescore":55},{"code_insee":"34146","nom":"Lunel-Viel","codes_postaux":["34400"],"code_dep":"34","code_region":"76","population":4507,"surface_km2":12.13,"lat":43.6803,"lon":4.0821,"fibre_pct":97.9,"securite":{"taux_pour_mille":38.7,"annee":2024},"socio":{"annee":2021,"taux_pauvrete":16.0,"revenu_median":21680.0},"vivrescore":65},{"code_insee":"34147","nom":"Magalas","codes_postaux":["34480"],"code_dep":"34","code_region":"76","population":3582,"surface_km2":20.89,"lat":43.4778,"lon":3.2216,"fibre_pct":99.5,"securite":{"taux_pour_mille":26.6,"annee":2024},"socio":{"annee":2021,"taux_pauvrete":15.0,"revenu_median":21650.0},"vivrescore":70},{"code_insee":"34148","nom":"Maraussan","codes_postaux":["34370"],"code_dep":"34","code_region":"76","population":4789,"surface_km2":12.49,"lat":43.3733,"lon":3.154,"fibre_pct":99.5,"securite":{"taux_pour_mille":26.8,"annee":2024},"socio":{"annee":2021,"revenu_median":21930.0,"taux_pauvrete":17.0},"vivrescore":65},{"code_insee":"34149","nom":"Margon","codes_postaux":["34320"],"code_dep":"34","code_region":"76","population":778,"surface_km2":4.49,"lat":43.4877,"lon":3.3048,"fibre_pct":99.8,"securite":{"taux_pour_mille":0.0,"annee":2024},"socio":{"annee":2021,"revenu_median":20560.0},"vivrescore":87},{"code_insee":"34150","nom":"Marseillan","codes_postaux":["34340"],"code_dep":"34","code_region":"76","population":8414,"surface_km2":52.73,"lat":43.3543,"lon":3.556,"fibre_pct":94.6,"securite":{"taux_pour_mille":71.2,"annee":2024},"socio":{"annee":2021,"taux_pauvrete":20.0,"revenu_median":20880.0},"vivrescore":55},{"code_insee":"34151","nom":"Marsillargues","codes_postaux":["34590"],"code_dep":"34","code_region":"76","population":6988,"surface_km2":42.23,"lat":43.6376,"lon":4.1346,"fibre_pct":96.8,"securite":{"taux_pour_mille":46.1,"annee":2024},"socio":{"annee":2021,"revenu_median":21260.0,"taux_pauvrete":16.0},"vivrescore":60},{"code_insee":"34152","nom":"Mas-de-Londres","codes_postaux":["34380"],"code_dep":"34","code_region":"76","population":674,"surface_km2":19.19,"lat":43.7856,"lon":3.7773,"fibre_pct":93.0,"securite":{"taux_pour_mille":0.0,"annee":2024},"socio":{"annee":2021,"revenu_median":25320.0},"vivrescore":87},{"code_insee":"34153","nom":"Les Matelles","codes_postaux":["34270"],"code_dep":"34","code_region":"76","population":2068,"surface_km2":16.86,"lat":43.7281,"lon":3.8083,"fibre_pct":100.0,"securite":{"taux_pour_mille":5.8,"annee":2024},"socio":{"annee":2021,"revenu_median":28150.0},"vivrescore":87},{"code_insee":"34154","nom":"Mauguio","codes_postaux":["34130"],"code_dep":"34","code_region":"76","population":16522,"surface_km2":76.91,"lat":43.5915,"lon":4.0128,"fibre_pct":92.5,"securite":{"taux_pour_mille":83.5,"annee":2024},"socio":{"annee":2021,"taux_pauvrete":11.0,"revenu_median":25140.0},"vivrescore":65},{"code_insee":"34155","nom":"Maureilhan","codes_postaux":["34370"],"code_dep":"34","code_region":"76","population":2495,"surface_km2":10.38,"lat":43.3517,"lon":3.0982,"fibre_pct":99.3,"securite":{"taux_pour_mille":11.8,"annee":2024},"socio":{"annee":2021,"taux_pauvrete":13.0,"revenu_median":22070.0},"vivrescore":80},{"code_insee":"34156","nom":"Mérifons","codes_postaux":["34800"],"code_dep":"34","code_region":"76","population":62,"surface_km2":6.74,"lat":43.6361,"lon":3.2849,"fibre_pct":83.2,"securite":{"taux_pour_mille":0.0,"annee":2024},"vivrescore":90},{"code_insee":"34157","nom":"Mèze","codes_postaux":["34140"],"code_dep":"34","code_region":"76","population":12669,"surface_km2":47.73,"lat":43.4323,"lon":3.5843,"fibre_pct":97.1,"securite":{"taux_pour_mille":49.7,"annee":2024},"socio":{"annee":2021,"taux_pauvrete":18.0,"revenu_median":21470.0},"vivrescore":60},{"code_insee":"34158","nom":"Minerve","codes_postaux":["34210"],"code_dep":"34","code_region":"76","population":98,"surface_km2":27.66,"lat":43.3624,"lon":2.7166,"fibre_pct":98.7,"securite":{"taux_pour_mille":0.0,"annee":2024},"socio":{"annee":2021,"revenu_median":15300.0},"vivrescore":80},{"code_insee":"34159","nom":"Mireval","codes_postaux":["34110"],"code_dep":"34","code_region":"76","population":3301,"surface_km2":11.23,"lat":43.5158,"lon":3.8022,"fibre_pct":98.6,"securite":{"taux_pour_mille":27.9,"annee":2024},"socio":{"annee":2021,"revenu_median":24520.0,"taux_pauvrete":9.0},"vivrescore":75},{"code_insee":"34160","nom":"Mons","codes_postaux":["34390"],"code_dep":"34","code_region":"76","population":678,"surface_km2":21.95,"lat":43.5716,"lon":2.9755,"fibre_pct":97.6,"securite":{"taux_pour_mille":0.0,"annee":2024},"socio":{"annee":2021,"revenu_median":20150.0},"vivrescore":87},{"code_insee":"34161","nom":"Montady","codes_postaux":["34310"],"code_dep":"34","code_region":"76","population":3990,"surface_km2":9.91,"lat":43.3277,"lon":3.1177,"fibre_pct":98.3,"securite":{"taux_pour_mille":14.9,"annee":2024},"socio":{"annee":2021,"taux_pauvrete":13.0,"revenu_median":22230.0},"vivrescore":80},{"code_insee":"34162","nom":"Montagnac","codes_postaux":["34530"],"code_dep":"34","code_region":"76","population":4515,"surface_km2":39.85,"lat":43.4709,"lon":3.5067,"fibre_pct":98.4,"securite":{"taux_pour_mille":37.6,"annee":2024},"socio":{"annee":2021,"revenu_median":18320.0,"taux_pauvrete":28.0},"vivrescore":55},{"code_insee":"34163","nom":"Montarnaud","codes_postaux":["34570"],"code_dep":"34","code_region":"76","population":4208,"surface_km2":27.55,"lat":43.648,"lon":3.7053,"fibre_pct":98.6,"securite":{"taux_pour_mille":26.8,"annee":2024},"socio":{"annee":2021,"revenu_median":24730.0,"taux_pauvrete":12.0},"vivrescore":70},{"code_insee":"34164","nom":"Montaud","codes_postaux":["34160"],"code_dep":"34","code_region":"76","population":1014,"surface_km2":13.02,"lat":43.7422,"lon":3.9502,"fibre_pct":96.3,"securite":{"taux_pour_mille":0.0,"annee":2024},"socio":{"annee":2021,"revenu_median":26620.0},"vivrescore":93},{"code_insee":"34165","nom":"Montbazin","codes_postaux":["34560"],"code_dep":"34","code_region":"76","population":2877,"surface_km2":21.49,"lat":43.5325,"lon":3.6694,"fibre_pct":98.7,"securite":{"taux_pour_mille":28.6,"annee":2024},"socio":{"annee":2021,"revenu_median":23620.0,"taux_pauvrete":11.0},"vivrescore":70},{"code_insee":"34166","nom":"Montblanc","codes_postaux":["34290"],"code_dep":"34","code_region":"76","population":2932,"surface_km2":27.19,"lat":43.3775,"lon":3.3569,"fibre_pct":98.9,"securite":{"taux_pour_mille":57.3,"annee":2024},"socio":{"annee":2021,"revenu_median":22230.0,"taux_pauvrete":15.0},"vivrescore":65},{"code_insee":"34167","nom":"Montels","codes_postaux":["34310"],"code_dep":"34","code_region":"76","population":247,"surface_km2":7.41,"lat":43.2889,"lon":3.0294,"fibre_pct":91.5,"securite":{"taux_pour_mille":0.0,"annee":2024},"socio":{"annee":2021,"revenu_median":21650.0},"vivrescore":80},{"code_insee":"34168","nom":"Montesquieu","codes_postaux":["34320"],"code_dep":"34","code_region":"76","population":75,"surface_km2":14.53,"lat":43.5637,"lon":3.2708,"fibre_pct":90.0,"securite":{"taux_pour_mille":0.0,"annee":2024},"vivrescore":90},{"code_insee":"34169","nom":"Montferrier-sur-Lez","codes_postaux":["34980"],"code_dep":"34","code_region":"76","population":4135,"surface_km2":7.61,"lat":43.6677,"lon":3.8621,"fibre_pct":98.1,"securite":{"taux_pour_mille":31.1,"annee":2024},"socio":{"annee":2021,"taux_pauvrete":6.0,"revenu_median":33630.0},"vivrescore":85},{"code_insee":"34170","nom":"Montouliers","codes_postaux":["34310"],"code_dep":"34","code_region":"76","population":242,"surface_km2":7.72,"lat":43.3356,"lon":2.9068,"fibre_pct":98.0,"securite":{"taux_pour_mille":0.0,"annee":2024},"socio":{"annee":2021,"revenu_median":21300.0},"vivrescore":87},{"code_insee":"34171","nom":"Montoulieu","codes_postaux":["34190"],"code_dep":"34","code_region":"76","population":189,"surface_km2":16.19,"lat":43.9157,"lon":3.8019,"fibre_pct":83.6,"securite":{"taux_pour_mille":0.0,"annee":2024},"socio":{"annee":2021,"revenu_median":20250.0},"vivrescore":80},{"code_insee":"34172","nom":"Montpellier","codes_postaux":["34000","34070","34080","34090"],"code_dep":"34","code_region":"76","population":310240,"surface_km2":57.1,"lat":43.61,"lon":3.8742,"fibre_pct":87.5,"securite":{"taux_pour_mille":85.5,"annee":2024},"socio":{"annee":2021,"taux_pauvrete":28.0,"revenu_median":19670.0},"vivrescore":45},{"code_insee":"34173","nom":"Montpeyroux","codes_postaux":["34150"],"code_dep":"34","code_region":"76","population":1449,"surface_km2":22.57,"lat":43.7109,"lon":3.5011,"fibre_pct":99.4,"securite":{"taux_pour_mille":6.3,"annee":2024},"socio":{"annee":2021,"revenu_median":22730.0},"vivrescore":80},{"code_insee":"34174","nom":"Moulès-et-Baucels","codes_postaux":["34190"],"code_dep":"34","code_region":"76","population":875,"surface_km2":22.88,"lat":43.9488,"lon":3.7561,"fibre_pct":98.9,"securite":{"taux_pour_mille":0.0,"annee":2024},"socio":{"annee":2021,"revenu_median":21360.0},"vivrescore":87},{"code_insee":"34175","nom":"Mourèze","codes_postaux":["34800"],"code_dep":"34","code_region":"76","population":176,"surface_km2":13.53,"lat":43.6177,"lon":3.3476,"fibre_pct":96.7,"securite":{"taux_pour_mille":0.0,"annee":2024},"socio":{"annee":2021,"revenu_median":21550.0},"vivrescore":87},{"code_insee":"34176","nom":"Mudaison","codes_postaux":["34130"],"code_dep":"34","code_region":"76","population":3009,"surface_km2":8.13,"lat":43.6406,"lon":4.037,"fibre_pct":98.7,"securite":{"taux_pour_mille":25.4,"annee":2024},"socio":{"annee":2021,"taux_pauvrete":8.0,"revenu_median":24820.0},"vivrescore":75},{"code_insee":"34177","nom":"Murles","codes_postaux":["34980"],"code_dep":"34","code_region":"76","population":353,"surface_km2":23.83,"lat":43.7012,"lon":3.7551,"fibre_pct":95.2,"securite":{"taux_pour_mille":0.0,"annee":2024},"socio":{"annee":2021,"revenu_median":28130.0},"vivrescore":93},{"code_insee":"34178","nom":"Murviel-lès-Béziers","codes_postaux":["34490"],"code_dep":"34","code_region":"76","population":3000,"surface_km2":32.46,"lat":43.4597,"lon":3.1362,"fibre_pct":98.7,"securite":{"taux_pour_mille":20.4,"annee":2024},"socio":{"annee":2021,"taux_pauvrete":18.0,"revenu_median":21120.0},"vivrescore":70},{"code_insee":"34179","nom":"Murviel-lès-Montpellier","codes_postaux":["34570"],"code_dep":"34","code_region":"76","population":2075,"surface_km2":10.11,"lat":43.6116,"lon":3.7405,"fibre_pct":92.4,"securite":{"taux_pour_mille":20.0,"annee":2024},"socio":{"annee":2021,"revenu_median":25830.0},"vivrescore":73},{"code_insee":"34180","nom":"Nébian","codes_postaux":["34800"],"code_dep":"34","code_region":"76","population":1634,"surface_km2":9.89,"lat":43.5999,"lon":3.4357,"fibre_pct":99.5,"securite":{"taux_pour_mille":15.9,"annee":2024},"socio":{"annee":2021,"revenu_median":21400.0},"vivrescore":73},{"code_insee":"34181","nom":"Neffiès","codes_postaux":["34320"],"code_dep":"34","code_region":"76","population":1008,"surface_km2":10.95,"lat":43.5381,"lon":3.3363,"fibre_pct":99.0,"securite":{"taux_pour_mille":0.0,"annee":2024},"socio":{"annee":2021,"revenu_median":20930.0},"vivrescore":87},{"code_insee":"34182","nom":"Nézignan-l'Évêque","codes_postaux":["34120"],"code_dep":"34","code_region":"76","population":1718,"surface_km2":4.34,"lat":43.4222,"lon":3.4052,"fibre_pct":95.7,"securite":{"taux_pour_mille":12.1,"annee":2024},"socio":{"annee":2021,"revenu_median":23420.0},"vivrescore":80},{"code_insee":"34183","nom":"Nissan-lez-Enserune","codes_postaux":["34440"],"code_dep":"34","code_region":"76","population":4124,"surface_km2":30.13,"lat":43.282,"lon":3.1051,"fibre_pct":99.2,"securite":{"taux_pour_mille":24.0,"annee":2024},"socio":{"annee":2021,"revenu_median":21220.0,"taux_pauvrete":17.0},"vivrescore":70},{"code_insee":"34184","nom":"Nizas","codes_postaux":["34320"],"code_dep":"34","code_region":"76","population":662,"surface_km2":8.66,"lat":43.5127,"lon":3.4167,"fibre_pct":100.0,"securite":{"taux_pour_mille":0.0,"annee":2024},"socio":{"annee":2021,"revenu_median":21800.0},"vivrescore":87},{"code_insee":"34185","nom":"Notre-Dame-de-Londres","codes_postaux":["34380"],"code_dep":"34","code_region":"76","population":520,"surface_km2":28.28,"lat":43.8376,"lon":3.7546,"fibre_pct":98.4,"securite":{"taux_pour_mille":0.0,"annee":2024},"socio":{"annee":2021,"revenu_median":24080.0},"vivrescore":87},{"code_insee":"34186","nom":"Octon","codes_postaux":["34800"],"code_dep":"34","code_region":"76","population":521,"surface_km2":21.8,"lat":43.6588,"lon":3.2936,"fibre_pct":96.6,"securite":{"taux_pour_mille":15.4,"annee":2024},"socio":{"annee":2021,"revenu_median":21420.0},"vivrescore":73},{"code_insee":"34187","nom":"Olargues","codes_postaux":["34390"],"code_dep":"34","code_region":"76","population":488,"surface_km2":18.53,"lat":43.538,"lon":2.9173,"fibre_pct":97.7,"securite":{"taux_pour_mille":18.3,"annee":2024},"socio":{"annee":2021,"revenu_median":18510.0},"vivrescore":67},{"code_insee":"34188","nom":"Olmet-et-Villecun","codes_postaux":["34700"],"code_dep":"34","code_region":"76","population":163,"surface_km2":9.63,"lat":43.7097,"lon":3.3021,"fibre_pct":92.6,"securite":{"taux_pour_mille":0.0,"annee":2024},"socio":{"annee":2021,"revenu_median":19210.0},"vivrescore":73},{"code_insee":"34189","nom":"Olonzac","codes_postaux":["34210"],"code_dep":"34","code_region":"76","population":1693,"surface_km2":19.24,"lat":43.2816,"lon":2.7431,"fibre_pct":98.3,"securite":{"taux_pour_mille":23.8,"annee":2024},"socio":{"annee":2021,"revenu_median":18780.0},"vivrescore":67},{"code_insee":"34190","nom":"Oupia","codes_postaux":["34210"],"code_dep":"34","code_region":"76","population":274,"surface_km2":8.99,"lat":43.2897,"lon":2.7791,"fibre_pct":99.6,"securite":{"taux_pour_mille":0.0,"annee":2024},"socio":{"annee":2021,"revenu_median":17250.0},"vivrescore":80},{"code_insee":"34191","nom":"Pailhès","codes_postaux":["34490"],"code_dep":"34","code_region":"76","population":622,"surface_km2":5.99,"lat":43.4386,"lon":3.1854,"fibre_pct":91.2,"securite":{"taux_pour_mille":0.0,"annee":2024},"socio":{"annee":2021,"revenu_median":24330.0},"vivrescore":80},{"code_insee":"34192","nom":"Palavas-les-Flots","codes_postaux":["34250"],"code_dep":"34","code_region":"76","population":6133,"surface_km2":9.23,"lat":43.5323,"lon":3.9346,"fibre_pct":98.8,"securite":{"taux_pour_mille":317.1,"annee":2024},"socio":{"annee":2021,"taux_pauvrete":16.0,"revenu_median":22190.0},"vivrescore":60},{"code_insee":"34193","nom":"Pardailhan","codes_postaux":["34360"],"code_dep":"34","code_region":"76","population":193,"surface_km2":41.12,"lat":43.447,"lon":2.8288,"fibre_pct":99.2,"securite":{"taux_pour_mille":0.0,"annee":2024},"socio":{"annee":2021,"revenu_median":18680.0},"vivrescore":80},{"code_insee":"34194","nom":"Paulhan","codes_postaux":["34230"],"code_dep":"34","code_region":"76","population":4039,"surface_km2":11.37,"lat":43.5378,"lon":3.4599,"fibre_pct":99.7,"securite":{"taux_pour_mille":39.5,"annee":2024},"socio":{"annee":2021,"revenu_median":20570.0,"taux_pauvrete":18.0},"vivrescore":65},{"code_insee":"34195","nom":"Pégairolles-de-Buèges","codes_postaux":["34380"],"code_dep":"34","code_region":"76","population":54,"surface_km2":13.22,"lat":43.8066,"lon":3.5741,"fibre_pct":100.0,"securite":{"taux_pour_mille":0.0,"annee":2024},"vivrescore":100},{"code_insee":"34196","nom":"Pégairolles-de-l'Escalette","codes_postaux":["34700"],"code_dep":"34","code_region":"76","population":151,"surface_km2":31.87,"lat":43.8136,"lon":3.3337,"fibre_pct":95.8,"securite":{"taux_pour_mille":0.0,"annee":2024},"socio":{"annee":2021,"revenu_median":21400.0},"vivrescore":87},{"code_insee":"34197","nom":"Péret","codes_postaux":["34800"],"code_dep":"34","code_region":"76","population":1137,"surface_km2":11.05,"lat":43.5763,"lon":3.4016,"fibre_pct":99.6,"securite":{"taux_pour_mille":6.2,"annee":2024},"socio":{"annee":2021,"revenu_median":21000.0},"vivrescore":80},{"code_insee":"34198","nom":"Pérols","codes_postaux":["34470"],"code_dep":"34","code_region":"76","population":9615,"surface_km2":8.65,"lat":43.5609,"lon":3.9512,"fibre_pct":99.3,"securite":{"taux_pour_mille":54.5,"annee":2024},"socio":{"annee":2021,"taux_pauvrete":9.0,"revenu_median":26950.0},"vivrescore":75},{"code_insee":"34199","nom":"Pézenas","codes_postaux":["34120"],"code_dep":"34","code_region":"76","population":7797,"surface_km2":29.68,"lat":43.4616,"lon":3.418,"fibre_pct":95.3,"securite":{"taux_pour_mille":84.2,"annee":2024},"socio":{"annee":2021,"taux_pauvrete":28.0,"revenu_median":18750.0},"vivrescore":50},{"code_insee":"34200","nom":"Pézènes-les-Mines","codes_postaux":["34600"],"code_dep":"34","code_region":"76","population":237,"surface_km2":27.03,"lat":43.6002,"lon":3.2444,"fibre_pct":99.0,"securite":{"taux_pour_mille":0.0,"annee":2024},"socio":{"annee":2021,"revenu_median":22370.0},"vivrescore":87},{"code_insee":"34201","nom":"Pierrerue","codes_postaux":["34360"],"code_dep":"34","code_region":"76","population":289,"surface_km2":11.63,"lat":43.4464,"lon":2.9643,"fibre_pct":92.5,"securite":{"taux_pour_mille":0.0,"annee":2024},"socio":{"annee":2021,"revenu_median":21190.0},"vivrescore":80},{"code_insee":"34202","nom":"Pignan","codes_postaux":["34570"],"code_dep":"34","code_region":"76","population":8431,"surface_km2":20.54,"lat":43.5819,"lon":3.742,"fibre_pct":91.5,"securite":{"taux_pour_mille":33.5,"annee":2024},"socio":{"annee":2021,"revenu_median":24090.0,"taux_pauvrete":11.0},"vivrescore":65},{"code_insee":"34203","nom":"Pinet","codes_postaux":["34850"],"code_dep":"34","code_region":"76","population":2049,"surface_km2":8.92,"lat":43.4099,"lon":3.5149,"fibre_pct":99.6,"securite":{"taux_pour_mille":11.4,"annee":2024},"socio":{"annee":2021,"revenu_median":21800.0},"vivrescore":80},{"code_insee":"34204","nom":"Plaissan","codes_postaux":["34230"],"code_dep":"34","code_region":"76","population":1718,"surface_km2":5.97,"lat":43.5597,"lon":3.5303,"fibre_pct":99.7,"securite":{"taux_pour_mille":15.5,"annee":2024},"socio":{"annee":2021,"revenu_median":21760.0},"vivrescore":73},{"code_insee":"34205","nom":"Les Plans","codes_postaux":["34700"],"code_dep":"34","code_region":"76","population":315,"surface_km2":18.06,"lat":43.7619,"lon":3.2712,"fibre_pct":99.6,"securite":{"taux_pour_mille":0.0,"annee":2024},"socio":{"annee":2021,"revenu_median":21290.0},"vivrescore":87},{"code_insee":"34206","nom":"Poilhes","codes_postaux":["34310"],"code_dep":"34","code_region":"76","population":548,"surface_km2":5.96,"lat":43.304,"lon":3.0915,"fibre_pct":98.1,"securite":{"taux_pour_mille":0.0,"annee":2024},"socio":{"annee":2021,"revenu_median":22090.0},"vivrescore":87},{"code_insee":"34207","nom":"Pomérols","codes_postaux":["34810"],"code_dep":"34","code_region":"76","population":2299,"surface_km2":11.02,"lat":43.3952,"lon":3.5142,"fibre_pct":99.0,"securite":{"taux_pour_mille":34.1,"annee":2024},"socio":{"annee":2021,"revenu_median":21510.0,"taux_pauvrete":15.0},"vivrescore":70},{"code_insee":"34208","nom":"Popian","codes_postaux":["34230"],"code_dep":"34","code_region":"76","population":380,"surface_km2":5.88,"lat":43.6233,"lon":3.534,"fibre_pct":100.0,"securite":{"taux_pour_mille":0.0,"annee":2024},"socio":{"annee":2021,"revenu_median":24620.0},"vivrescore":87},{"code_insee":"34209","nom":"Portiragnes","codes_postaux":["34420"],"code_dep":"34","code_region":"76","population":3530,"surface_km2":20.1,"lat":43.3024,"lon":3.3458,"fibre_pct":86.7,"securite":{"taux_pour_mille":44.3,"annee":2024},"socio":{"annee":2021,"revenu_median":22350.0,"taux_pauvrete":15.0},"vivrescore":60},{"code_insee":"34210","nom":"Le Pouget","codes_postaux":["34230"],"code_dep":"34","code_region":"76","population":2122,"surface_km2":13.93,"lat":43.5919,"lon":3.5184,"fibre_pct":98.8,"securite":{"taux_pour_mille":32.4,"annee":2024},"socio":{"annee":2021,"taux_pauvrete":14.0,"revenu_median":22190.0},"vivrescore":70},{"code_insee":"34211","nom":"Le Poujol-sur-Orb","codes_postaux":["34600"],"code_dep":"34","code_region":"76","population":947,"surface_km2":4.71,"lat":43.5848,"lon":3.0528,"fibre_pct":98.9,"securite":{"taux_pour_mille":19.1,"annee":2024},"socio":{"annee":2021,"revenu_median":19740.0},"vivrescore":67},{"code_insee":"34212","nom":"Poujols","codes_postaux":["34700"],"code_dep":"34","code_region":"76","population":190,"surface_km2":2.83,"lat":43.7734,"lon":3.3168,"fibre_pct":96.6,"securite":{"taux_pour_mille":0.0,"annee":2024},"socio":{"annee":2021,"revenu_median":20970.0},"vivrescore":87},{"code_insee":"34213","nom":"Poussan","codes_postaux":["34560"],"code_dep":"34","code_region":"76","population":6797,"surface_km2":29.92,"lat":43.4976,"lon":3.6623,"fibre_pct":96.7,"securite":{"taux_pour_mille":41.9,"annee":2024},"socio":{"annee":2021,"revenu_median":23060.0,"taux_pauvrete":13.0},"vivrescore":65},{"code_insee":"34214","nom":"Pouzolles","codes_postaux":["34480"],"code_dep":"34","code_region":"76","population":1233,"surface_km2":10.08,"lat":43.478,"lon":3.2727,"fibre_pct":99.4,"securite":{"taux_pour_mille":9.1,"annee":2024},"socio":{"annee":2021,"revenu_median":21590.0},"vivrescore":80},{"code_insee":"34215","nom":"Pouzols","codes_postaux":["34230"],"code_dep":"34","code_region":"76","population":953,"surface_km2":2.97,"lat":43.6224,"lon":3.5083,"fibre_pct":99.6,"securite":{"taux_pour_mille":6.3,"annee":2024},"socio":{"annee":2021,"revenu_median":23720.0},"vivrescore":80},{"code_insee":"34216","nom":"Le Pradal","codes_postaux":["34600"],"code_dep":"34","code_region":"76","population":319,"surface_km2":3.64,"lat":43.6333,"lon":3.0954,"fibre_pct":100.0,"securite":{"taux_pour_mille":0.0,"annee":2024},"socio":{"annee":2021,"revenu_median":22880.0},"vivrescore":87},{"code_insee":"34217","nom":"Prades-le-Lez","codes_postaux":["34730"],"code_dep":"34","code_region":"76","population":6184,"surface_km2":8.78,"lat":43.7079,"lon":3.8648,"fibre_pct":97.9,"securite":{"taux_pour_mille":27.2,"annee":2024},"socio":{"annee":2021,"revenu_median":26410.0,"taux_pauvrete":8.0},"vivrescore":80},{"code_insee":"34218","nom":"Prades-sur-Vernazobre","codes_postaux":["34360"],"code_dep":"34","code_region":"76","population":374,"surface_km2":19.84,"lat":43.459,"lon":2.9747,"fibre_pct":97.7,"securite":{"taux_pour_mille":0.0,"annee":2024},"socio":{"annee":2021,"revenu_median":20150.0},"vivrescore":87},{"code_insee":"34219","nom":"Prémian","codes_postaux":["34390"],"code_dep":"34","code_region":"76","population":479,"surface_km2":16.6,"lat":43.5401,"lon":2.8217,"fibre_pct":96.9,"securite":{"taux_pour_mille":0.0,"annee":2024},"socio":{"annee":2021,"revenu_median":19730.0},"vivrescore":80},{"code_insee":"34220","nom":"Le Puech","codes_postaux":["34700"],"code_dep":"34","code_region":"76","population":262,"surface_km2":15.95,"lat":43.6841,"lon":3.3286,"fibre_pct":91.3,"securite":{"taux_pour_mille":0.0,"annee":2024},"socio":{"annee":2021,"revenu_median":24050.0},"vivrescore":80},{"code_insee":"34221","nom":"Puéchabon","codes_postaux":["34150"],"code_dep":"34","code_region":"76","population":509,"surface_km2":31.45,"lat":43.7238,"lon":3.604,"fibre_pct":98.1,"securite":{"taux_pour_mille":0.0,"annee":2024},"socio":{"annee":2021,"revenu_median":21260.0},"vivrescore":87},{"code_insee":"34222","nom":"Puilacher","codes_postaux":["34230"],"code_dep":"34","code_region":"76","population":657,"surface_km2":2.7,"lat":43.5655,"lon":3.5036,"fibre_pct":100.0,"securite":{"taux_pour_mille":0.0,"annee":2024},"socio":{"annee":2021,"revenu_median":23540.0},"vivrescore":87},{"code_insee":"34223","nom":"Puimisson","codes_postaux":["34480"],"code_dep":"34","code_region":"76","population":1225,"surface_km2":6.49,"lat":43.4376,"lon":3.2084,"fibre_pct":98.9,"securite":{"taux_pour_mille":14.8,"annee":2024},"socio":{"annee":2021,"revenu_median":22900.0},"vivrescore":80},{"code_insee":"34224","nom":"Puissalicon","codes_postaux":["34480"],"code_dep":"34","code_region":"76","population":1353,"surface_km2":13.14,"lat":43.4552,"lon":3.2377,"fibre_pct":99.4,"securite":{"taux_pour_mille":7.4,"annee":2024},"socio":{"annee":2021,"revenu_median":22600.0},"vivrescore":80},{"code_insee":"34225","nom":"Puisserguier","codes_postaux":["34620"],"code_dep":"34","code_region":"76","population":3078,"surface_km2":28.16,"lat":43.379,"lon":3.056,"fibre_pct":99.4,"securite":{"taux_pour_mille":47.1,"annee":2024},"socio":{"annee":2021,"taux_pauvrete":17.0,"revenu_median":20670.0},"vivrescore":60},{"code_insee":"34226","nom":"Quarante","codes_postaux":["34310"],"code_dep":"34","code_region":"76","population":1776,"surface_km2":30.05,"lat":43.353,"lon":2.9881,"fibre_pct":94.8,"securite":{"taux_pour_mille":13.4,"annee":2024},"socio":{"annee":2021,"revenu_median":19980.0},"vivrescore":67},{"code_insee":"34227","nom":"Restinclières","codes_postaux":["34160"],"code_dep":"34","code_region":"76","population":2612,"surface_km2":6.27,"lat":43.7238,"lon":4.0393,"fibre_pct":98.2,"securite":{"taux_pour_mille":26.8,"annee":2024},"socio":{"annee":2021,"revenu_median":26280.0},"vivrescore":73},{"code_insee":"34228","nom":"Rieussec","codes_postaux":["34220"],"code_dep":"34","code_region":"76","population":82,"surface_km2":22.4,"lat":43.4186,"lon":2.7302,"fibre_pct":94.2,"securite":{"taux_pour_mille":0.0,"annee":2024},"vivrescore":90},{"code_insee":"34229","nom":"Riols","codes_postaux":["34220"],"code_dep":"34","code_region":"76","population":708,"surface_km2":56.63,"lat":43.4985,"lon":2.7995,"fibre_pct":97.3,"securite":{"taux_pour_mille":8.4,"annee":2024},"socio":{"annee":2021,"revenu_median":20600.0},"vivrescore":80},{"code_insee":"34230","nom":"Les Rives","codes_postaux":["34520"],"code_dep":"34","code_region":"76","population":150,"surface_km2":23.97,"lat":43.8562,"lon":3.2635,"fibre_pct":93.5,"securite":{"taux_pour_mille":0.0,"annee":2024},"socio":{"annee":2021,"revenu_median":21560.0},"vivrescore":80},{"code_insee":"34231","nom":"Romiguières","codes_postaux":["34650"],"code_dep":"34","code_region":"76","population":24,"surface_km2":3.47,"lat":43.8167,"lon":3.2364,"fibre_pct":82.9,"securite":{"taux_pour_mille":0.0,"annee":2024},"vivrescore":90},{"code_insee":"34232","nom":"Roquebrun","codes_postaux":["34460"],"code_dep":"34","code_region":"76","population":601,"surface_km2":39.69,"lat":43.5065,"lon":2.9978,"fibre_pct":93.5,"securite":{"taux_pour_mille":10.0,"annee":2024},"socio":{"annee":2021,"revenu_median":19200.0},"vivrescore":67},{"code_insee":"34233","nom":"Roqueredonde","codes_postaux":["34650"],"code_dep":"34","code_region":"76","population":211,"surface_km2":22.88,"lat":43.7941,"lon":3.1964,"fibre_pct":83.2,"securite":{"taux_pour_mille":0.0,"annee":2024},"socio":{"annee":2021,"revenu_median":17480.0},"vivrescore":73},{"code_insee":"34234","nom":"Roquessels","codes_postaux":["34320"],"code_dep":"34","code_region":"76","population":119,"surface_km2":9.09,"lat":43.5514,"lon":3.2297,"fibre_pct":99.0,"securite":{"taux_pour_mille":0.0,"annee":2024},"vivrescore":100},{"code_insee":"34235","nom":"Rosis","codes_postaux":["34610"],"code_dep":"34","code_region":"76","population":279,"surface_km2":52.62,"lat":43.6295,"lon":2.9989,"fibre_pct":91.3,"securite":{"taux_pour_mille":0.0,"annee":2024},"socio":{"annee":2021,"revenu_median":19300.0},"vivrescore":73},{"code_insee":"34236","nom":"Rouet","codes_postaux":["34380"],"code_dep":"34","code_region":"76","population":71,"surface_km2":25.03,"lat":43.8254,"lon":3.8184,"fibre_pct":68.2,"securite":{"taux_pour_mille":0.0,"annee":2024},"vivrescore":80},{"code_insee":"34237","nom":"Roujan","codes_postaux":["34320"],"code_dep":"34","code_region":"76","population":2336,"surface_km2":16.92,"lat":43.5119,"lon":3.3082,"fibre_pct":98.2,"securite":{"taux_pour_mille":39.6,"annee":2024},"socio":{"annee":2021,"revenu_median":21360.0,"taux_pauvrete":16.0},"vivrescore":65},{"code_insee":"34238","nom":"Saint-André-de-Buèges","codes_postaux":["34190"],"code_dep":"34","code_region":"76","population":47,"surface_km2":15.38,"lat":43.8539,"lon":3.6438,"fibre_pct":91.3,"securite":{"taux_pour_mille":0.0,"annee":2024},"vivrescore":90},{"code_insee":"34239","nom":"Saint-André-de-Sangonis","codes_postaux":["34725"],"code_dep":"34","code_region":"76","population":6427,"surface_km2":19.65,"lat":43.6492,"lon":3.5056,"fibre_pct":98.3,"securite":{"taux_pour_mille":44.2,"annee":2024},"socio":{"annee":2021,"revenu_median":21660.0,"taux_pauvrete":15.0},"vivrescore":65},{"code_insee":"34240","nom":"Saint-Aunès","codes_postaux":["34130"],"code_dep":"34","code_region":"76","population":4530,"surface_km2":12.54,"lat":43.6341,"lon":3.97,"fibre_pct":94.0,"securite":{"taux_pour_mille":46.8,"annee":2024},"socio":{"annee":2021,"revenu_median":27160.0,"taux_pauvrete":7.0},"vivrescore":70},{"code_insee":"34241","nom":"Saint-Bauzille-de-la-Sylve","codes_postaux":["34230"],"code_dep":"34","code_region":"76","population":947,"surface_km2":8.61,"lat":43.6129,"lon":3.5614,"fibre_pct":100.0,"securite":{"taux_pour_mille":0.0,"annee":2024},"socio":{"annee":2021,"revenu_median":22740.0},"vivrescore":87},{"code_insee":"34242","nom":"Saint-Bauzille-de-Montmel","codes_postaux":["34160"],"code_dep":"34","code_region":"76","population":1246,"surface_km2":21.46,"lat":43.7762,"lon":3.9434,"fibre_pct":98.8,"securite":{"taux_pour_mille":0.0,"annee":2024},"socio":{"annee":2021,"revenu_median":27620.0},"vivrescore":93},{"code_insee":"34243","nom":"Saint-Bauzille-de-Putois","codes_postaux":["34190"],"code_dep":"34","code_region":"76","population":1766,"surface_km2":18.25,"lat":43.9025,"lon":3.757,"fibre_pct":97.7,"securite":{"taux_pour_mille":26.1,"annee":2024},"socio":{"annee":2021,"revenu_median":21100.0},"vivrescore":67},{"code_insee":"34244","nom":"Saint-Brès","codes_postaux":["34670"],"code_dep":"34","code_region":"76","population":3623,"surface_km2":4.8,"lat":43.6656,"lon":4.0377,"fibre_pct":97.8,"securite":{"taux_pour_mille":21.1,"annee":2024},"socio":{"annee":2021,"revenu_median":24650.0,"taux_pauvrete":11.0},"vivrescore":75},{"code_insee":"34245","nom":"Saint-Chinian","codes_postaux":["34360"],"code_dep":"34","code_region":"76","population":1811,"surface_km2":23.0,"lat":43.4274,"lon":2.9276,"fibre_pct":97.5,"securite":{"taux_pour_mille":9.0,"annee":2024},"socio":{"annee":2021,"revenu_median":19720.0},"vivrescore":73},{"code_insee":"34246","nom":"Entre-Vignes","codes_postaux":["34400"],"code_dep":"34","code_region":"76","population":2200,"surface_km2":16.94,"lat":43.7193,"lon":4.081,"fibre_pct":96.5,"securite":{"taux_pour_mille":14.2,"annee":2024},"socio":{"annee":2021,"revenu_median":25740.0},"vivrescore":87},{"code_insee":"34247","nom":"Saint-Clément-de-Rivière","codes_postaux":["34980"],"code_dep":"34","code_region":"76","population":5218,"surface_km2":12.73,"lat":43.6831,"lon":3.8447,"fibre_pct":99.3,"securite":{"taux_pour_mille":32.9,"annee":2024},"socio":{"annee":2021,"taux_pauvrete":6.0,"revenu_median":34870.0},"vivrescore":85},{"code_insee":"34248","nom":"Sainte-Croix-de-Quintillargues","codes_postaux":["34270"],"code_dep":"34","code_region":"76","population":984,"surface_km2":6.6,"lat":43.7675,"lon":3.9104,"fibre_pct":99.8,"securite":{"taux_pour_mille":0.0,"annee":2024},"socio":{"annee":2021,"revenu_median":27460.0},"vivrescore":93},{"code_insee":"34249","nom":"Saint-Drézéry","codes_postaux":["34160"],"code_dep":"34","code_region":"76","population":3006,"surface_km2":10.44,"lat":43.7308,"lon":3.9764,"fibre_pct":97.4,"securite":{"taux_pour_mille":28.8,"annee":2024},"socio":{"annee":2021,"revenu_median":27330.0,"taux_pauvrete":7.0},"vivrescore":80},{"code_insee":"34250","nom":"Saint-Étienne-d'Albagnan","codes_postaux":["34390"],"code_dep":"34","code_region":"76","population":302,"surface_km2":22.58,"lat":43.5342,"lon":2.8634,"fibre_pct":97.2,"securite":{"taux_pour_mille":0.0,"annee":2024},"socio":{"annee":2021,"revenu_median":19920.0},"vivrescore":80},{"code_insee":"34251","nom":"Saint-Étienne-de-Gourgas","codes_postaux":["34700"],"code_dep":"34","code_region":"76","population":517,"surface_km2":19.64,"lat":43.7869,"lon":3.3869,"fibre_pct":99.7,"securite":{"taux_pour_mille":0.0,"annee":2024},"socio":{"annee":2021,"revenu_median":21630.0},"vivrescore":87},{"code_insee":"34252","nom":"Saint-Étienne-Estréchoux","codes_postaux":["34260"],"code_dep":"34","code_region":"76","population":259,"surface_km2":3.5,"lat":43.6608,"lon":3.1048,"fibre_pct":95.0,"securite":{"taux_pour_mille":0.0,"annee":2024},"socio":{"annee":2021,"revenu_median":18610.0},"vivrescore":80},{"code_insee":"34253","nom":"Saint-Félix-de-l'Héras","codes_postaux":["34520"],"code_dep":"34","code_region":"76","population":33,"surface_km2":12.77,"lat":43.8351,"lon":3.3195,"fibre_pct":66.0,"securite":{"taux_pour_mille":0.0,"annee":2024},"vivrescore":80},{"code_insee":"34254","nom":"Saint-Félix-de-Lodez","codes_postaux":["34725"],"code_dep":"34","code_region":"76","population":1135,"surface_km2":4.39,"lat":43.6595,"lon":3.4682,"fibre_pct":98.0,"securite":{"taux_pour_mille":5.3,"annee":2024},"socio":{"annee":2021,"revenu_median":23930.0},"vivrescore":80},{"code_insee":"34255","nom":"Saint-Gély-du-Fesc","codes_postaux":["34980"],"code_dep":"34","code_region":"76","population":10472,"surface_km2":16.58,"lat":43.6897,"lon":3.81,"fibre_pct":99.7,"securite":{"taux_pour_mille":24.2,"annee":2024},"socio":{"annee":2021,"taux_pauvrete":6.0,"revenu_median":29940.0},"vivrescore":85},{"code_insee":"34256","nom":"Saint-Geniès-des-Mourgues","codes_postaux":["34160"],"code_dep":"34","code_region":"76","population":2148,"surface_km2":10.95,"lat":43.6972,"lon":4.0382,"fibre_pct":98.3,"securite":{"taux_pour_mille":22.3,"annee":2024},"socio":{"annee":2021,"revenu_median":27690.0},"vivrescore":80},{"code_insee":"34257","nom":"Saint-Geniès-de-Varensal","codes_postaux":["34610"],"code_dep":"34","code_region":"76","population":202,"surface_km2":11.94,"lat":43.688,"lon":3.002,"fibre_pct":96.8,"securite":{"taux_pour_mille":0.0,"annee":2024},"socio":{"annee":2021,"revenu_median":17740.0},"vivrescore":80},{"code_insee":"34258","nom":"Saint-Geniès-de-Fontedit","codes_postaux":["34480"],"code_dep":"34","code_region":"76","population":1722,"surface_km2":9.31,"lat":43.4685,"lon":3.1734,"fibre_pct":99.5,"securite":{"taux_pour_mille":5.9,"annee":2024},"socio":{"annee":2021,"revenu_median":23050.0},"vivrescore":80},{"code_insee":"34259","nom":"Saint-Georges-d'Orques","codes_postaux":["34680"],"code_dep":"34","code_region":"76","population":5676,"surface_km2":9.33,"lat":43.6167,"lon":3.775,"fibre_pct":95.1,"securite":{"taux_pour_mille":37.0,"annee":2024},"socio":{"annee":2021,"taux_pauvrete":10.0,"revenu_median":25520.0},"vivrescore":80},{"code_insee":"34260","nom":"Saint-Gervais-sur-Mare","codes_postaux":["34610"],"code_dep":"34","code_region":"76","population":859,"surface_km2":24.14,"lat":43.6627,"lon":3.0535,"fibre_pct":99.8,"securite":{"taux_pour_mille":0.0,"annee":2024},"socio":{"annee":2021,"revenu_median":19550.0},"vivrescore":80},{"code_insee":"34261","nom":"Saint-Guilhem-le-Désert","codes_postaux":["34150"],"code_dep":"34","code_region":"76","population":237,"surface_km2":38.62,"lat":43.7536,"lon":3.5439,"fibre_pct":99.0,"securite":{"taux_pour_mille":65.8,"annee":2024},"socio":{"annee":2021,"revenu_median":19390.0},"vivrescore":53},{"code_insee":"34262","nom":"Saint-Guiraud","codes_postaux":["34725"],"code_dep":"34","code_region":"76","population":267,"surface_km2":6.08,"lat":43.6802,"lon":3.4508,"fibre_pct":97.4,"securite":{"taux_pour_mille":0.0,"annee":2024},"socio":{"annee":2021,"revenu_median":25250.0},"vivrescore":93},{"code_insee":"34263","nom":"Saint-Hilaire-de-Beauvoir","codes_postaux":["34160"],"code_dep":"34","code_region":"76","population":461,"surface_km2":4.63,"lat":43.752,"lon":4.0175,"fibre_pct":97.3,"securite":{"taux_pour_mille":0.0,"annee":2024},"socio":{"annee":2021,"revenu_median":25100.0},"vivrescore":93},{"code_insee":"34264","nom":"Saint-Jean-de-Buèges","codes_postaux":["34380"],"code_dep":"34","code_region":"76","population":208,"surface_km2":16.92,"lat":43.8337,"lon":3.602,"fibre_pct":100.0,"securite":{"taux_pour_mille":0.0,"annee":2024},"socio":{"annee":2021,"revenu_median":17210.0},"vivrescore":80},{"code_insee":"34265","nom":"Saint-Jean-de-Cornies","codes_postaux":["34160"],"code_dep":"34","code_region":"76","population":858,"surface_km2":3.02,"lat":43.7456,"lon":4.0038,"fibre_pct":99.0,"securite":{"taux_pour_mille":7.2,"annee":2024},"socio":{"annee":2021,"revenu_median":28110.0},"vivrescore":87},{"code_insee":"34266","nom":"Saint-Jean-de-Cuculles","codes_postaux":["34270"],"code_dep":"34","code_region":"76","population":531,"surface_km2":9.1,"lat":43.7535,"lon":3.8347,"fibre_pct":99.1,"securite":{"taux_pour_mille":0.0,"annee":2024},"socio":{"annee":2021,"revenu_median":29770.0},"vivrescore":93},{"code_insee":"34267","nom":"Saint-Jean-de-Fos","codes_postaux":["34150"],"code_dep":"34","code_region":"76","population":1745,"surface_km2":14.15,"lat":43.6955,"lon":3.5463,"fibre_pct":99.3,"securite":{"taux_pour_mille":21.2,"annee":2024},"socio":{"annee":2021,"revenu_median":21990.0},"vivrescore":73},{"code_insee":"34268","nom":"Saint-Jean-de-la-Blaquière","codes_postaux":["34700"],"code_dep":"34","code_region":"76","population":698,"surface_km2":17.3,"lat":43.7077,"lon":3.4304,"fibre_pct":99.8,"securite":{"taux_pour_mille":7.2,"annee":2024},"socio":{"annee":2021,"revenu_median":21570.0},"vivrescore":80},{"code_insee":"34269","nom":"Saint-Jean-de-Minervois","codes_postaux":["34360"],"code_dep":"34","code_region":"76","population":131,"surface_km2":32.82,"lat":43.4051,"lon":2.8187,"fibre_pct":96.6,"securite":{"taux_pour_mille":0.0,"annee":2024},"socio":{"annee":2021,"revenu_median":17230.0},"vivrescore":80},{"code_insee":"34270","nom":"Saint-Jean-de-Védas","codes_postaux":["34430"],"code_dep":"34","code_region":"76","population":13328,"surface_km2":13.16,"lat":43.5732,"lon":3.8329,"fibre_pct":95.9,"securite":{"taux_pour_mille":79.5,"annee":2024},"socio":{"annee":2021,"taux_pauvrete":11.0,"revenu_median":25510.0},"vivrescore":70},{"code_insee":"34271","nom":"Saint-Julien","codes_postaux":["34390"],"code_dep":"34","code_region":"76","population":228,"surface_km2":19.34,"lat":43.583,"lon":2.8955,"fibre_pct":92.3,"securite":{"taux_pour_mille":0.0,"annee":2024},"socio":{"annee":2021,"revenu_median":18050.0},"vivrescore":73},{"code_insee":"34272","nom":"Saint-Just","codes_postaux":["34400"],"code_dep":"34","code_region":"76","population":3293,"surface_km2":6.22,"lat":43.657,"lon":4.1108,"fibre_pct":97.1,"securite":{"taux_pour_mille":13.7,"annee":2024},"socio":{"annee":2021,"taux_pauvrete":11.0,"revenu_median":24370.0},"vivrescore":80},{"code_insee":"34273","nom":"Saint-Martin-de-l'Arçon","codes_postaux":["34390"],"code_dep":"34","code_region":"76","population":101,"surface_km2":4.16,"lat":43.582,"lon":2.9865,"fibre_pct":100.0,"securite":{"taux_pour_mille":0.0,"annee":2024},"socio":{"annee":2021,"revenu_median":21270.0},"vivrescore":87},{"code_insee":"34274","nom":"Saint-Martin-de-Londres","codes_postaux":["34380"],"code_dep":"34","code_region":"76","population":2696,"surface_km2":38.55,"lat":43.7953,"lon":3.7119,"fibre_pct":95.9,"securite":{"taux_pour_mille":21.6,"annee":2024},"socio":{"annee":2021,"revenu_median":24630.0,"taux_pauvrete":9.0},"vivrescore":80},{"code_insee":"34276","nom":"Saint-Mathieu-de-Tréviers","codes_postaux":["34270"],"code_dep":"34","code_region":"76","population":4979,"surface_km2":21.77,"lat":43.7679,"lon":3.8628,"fibre_pct":99.3,"securite":{"taux_pour_mille":21.4,"annee":2024},"socio":{"annee":2021,"taux_pauvrete":9.0,"revenu_median":25010.0},"vivrescore":85},{"code_insee":"34277","nom":"Saint-Maurice-Navacelles","codes_postaux":["34190","34520"],"code_dep":"34","code_region":"76","population":185,"surface_km2":68.61,"lat":43.8427,"lon":3.5039,"fibre_pct":98.2,"securite":{"taux_pour_mille":0.0,"annee":2024},"socio":{"annee":2021,"revenu_median":16900.0},"vivrescore":80},{"code_insee":"34278","nom":"Saint-Michel","codes_postaux":["34520"],"code_dep":"34","code_region":"76","population":60,"surface_km2":25.52,"lat":43.8429,"lon":3.4057,"fibre_pct":99.5,"securite":{"taux_pour_mille":0.0,"annee":2024},"vivrescore":100},{"code_insee":"34279","nom":"Saint-Nazaire-de-Ladarez","codes_postaux":["34490"],"code_dep":"34","code_region":"76","population":327,"surface_km2":28.21,"lat":43.5206,"lon":3.0847,"fibre_pct":88.4,"securite":{"taux_pour_mille":0.0,"annee":2024},"socio":{"annee":2021,"revenu_median":18720.0},"vivrescore":73},{"code_insee":"34280","nom":"Saint-Nazaire-de-Pézan","codes_postaux":["34400"],"code_dep":"34","code_region":"76","population":625,"surface_km2":5.52,"lat":43.6348,"lon":4.1177,"fibre_pct":97.5,"securite":{"taux_pour_mille":0.0,"annee":2024},"socio":{"annee":2021,"revenu_median":22140.0},"vivrescore":87},{"code_insee":"34281","nom":"Saint-Pargoire","codes_postaux":["34230"],"code_dep":"34","code_region":"76","population":2501,"surface_km2":23.93,"lat":43.5268,"lon":3.5416,"fibre_pct":98.8,"securite":{"taux_pour_mille":17.6,"annee":2024},"socio":{"annee":2021,"taux_pauvrete":15.0,"revenu_median":20910.0},"vivrescore":75},{"code_insee":"34282","nom":"Saint-Paul-et-Valmalle","codes_postaux":["34570"],"code_dep":"34","code_region":"76","population":1394,"surface_km2":12.81,"lat":43.6152,"lon":3.6843,"fibre_pct":99.1,"securite":{"taux_pour_mille":16.8,"annee":2024},"socio":{"annee":2021,"revenu_median":25710.0},"vivrescore":80},{"code_insee":"34283","nom":"Saint-Pierre-de-la-Fage","codes_postaux":["34520"],"code_dep":"34","code_region":"76","population":122,"surface_km2":18.61,"lat":43.7938,"lon":3.4201,"fibre_pct":92.8,"securite":{"taux_pour_mille":0.0,"annee":2024},"socio":{"annee":2021,"revenu_median":20940.0},"vivrescore":80},{"code_insee":"34284","nom":"Saint-Pons-de-Thomières","codes_postaux":["34220"],"code_dep":"34","code_region":"76","population":1706,"surface_km2":41.06,"lat":43.4823,"lon":2.7498,"fibre_pct":89.5,"securite":{"taux_pour_mille":75.1,"annee":2024},"socio":{"annee":2021,"revenu_median":16920.0},"vivrescore":47},{"code_insee":"34285","nom":"Saint-Pons-de-Mauchiens","codes_postaux":["34230"],"code_dep":"34","code_region":"76","population":667,"surface_km2":13.59,"lat":43.5102,"lon":3.5136,"fibre_pct":98.0,"securite":{"taux_pour_mille":0.0,"annee":2024},"socio":{"annee":2021,"revenu_median":21080.0},"vivrescore":87},{"code_insee":"34286","nom":"Saint-Privat","codes_postaux":["34700"],"code_dep":"34","code_region":"76","population":461,"surface_km2":27.01,"lat":43.7535,"lon":3.4285,"fibre_pct":100.0,"securite":{"taux_pour_mille":0.0,"annee":2024},"socio":{"annee":2021,"revenu_median":17930.0},"vivrescore":80},{"code_insee":"34287","nom":"Saint-Saturnin-de-Lucian","codes_postaux":["34725"],"code_dep":"34","code_region":"76","population":303,"surface_km2":9.84,"lat":43.7085,"lon":3.4685,"fibre_pct":96.7,"securite":{"taux_pour_mille":0.0,"annee":2024},"socio":{"annee":2021,"revenu_median":20880.0},"vivrescore":87},{"code_insee":"34288","nom":"Saint-Sériès","codes_postaux":["34400"],"code_dep":"34","code_region":"76","population":972,"surface_km2":4.64,"lat":43.7365,"lon":4.1069,"fibre_pct":98.1,"securite":{"taux_pour_mille":0.0,"annee":2024},"socio":{"annee":2021,"revenu_median":27150.0},"vivrescore":93},{"code_insee":"34289","nom":"Saint-Thibéry","codes_postaux":["34630"],"code_dep":"34","code_region":"76","population":3132,"surface_km2":18.55,"lat":43.3931,"lon":3.3939,"fibre_pct":98.8,"securite":{"taux_pour_mille":35.8,"annee":2024},"socio":{"annee":2021,"revenu_median":20600.0,"taux_pauvrete":18.0},"vivrescore":65},{"code_insee":"34290","nom":"Saint-Vincent-de-Barbeyrargues","codes_postaux":["34730"],"code_dep":"34","code_region":"76","population":775,"surface_km2":2.24,"lat":43.712,"lon":3.8765,"fibre_pct":97.6,"securite":{"taux_pour_mille":0.0,"annee":2024},"socio":{"annee":2021,"revenu_median":28520.0},"vivrescore":93},{"code_insee":"34291","nom":"Saint-Vincent-d'Olargues","codes_postaux":["34390"],"code_dep":"34","code_region":"76","population":355,"surface_km2":15.9,"lat":43.558,"lon":2.8693,"fibre_pct":93.3,"securite":{"taux_pour_mille":0.0,"annee":2024},"socio":{"annee":2021,"revenu_median":18730.0},"vivrescore":73},{"code_insee":"34292","nom":"Salasc","codes_postaux":["34800"],"code_dep":"34","code_region":"76","population":357,"surface_km2":9.04,"lat":43.6249,"lon":3.3088,"fibre_pct":100.0,"securite":{"taux_pour_mille":0.0,"annee":2024},"socio":{"annee":2021,"revenu_median":21740.0},"vivrescore":87},{"code_insee":"34293","nom":"La Salvetat-sur-Agout","codes_postaux":["34330"],"code_dep":"34","code_region":"76","population":1108,"surface_km2":90.09,"lat":43.6027,"lon":2.6915,"fibre_pct":90.6,"securite":{"taux_pour_mille":5.4,"annee":2024},"socio":{"annee":2021,"revenu_median":20480.0},"vivrescore":73},{"code_insee":"34294","nom":"Saturargues","codes_postaux":["34400"],"code_dep":"34","code_region":"76","population":1022,"surface_km2":6.0,"lat":43.7136,"lon":4.1174,"fibre_pct":97.6,"securite":{"taux_pour_mille":72.5,"annee":2024},"socio":{"annee":2021,"revenu_median":24400.0},"vivrescore":60},{"code_insee":"34295","nom":"Saussan","codes_postaux":["34570"],"code_dep":"34","code_region":"76","population":2069,"surface_km2":3.6,"lat":43.5685,"lon":3.7829,"fibre_pct":95.7,"securite":{"taux_pour_mille":33.7,"annee":2024},"socio":{"annee":2021,"revenu_median":26260.0},"vivrescore":73},{"code_insee":"34296","nom":"Saussines","codes_postaux":["34160"],"code_dep":"34","code_region":"76","population":1001,"surface_km2":6.28,"lat":43.7581,"lon":4.05,"fibre_pct":99.7,"securite":{"taux_pour_mille":0.0,"annee":2024},"socio":{"annee":2021,"revenu_median":25470.0},"vivrescore":93},{"code_insee":"34297","nom":"Sauteyrargues","codes_postaux":["34270"],"code_dep":"34","code_region":"76","population":441,"surface_km2":12.79,"lat":43.8311,"lon":3.9187,"fibre_pct":98.5,"securite":{"taux_pour_mille":0.0,"annee":2024},"socio":{"annee":2021,"revenu_median":25130.0},"vivrescore":93},{"code_insee":"34298","nom":"Sauvian","codes_postaux":["34410"],"code_dep":"34","code_region":"76","population":5608,"surface_km2":13.14,"lat":43.2885,"lon":3.2541,"fibre_pct":90.2,"securite":{"taux_pour_mille":24.7,"annee":2024},"socio":{"annee":2021,"revenu_median":22270.0,"taux_pauvrete":15.0},"vivrescore":70},{"code_insee":"34299","nom":"Sérignan","codes_postaux":["34410"],"code_dep":"34","code_region":"76","population":8588,"surface_km2":27.47,"lat":43.271,"lon":3.3011,"fibre_pct":97.5,"securite":{"taux_pour_mille":62.9,"annee":2024},"socio":{"annee":2021,"taux_pauvrete":16.0,"revenu_median":21240.0},"vivrescore":60},{"code_insee":"34300","nom":"Servian","codes_postaux":["34290"],"code_dep":"34","code_region":"76","population":5517,"surface_km2":40.94,"lat":43.4121,"lon":3.3017,"fibre_pct":93.2,"securite":{"taux_pour_mille":33.9,"annee":2024},"socio":{"annee":2021,"revenu_median":21670.0,"taux_pauvrete":17.0},"vivrescore":60},{"code_insee":"34301","nom":"Sète","codes_postaux":["34200"],"code_dep":"34","code_region":"76","population":45337,"surface_km2":40.58,"lat":43.3844,"lon":3.6441,"fibre_pct":91.2,"securite":{"taux_pour_mille":66.1,"annee":2024},"socio":{"annee":2021,"revenu_median":19960.0,"taux_pauvrete":25.0},"vivrescore":50},{"code_insee":"34302","nom":"Siran","codes_postaux":["34210"],"code_dep":"34","code_region":"76","population":754,"surface_km2":21.16,"lat":43.3298,"lon":2.6641,"fibre_pct":98.0,"securite":{"taux_pour_mille":0.0,"annee":2024},"socio":{"annee":2021,"revenu_median":19730.0},"vivrescore":80},{"code_insee":"34303","nom":"Sorbs","codes_postaux":["34520"],"code_dep":"34","code_region":"76","population":40,"surface_km2":20.29,"lat":43.8884,"lon":3.4069,"fibre_pct":100.0,"securite":{"taux_pour_mille":0.0,"annee":2024},"vivrescore":100},{"code_insee":"34304","nom":"Soubès","codes_postaux":["34700"],"code_dep":"34","code_region":"76","population":948,"surface_km2":12.26,"lat":43.7817,"lon":3.35,"fibre_pct":96.5,"securite":{"taux_pour_mille":0.0,"annee":2024},"socio":{"annee":2021,"revenu_median":21290.0},"vivrescore":87},{"code_insee":"34305","nom":"Le Soulié","codes_postaux":["34330"],"code_dep":"34","code_region":"76","population":137,"surface_km2":40.4,"lat":43.5397,"lon":2.6862,"fibre_pct":96.0,"securite":{"taux_pour_mille":0.0,"annee":2024},"socio":{"annee":2021,"revenu_median":17580.0},"vivrescore":80},{"code_insee":"34306","nom":"Soumont","codes_postaux":["34700"],"code_dep":"34","code_region":"76","population":246,"surface_km2":11.18,"lat":43.7237,"lon":3.3507,"fibre_pct":95.6,"securite":{"taux_pour_mille":0.0,"annee":2024},"socio":{"annee":2021,"revenu_median":18140.0},"vivrescore":80},{"code_insee":"34307","nom":"Sussargues","codes_postaux":["34160"],"code_dep":"34","code_region":"76","population":2840,"surface_km2":6.45,"lat":43.7105,"lon":3.9884,"fibre_pct":99.3,"securite":{"taux_pour_mille":18.8,"annee":2024},"socio":{"annee":2021,"revenu_median":28460.0},"vivrescore":80},{"code_insee":"34308","nom":"Taussac-la-Billière","codes_postaux":["34600"],"code_dep":"34","code_region":"76","population":460,"surface_km2":14.63,"lat":43.6339,"lon":3.0766,"fibre_pct":99.5,"securite":{"taux_pour_mille":0.0,"annee":2024},"socio":{"annee":2021,"revenu_median":21340.0},"vivrescore":87},{"code_insee":"34309","nom":"Teyran","codes_postaux":["34820"],"code_dep":"34","code_region":"76","population":4787,"surface_km2":10.12,"lat":43.688,"lon":3.9258,"fibre_pct":97.8,"securite":{"taux_pour_mille":17.1,"annee":2024},"socio":{"annee":2021,"taux_pauvrete":5.0,"revenu_median":29970.0},"vivrescore":85},{"code_insee":"34310","nom":"Thézan-lès-Béziers","codes_postaux":["34490"],"code_dep":"34","code_region":"76","population":3124,"surface_km2":13.62,"lat":43.4126,"lon":3.1593,"fibre_pct":98.0,"securite":{"taux_pour_mille":19.9,"annee":2024},"socio":{"annee":2021,"revenu_median":22860.0,"taux_pauvrete":14.0},"vivrescore":75},{"code_insee":"34311","nom":"Tourbes","codes_postaux":["34120"],"code_dep":"34","code_region":"76","population":1936,"surface_km2":16.07,"lat":43.4449,"lon":3.3722,"fibre_pct":99.0,"securite":{"taux_pour_mille":24.5,"annee":2024},"socio":{"annee":2021,"revenu_median":23590.0},"vivrescore":73},{"code_insee":"34312","nom":"La Tour-sur-Orb","codes_postaux":["34260"],"code_dep":"34","code_region":"76","population":1350,"surface_km2":30.77,"lat":43.6632,"lon":3.1522,"fibre_pct":99.0,"securite":{"taux_pour_mille":9.7,"annee":2024},"socio":{"annee":2021,"revenu_median":21430.0},"vivrescore":80},{"code_insee":"34313","nom":"Tressan","codes_postaux":["34230"],"code_dep":"34","code_region":"76","population":683,"surface_km2":3.91,"lat":43.5718,"lon":3.487,"fibre_pct":98.6,"securite":{"taux_pour_mille":11.6,"annee":2024},"socio":{"annee":2021,"revenu_median":21340.0},"vivrescore":80},{"code_insee":"34314","nom":"Le Triadou","codes_postaux":["34270"],"code_dep":"34","code_region":"76","population":737,"surface_km2":6.31,"lat":43.7358,"lon":3.8574,"fibre_pct":99.4,"securite":{"taux_pour_mille":0.0,"annee":2024},"socio":{"annee":2021,"revenu_median":27910.0},"vivrescore":93},{"code_insee":"34315","nom":"Usclas-d'Hérault","codes_postaux":["34230"],"code_dep":"34","code_region":"76","population":439,"surface_km2":2.81,"lat":43.522,"lon":3.4667,"fibre_pct":100.0,"securite":{"taux_pour_mille":0.0,"annee":2024},"socio":{"annee":2021,"revenu_median":22830.0},"vivrescore":87},{"code_insee":"34316","nom":"Usclas-du-Bosc","codes_postaux":["34700"],"code_dep":"34","code_region":"76","population":250,"surface_km2":4.52,"lat":43.7249,"lon":3.3967,"fibre_pct":93.4,"securite":{"taux_pour_mille":0.0,"annee":2024},"socio":{"annee":2021,"revenu_median":24390.0},"vivrescore":80},{"code_insee":"34317","nom":"La Vacquerie-et-Saint-Martin-de-Castries","codes_postaux":["34520"],"code_dep":"34","code_region":"76","population":210,"surface_km2":43.51,"lat":43.7939,"lon":3.4827,"fibre_pct":99.2,"securite":{"taux_pour_mille":0.0,"annee":2024},"socio":{"annee":2021,"revenu_median":18230.0},"vivrescore":80},{"code_insee":"34318","nom":"Vacquières","codes_postaux":["34270"],"code_dep":"34","code_region":"76","population":772,"surface_km2":14.71,"lat":43.8286,"lon":3.953,"fibre_pct":78.9,"securite":{"taux_pour_mille":0.0,"annee":2024},"socio":{"annee":2021,"revenu_median":23000.0},"vivrescore":73},{"code_insee":"34319","nom":"Vailhan","codes_postaux":["34320"],"code_dep":"34","code_region":"76","population":142,"surface_km2":11.34,"lat":43.558,"lon":3.2958,"fibre_pct":100.0,"securite":{"taux_pour_mille":0.0,"annee":2024},"socio":{"annee":2021,"revenu_median":18130.0},"vivrescore":80},{"code_insee":"34320","nom":"Vailhauquès","codes_postaux":["34570"],"code_dep":"34","code_region":"76","population":2722,"surface_km2":16.19,"lat":43.6652,"lon":3.7304,"fibre_pct":99.6,"securite":{"taux_pour_mille":15.3,"annee":2024},"socio":{"annee":2021,"revenu_median":27230.0},"vivrescore":80},{"code_insee":"34321","nom":"Valergues","codes_postaux":["34130"],"code_dep":"34","code_region":"76","population":2238,"surface_km2":5.25,"lat":43.6718,"lon":4.0572,"fibre_pct":97.2,"securite":{"taux_pour_mille":18.4,"annee":2024},"socio":{"annee":2021,"revenu_median":24940.0,"taux_pauvrete":10.0},"vivrescore":80},{"code_insee":"34322","nom":"Valflaunès","codes_postaux":["34270"],"code_dep":"34","code_region":"76","population":795,"surface_km2":21.23,"lat":43.8048,"lon":3.8597,"fibre_pct":98.6,"securite":{"taux_pour_mille":6.3,"annee":2024},"socio":{"annee":2021,"revenu_median":27100.0},"vivrescore":87},{"code_insee":"34323","nom":"Valmascle","codes_postaux":["34800"],"code_dep":"34","code_region":"76","population":52,"surface_km2":6.92,"lat":43.5999,"lon":3.3003,"fibre_pct":70.3,"securite":{"taux_pour_mille":0.0,"annee":2024},"vivrescore":80},{"code_insee":"34324","nom":"Valras-Plage","codes_postaux":["34350"],"code_dep":"34","code_region":"76","population":4432,"surface_km2":3.19,"lat":43.2471,"lon":3.2909,"fibre_pct":99.2,"securite":{"taux_pour_mille":92.8,"annee":2024},"socio":{"annee":2021,"revenu_median":20760.0,"taux_pauvrete":18.0},"vivrescore":60},{"code_insee":"34325","nom":"Valros","codes_postaux":["34290"],"code_dep":"34","code_region":"76","population":1685,"surface_km2":6.66,"lat":43.4193,"lon":3.3648,"fibre_pct":99.6,"securite":{"taux_pour_mille":14.4,"annee":2024},"socio":{"annee":2021,"revenu_median":21700.0},"vivrescore":80},{"code_insee":"34326","nom":"Vélieux","codes_postaux":["34220"],"code_dep":"34","code_region":"76","population":95,"surface_km2":10.15,"lat":43.3931,"lon":2.7446,"fibre_pct":97.1,"securite":{"taux_pour_mille":0.0,"annee":2024},"vivrescore":100},{"code_insee":"34327","nom":"Vendargues","codes_postaux":["34740"],"code_dep":"34","code_region":"76","population":7262,"surface_km2":9.19,"lat":43.6624,"lon":3.9657,"fibre_pct":92.6,"securite":{"taux_pour_mille":46.2,"annee":2024},"socio":{"annee":2021,"revenu_median":25340.0,"taux_pauvrete":9.0},"vivrescore":70},{"code_insee":"34328","nom":"Vendémian","codes_postaux":["34230"],"code_dep":"34","code_region":"76","population":1149,"surface_km2":16.95,"lat":43.5808,"lon":3.5611,"fibre_pct":99.1,"securite":{"taux_pour_mille":6.1,"annee":2024},"socio":{"annee":2021,"revenu_median":23030.0},"vivrescore":80},{"code_insee":"34329","nom":"Vendres","codes_postaux":["34350"],"code_dep":"34","code_region":"76","population":2616,"surface_km2":37.92,"lat":43.2569,"lon":3.2304,"fibre_pct":98.5,"securite":{"taux_pour_mille":50.2,"annee":2024},"socio":{"annee":2021,"taux_pauvrete":14.0,"revenu_median":22350.0},"vivrescore":65},{"code_insee":"34331","nom":"Verreries-de-Moussans","codes_postaux":["34220"],"code_dep":"34","code_region":"76","population":84,"surface_km2":18.83,"lat":43.45,"lon":2.6794,"fibre_pct":98.4,"securite":{"taux_pour_mille":0.0,"annee":2024},"vivrescore":100},{"code_insee":"34332","nom":"Vias","codes_postaux":["34450"],"code_dep":"34","code_region":"76","population":5952,"surface_km2":32.62,"lat":43.3091,"lon":3.3948,"fibre_pct":96.0,"securite":{"taux_pour_mille":106.7,"annee":2024},"socio":{"annee":2021,"revenu_median":19780.0,"taux_pauvrete":23.0},"vivrescore":55},{"code_insee":"34333","nom":"Vic-la-Gardiole","codes_postaux":["34110"],"code_dep":"34","code_region":"76","population":3428,"surface_km2":30.72,"lat":43.4838,"lon":3.8046,"fibre_pct":92.9,"securite":{"taux_pour_mille":35.5,"annee":2024},"socio":{"annee":2021,"revenu_median":22730.0,"taux_pauvrete":12.0},"vivrescore":65},{"code_insee":"34334","nom":"Vieussan","codes_postaux":["34390"],"code_dep":"34","code_region":"76","population":267,"surface_km2":28.01,"lat":43.5402,"lon":2.9975,"fibre_pct":99.1,"securite":{"taux_pour_mille":0.0,"annee":2024},"socio":{"annee":2021,"revenu_median":16530.0},"vivrescore":80},{"code_insee":"34335","nom":"Villemagne-l'Argentière","codes_postaux":["34600"],"code_dep":"34","code_region":"76","population":415,"surface_km2":8.0,"lat":43.6189,"lon":3.1208,"fibre_pct":99.1,"securite":{"taux_pour_mille":0.0,"annee":2024},"socio":{"annee":2021,"revenu_median":22070.0},"vivrescore":87},{"code_insee":"34336","nom":"Villeneuve-lès-Béziers","codes_postaux":["34420","34500"],"code_dep":"34","code_region":"76","population":4500,"surface_km2":17.33,"lat":43.3178,"lon":3.2909,"fibre_pct":94.5,"securite":{"taux_pour_mille":46.2,"annee":2024},"socio":{"annee":2021,"revenu_median":20500.0,"taux_pauvrete":22.0},