[{"code_insee":"39001","nom":"Abergement-la-Ronce","codes_postaux":["39500"],"code_dep":"39","code_region":"27","population":827,"surface_km2":7.11,"lat":47.0653,"lon":5.3778,"fibre_pct":95.2,"vivrescore":100},{"code_insee":"39002","nom":"Abergement-le-Grand","codes_postaux":["39600"],"code_dep":"39","code_region":"27","population":61,"surface_km2":4.19,"lat":46.9141,"lon":5.6785,"fibre_pct":94.6,"vivrescore":80},{"code_insee":"39003","nom":"Abergement-le-Petit","codes_postaux":["39800"],"code_dep":"39","code_region":"27","population":46,"surface_km2":1.59,"lat":46.9064,"lon":5.6973,"fibre_pct":99.7,"vivrescore":100},{"code_insee":"39004","nom":"Abergement-lès-Thésy","codes_postaux":["39110"],"code_dep":"39","code_region":"27","population":46,"surface_km2":4.62,"lat":46.9109,"lon":5.9447,"fibre_pct":100.0,"vivrescore":100},{"code_insee":"39006","nom":"Aiglepierre","codes_postaux":["39110"],"code_dep":"39","code_region":"27","population":412,"surface_km2":7.11,"lat":46.955,"lon":5.8096,"fibre_pct":87.8,"vivrescore":80},{"code_insee":"39007","nom":"Alièze","codes_postaux":["39270"],"code_dep":"39","code_region":"27","population":149,"surface_km2":5.82,"lat":46.588,"lon":5.5851,"fibre_pct":98.9,"vivrescore":100},{"code_insee":"39008","nom":"Amange","codes_postaux":["39700"],"code_dep":"39","code_region":"27","population":428,"surface_km2":6.75,"lat":47.1691,"lon":5.5659,"fibre_pct":90.6,"vivrescore":80},{"code_insee":"39009","nom":"Andelot-en-Montagne","codes_postaux":["39110"],"code_dep":"39","code_region":"27","population":574,"surface_km2":12.63,"lat":46.8604,"lon":5.9277,"fibre_pct":94.8,"vivrescore":80},{"code_insee":"39010","nom":"Andelot-Morval","codes_postaux":["39320"],"code_dep":"39","code_region":"27","population":90,"surface_km2":10.33,"lat":46.4235,"lon":5.4278,"fibre_pct":100.0,"vivrescore":100},{"code_insee":"39011","nom":"Annoire","codes_postaux":["39120"],"code_dep":"39","code_region":"27","population":423,"surface_km2":15.65,"lat":46.9585,"lon":5.2796,"fibre_pct":100.0,"vivrescore":100},{"code_insee":"39013","nom":"Arbois","codes_postaux":["39600"],"code_dep":"39","code_region":"27","population":3114,"surface_km2":45.57,"lat":46.8876,"lon":5.773,"fibre_pct":94.2,"vivrescore":80},{"code_insee":"39014","nom":"Archelange","codes_postaux":["39290"],"code_dep":"39","code_region":"27","population":219,"surface_km2":4.96,"lat":47.1523,"lon":5.5163,"fibre_pct":100.0,"vivrescore":100},{"code_insee":"39015","nom":"Ardon","codes_postaux":["39300"],"code_dep":"39","code_region":"27","population":109,"surface_km2":5.14,"lat":46.7719,"lon":5.8773,"fibre_pct":100.0,"vivrescore":100},{"code_insee":"39016","nom":"Arinthod","codes_postaux":["39240"],"code_dep":"39","code_region":"27","population":1149,"surface_km2":27.4,"lat":46.3917,"lon":5.5882,"fibre_pct":98.3,"vivrescore":100},{"code_insee":"39017","nom":"Arlay","codes_postaux":["39140","39210"],"code_dep":"39","code_region":"27","population":1182,"surface_km2":20.29,"lat":46.767,"lon":5.5383,"fibre_pct":95.7,"vivrescore":100},{"code_insee":"39018","nom":"Aromas","codes_postaux":["39240"],"code_dep":"39","code_region":"27","population":580,"surface_km2":26.11,"lat":46.3135,"lon":5.4871,"fibre_pct":96.3,"vivrescore":100},{"code_insee":"39019","nom":"Les Arsures","codes_postaux":["39600"],"code_dep":"39","code_region":"27","population":229,"surface_km2":4.49,"lat":46.9536,"lon":5.7833,"fibre_pct":96.7,"vivrescore":100},{"code_insee":"39020","nom":"Arsure-Arsurette","codes_postaux":["39250"],"code_dep":"39","code_region":"27","population":100,"surface_km2":12.71,"lat":46.7149,"lon":6.0827,"fibre_pct":100.0,"vivrescore":100},{"code_insee":"39021","nom":"La Chailleuse","codes_postaux":["39270","39570"],"code_dep":"39","code_region":"27","population":587,"surface_km2":24.91,"lat":46.5822,"lon":5.5233,"fibre_pct":94.3,"vivrescore":80},{"code_insee":"39022","nom":"Asnans-Beauvoisin","codes_postaux":["39120"],"code_dep":"39","code_region":"27","population":713,"surface_km2":16.38,"lat":46.9385,"lon":5.4001,"fibre_pct":99.8,"vivrescore":100},{"code_insee":"39024","nom":"Audelange","codes_postaux":["39700"],"code_dep":"39","code_region":"27","population":256,"surface_km2":4.67,"lat":47.1402,"lon":5.5876,"fibre_pct":89.8,"vivrescore":80},{"code_insee":"39025","nom":"Augea","codes_postaux":["39190"],"code_dep":"39","code_region":"27","population":285,"surface_km2":7.61,"lat":46.5629,"lon":5.3894,"fibre_pct":98.2,"vivrescore":100},{"code_insee":"39026","nom":"Augerans","codes_postaux":["39380"],"code_dep":"39","code_region":"27","population":188,"surface_km2":8.05,"lat":47.0268,"lon":5.5867,"fibre_pct":98.4,"vivrescore":100},{"code_insee":"39027","nom":"Augisey","codes_postaux":["39270"],"code_dep":"39","code_region":"27","population":191,"surface_km2":9.32,"lat":46.556,"lon":5.4947,"fibre_pct":85.4,"vivrescore":80},{"code_insee":"39028","nom":"Aumont","codes_postaux":["39800"],"code_dep":"39","code_region":"27","population":447,"surface_km2":8.16,"lat":46.9179,"lon":5.636,"fibre_pct":100.0,"vivrescore":100},{"code_insee":"39029","nom":"Aumur","codes_postaux":["39410"],"code_dep":"39","code_region":"27","population":393,"surface_km2":9.16,"lat":47.0609,"lon":5.333,"fibre_pct":99.5,"vivrescore":100},{"code_insee":"39030","nom":"Authume","codes_postaux":["39100"],"code_dep":"39","code_region":"27","population":906,"surface_km2":7.6,"lat":47.1242,"lon":5.5075,"fibre_pct":98.7,"vivrescore":100},{"code_insee":"39031","nom":"Auxange","codes_postaux":["39700"],"code_dep":"39","code_region":"27","population":198,"surface_km2":5.16,"lat":47.1782,"lon":5.6539,"fibre_pct":96.7,"vivrescore":100},{"code_insee":"39032","nom":"Avignon-lès-Saint-Claude","codes_postaux":["39200"],"code_dep":"39","code_region":"27","population":348,"surface_km2":7.75,"lat":46.4032,"lon":5.8376,"fibre_pct":100.0,"vivrescore":100},{"code_insee":"39034","nom":"Balaiseaux","codes_postaux":["39120"],"code_dep":"39","code_region":"27","population":291,"surface_km2":6.04,"lat":46.9671,"lon":5.4595,"fibre_pct":100.0,"vivrescore":100},{"code_insee":"39035","nom":"Balanod","codes_postaux":["39160"],"code_dep":"39","code_region":"27","population":323,"surface_km2":4.9,"lat":46.4558,"lon":5.349,"fibre_pct":96.3,"vivrescore":100},{"code_insee":"39037","nom":"Bans","codes_postaux":["39380"],"code_dep":"39","code_region":"27","population":174,"surface_km2":4.13,"lat":46.9801,"lon":5.5798,"fibre_pct":93.0,"vivrescore":80},{"code_insee":"39038","nom":"Barésia-sur-l'Ain","codes_postaux":["39130"],"code_dep":"39","code_region":"27","population":163,"surface_km2":11.1,"lat":46.5438,"lon":5.7001,"fibre_pct":100.0,"vivrescore":100},{"code_insee":"39039","nom":"La Barre","codes_postaux":["39700"],"code_dep":"39","code_region":"27","population":236,"surface_km2":3.31,"lat":47.1576,"lon":5.6911,"fibre_pct":100.0,"vivrescore":100},{"code_insee":"39040","nom":"Barretaine","codes_postaux":["39800"],"code_dep":"39","code_region":"27","population":199,"surface_km2":9.22,"lat":46.8079,"lon":5.7207,"fibre_pct":99.2,"vivrescore":100},{"code_insee":"39041","nom":"Baume-les-Messieurs","codes_postaux":["39210","39570"],"code_dep":"39","code_region":"27","population":160,"surface_km2":13.2,"lat":46.7059,"lon":5.6586,"fibre_pct":100.0,"vivrescore":100},{"code_insee":"39042","nom":"Baverans","codes_postaux":["39100"],"code_dep":"39","code_region":"27","population":498,"surface_km2":3.4,"lat":47.1065,"lon":5.5364,"fibre_pct":98.5,"vivrescore":100},{"code_insee":"39043","nom":"Beaufort-Orbagna","codes_postaux":["39190"],"code_dep":"39","code_region":"27","population":1481,"surface_km2":17.33,"lat":46.5854,"lon":5.4355,"fibre_pct":93.2,"vivrescore":80},{"code_insee":"39045","nom":"Beffia","codes_postaux":["39270"],"code_dep":"39","code_region":"27","population":86,"surface_km2":5.2,"lat":46.5306,"lon":5.5487,"fibre_pct":100.0,"vivrescore":100},{"code_insee":"39046","nom":"Bellecombe","codes_postaux":["39310"],"code_dep":"39","code_region":"27","population":73,"surface_km2":12.26,"lat":46.3101,"lon":5.911,"fibre_pct":98.8,"vivrescore":100},{"code_insee":"39047","nom":"Bellefontaine","codes_postaux":["39400"],"code_dep":"39","code_region":"27","population":494,"surface_km2":24.39,"lat":46.5584,"lon":6.0791,"fibre_pct":99.1,"vivrescore":100},{"code_insee":"39048","nom":"Belmont","codes_postaux":["39380"],"code_dep":"39","code_region":"27","population":258,"surface_km2":16.02,"lat":47.0293,"lon":5.606,"fibre_pct":100.0,"vivrescore":100},{"code_insee":"39049","nom":"Bersaillin","codes_postaux":["39800"],"code_dep":"39","code_region":"27","population":396,"surface_km2":14.07,"lat":46.8606,"lon":5.595,"fibre_pct":100.0,"vivrescore":100},{"code_insee":"39050","nom":"Besain","codes_postaux":["39800"],"code_dep":"39","code_region":"27","population":159,"surface_km2":13.03,"lat":46.7857,"lon":5.795,"fibre_pct":99.2,"vivrescore":100},{"code_insee":"39051","nom":"Biarne","codes_postaux":["39290"],"code_dep":"39","code_region":"27","population":433,"surface_km2":6.24,"lat":47.1452,"lon":5.4528,"fibre_pct":94.9,"vivrescore":80},{"code_insee":"39052","nom":"Bief-des-Maisons","codes_postaux":["39150"],"code_dep":"39","code_region":"27","population":78,"surface_km2":5.8,"lat":46.7014,"lon":6.049,"fibre_pct":94.4,"vivrescore":80},{"code_insee":"39053","nom":"Bief-du-Fourg","codes_postaux":["39250"],"code_dep":"39","code_region":"27","population":218,"surface_km2":10.13,"lat":46.8243,"lon":6.1225,"fibre_pct":86.5,"vivrescore":80},{"code_insee":"39054","nom":"Biefmorin","codes_postaux":["39800"],"code_dep":"39","code_region":"27","population":91,"surface_km2":11.34,"lat":46.904,"lon":5.5272,"fibre_pct":100.0,"vivrescore":100},{"code_insee":"39055","nom":"Billecul","codes_postaux":["39250"],"code_dep":"39","code_region":"27","population":60,"surface_km2":4.35,"lat":46.7457,"lon":6.0575,"fibre_pct":100.0,"vivrescore":100},{"code_insee":"39056","nom":"Bletterans","codes_postaux":["39140"],"code_dep":"39","code_region":"27","population":1528,"surface_km2":7.84,"lat":46.7299,"lon":5.4322,"fibre_pct":96.2,"vivrescore":100},{"code_insee":"39057","nom":"Blois-sur-Seille","codes_postaux":["39210"],"code_dep":"39","code_region":"27","population":102,"surface_km2":5.41,"lat":46.7479,"lon":5.6677,"fibre_pct":100.0,"vivrescore":100},{"code_insee":"39058","nom":"Blye","codes_postaux":["39130"],"code_dep":"39","code_region":"27","population":143,"surface_km2":10.93,"lat":46.6284,"lon":5.6977,"fibre_pct":95.6,"vivrescore":100},{"code_insee":"39059","nom":"Bois-d'Amont","codes_postaux":["39220"],"code_dep":"39","code_region":"27","population":1738,"surface_km2":10.36,"lat":46.5372,"lon":6.1272,"fibre_pct":97.7,"vivrescore":100},{"code_insee":"39060","nom":"Bois-de-Gand","codes_postaux":["39230"],"code_dep":"39","code_region":"27","population":60,"surface_km2":3.3,"lat":46.8261,"lon":5.5019,"fibre_pct":100.0,"vivrescore":100},{"code_insee":"39061","nom":"Boissia","codes_postaux":["39130"],"code_dep":"39","code_region":"27","population":119,"surface_km2":5.91,"lat":46.58,"lon":5.7233,"fibre_pct":100.0,"vivrescore":100},{"code_insee":"39062","nom":"La Boissière","codes_postaux":["39240"],"code_dep":"39","code_region":"27","population":57,"surface_km2":5.36,"lat":46.4214,"lon":5.5208,"fibre_pct":100.0,"vivrescore":100},{"code_insee":"39063","nom":"Bonlieu","codes_postaux":["39130"],"code_dep":"39","code_region":"27","population":223,"surface_km2":12.94,"lat":46.5949,"lon":5.8461,"fibre_pct":87.5,"vivrescore":80},{"code_insee":"39065","nom":"Bonnefontaine","codes_postaux":["39800"],"code_dep":"39","code_region":"27","population":103,"surface_km2":8.86,"lat":46.7344,"lon":5.7536,"fibre_pct":100.0,"vivrescore":100},{"code_insee":"39066","nom":"Bornay","codes_postaux":["39570"],"code_dep":"39","code_region":"27","population":184,"surface_km2":6.72,"lat":46.6128,"lon":5.5545,"fibre_pct":98.1,"vivrescore":100},{"code_insee":"39068","nom":"Les Bouchoux","codes_postaux":["39370"],"code_dep":"39","code_region":"27","population":315,"surface_km2":21.53,"lat":46.2977,"lon":5.7998,"fibre_pct":76.8,"vivrescore":60},{"code_insee":"39070","nom":"Bourg-de-Sirod","codes_postaux":["39300"],"code_dep":"39","code_region":"27","population":88,"surface_km2":4.44,"lat":46.7298,"lon":5.9569,"fibre_pct":100.0,"vivrescore":100},{"code_insee":"39072","nom":"Bracon","codes_postaux":["39110"],"code_dep":"39","code_region":"27","population":398,"surface_km2":6.4,"lat":46.9263,"lon":5.8672,"fibre_pct":92.6,"vivrescore":80},{"code_insee":"39073","nom":"Brainans","codes_postaux":["39800"],"code_dep":"39","code_region":"27","population":200,"surface_km2":7.06,"lat":46.8708,"lon":5.6278,"fibre_pct":100.0,"vivrescore":100},{"code_insee":"39074","nom":"Brans","codes_postaux":["39290"],"code_dep":"39","code_region":"27","population":200,"surface_km2":8.73,"lat":47.2238,"lon":5.574,"fibre_pct":96.6,"vivrescore":100},{"code_insee":"39076","nom":"La Bretenière","codes_postaux":["39700"],"code_dep":"39","code_region":"27","population":211,"surface_km2":1.62,"lat":47.1293,"lon":5.6676,"fibre_pct":100.0,"vivrescore":100},{"code_insee":"39077","nom":"Bretenières","codes_postaux":["39120"],"code_dep":"39","code_region":"27","population":44,"surface_km2":4.11,"lat":46.9213,"lon":5.5397,"fibre_pct":100.0,"vivrescore":100},{"code_insee":"39078","nom":"Brevans","codes_postaux":["39100"],"code_dep":"39","code_region":"27","population":668,"surface_km2":3.64,"lat":47.1023,"lon":5.5246,"fibre_pct":88.3,"vivrescore":80},{"code_insee":"39079","nom":"Briod","codes_postaux":["39570"],"code_dep":"39","code_region":"27","population":216,"surface_km2":4.2,"lat":46.6622,"lon":5.622,"fibre_pct":100.0,"vivrescore":100},{"code_insee":"39080","nom":"Broissia","codes_postaux":["39320"],"code_dep":"39","code_region":"27","population":57,"surface_km2":3.02,"lat":46.3562,"lon":5.4335,"fibre_pct":100.0,"vivrescore":100},{"code_insee":"39081","nom":"Buvilly","codes_postaux":["39800"],"code_dep":"39","code_region":"27","population":383,"surface_km2":6.0,"lat":46.8698,"lon":5.7266,"fibre_pct":100.0,"vivrescore":100},{"code_insee":"39083","nom":"Censeau","codes_postaux":["39250"],"code_dep":"39","code_region":"27","population":333,"surface_km2":9.79,"lat":46.8188,"lon":6.0792,"fibre_pct":100.0,"vivrescore":100},{"code_insee":"39084","nom":"Cernans","codes_postaux":["39110"],"code_dep":"39","code_region":"27","population":147,"surface_km2":5.51,"lat":46.9344,"lon":5.9404,"fibre_pct":54.5,"vivrescore":40},{"code_insee":"39085","nom":"Cerniébaud","codes_postaux":["39250"],"code_dep":"39","code_region":"27","population":91,"surface_km2":10.44,"lat":46.7378,"lon":6.1252,"fibre_pct":100.0,"vivrescore":100},{"code_insee":"39086","nom":"Cernon","codes_postaux":["39240"],"code_dep":"39","code_region":"27","population":235,"surface_km2":17.01,"lat":46.4097,"lon":5.6447,"fibre_pct":99.6,"vivrescore":100},{"code_insee":"39088","nom":"Cesancey","codes_postaux":["39570"],"code_dep":"39","code_region":"27","population":389,"surface_km2":5.21,"lat":46.6209,"lon":5.4879,"fibre_pct":100.0,"vivrescore":100},{"code_insee":"39090","nom":"Chaînée-des-Coupis","codes_postaux":["39120"],"code_dep":"39","code_region":"27","population":183,"surface_km2":5.22,"lat":46.9213,"lon":5.4341,"fibre_pct":100.0,"vivrescore":100},{"code_insee":"39091","nom":"Les Chalesmes","codes_postaux":["39150"],"code_dep":"39","code_region":"27","population":80,"surface_km2":9.36,"lat":46.6946,"lon":6.0267,"fibre_pct":100.0,"vivrescore":100},{"code_insee":"39092","nom":"Chambéria","codes_postaux":["39270"],"code_dep":"39","code_region":"27","population":200,"surface_km2":14.74,"lat":46.4698,"lon":5.5712,"fibre_pct":100.0,"vivrescore":100},{"code_insee":"39093","nom":"Chamblay","codes_postaux":["39380"],"code_dep":"39","code_region":"27","population":423,"surface_km2":13.86,"lat":46.9915,"lon":5.7035,"fibre_pct":98.0,"vivrescore":100},{"code_insee":"39094","nom":"Chamole","codes_postaux":["39800"],"code_dep":"39","code_region":"27","population":161,"surface_km2":5.86,"lat":46.8453,"lon":5.7382,"fibre_pct":97.1,"vivrescore":100},{"code_insee":"39095","nom":"Champagne-sur-Loue","codes_postaux":["39600"],"code_dep":"39","code_region":"27","population":122,"surface_km2":3.77,"lat":47.0329,"lon":5.8051,"fibre_pct":100.0,"vivrescore":100},{"code_insee":"39096","nom":"Champagney","codes_postaux":["39290"],"code_dep":"39","code_region":"27","population":473,"surface_km2":15.53,"lat":47.2601,"lon":5.5079,"fibre_pct":97.9,"vivrescore":100},{"code_insee":"39097","nom":"Champagnole","codes_postaux":["39300"],"code_dep":"39","code_region":"27","population":8036,"surface_km2":20.13,"lat":46.7423,"lon":5.8938,"fibre_pct":98.2,"vivrescore":100},{"code_insee":"39099","nom":"Champdivers","codes_postaux":["39500"],"code_dep":"39","code_region":"27","population":445,"surface_km2":7.71,"lat":47.0084,"lon":5.3888,"fibre_pct":100.0,"vivrescore":100},{"code_insee":"39100","nom":"Champrougier","codes_postaux":["39230"],"code_dep":"39","code_region":"27","population":95,"surface_km2":8.89,"lat":46.8828,"lon":5.5097,"fibre_pct":98.5,"vivrescore":100},{"code_insee":"39101","nom":"Champvans","codes_postaux":["39100"],"code_dep":"39","code_region":"27","population":1460,"surface_km2":14.39,"lat":47.1017,"lon":5.4167,"fibre_pct":92.6,"vivrescore":80},{"code_insee":"39102","nom":"Chancia","codes_postaux":["01590"],"code_dep":"39","code_region":"27","population":211,"surface_km2":3.13,"lat":46.3462,"lon":5.6423,"fibre_pct":100.0,"vivrescore":100},{"code_insee":"39103","nom":"La Chapelle-sur-Furieuse","codes_postaux":["39110"],"code_dep":"39","code_region":"27","population":295,"surface_km2":8.94,"lat":46.9846,"lon":5.8605,"fibre_pct":91.4,"vivrescore":80},{"code_insee":"39104","nom":"Chapelle-Voland","codes_postaux":["39140"],"code_dep":"39","code_region":"27","population":638,"surface_km2":30.5,"lat":46.801,"lon":5.3792,"fibre_pct":98.5,"vivrescore":100},{"code_insee":"39105","nom":"Chapois","codes_postaux":["39300"],"code_dep":"39","code_region":"27","population":219,"surface_km2":10.12,"lat":46.8312,"lon":5.9661,"fibre_pct":100.0,"vivrescore":100},{"code_insee":"39106","nom":"Charchilla","codes_postaux":["39260"],"code_dep":"39","code_region":"27","population":302,"surface_km2":6.93,"lat":46.4667,"lon":5.7147,"fibre_pct":98.1,"vivrescore":100},{"code_insee":"39107","nom":"Charcier","codes_postaux":["39130"],"code_dep":"39","code_region":"27","population":136,"surface_km2":12.99,"lat":46.63,"lon":5.7596,"fibre_pct":100.0,"vivrescore":100},{"code_insee":"39108","nom":"Charency","codes_postaux":["39250"],"code_dep":"39","code_region":"27","population":55,"surface_km2":2.85,"lat":46.7668,"lon":5.9904,"fibre_pct":100.0,"vivrescore":100},{"code_insee":"39109","nom":"Charézier","codes_postaux":["39130"],"code_dep":"39","code_region":"27","population":166,"surface_km2":9.32,"lat":46.6142,"lon":5.7361,"fibre_pct":96.7,"vivrescore":100},{"code_insee":"39110","nom":"La Charme","codes_postaux":["39230"],"code_dep":"39","code_region":"27","population":65,"surface_km2":3.76,"lat":46.8502,"lon":5.5442,"fibre_pct":100.0,"vivrescore":100},{"code_insee":"39111","nom":"Charnod","codes_postaux":["39240"],"code_dep":"39","code_region":"27","population":37,"surface_km2":5.12,"lat":46.3386,"lon":5.4939,"fibre_pct":100.0,"vivrescore":100},{"code_insee":"39112","nom":"La Chassagne","codes_postaux":["39230"],"code_dep":"39","code_region":"27","population":110,"surface_km2":5.74,"lat":46.8682,"lon":5.4535,"fibre_pct":100.0,"vivrescore":100},{"code_insee":"39114","nom":"Château-Chalon","codes_postaux":["39210"],"code_dep":"39","code_region":"27","population":149,"surface_km2":10.21,"lat":46.7594,"lon":5.6473,"fibre_pct":100.0,"vivrescore":100},{"code_insee":"39116","nom":"La Châtelaine","codes_postaux":["39600"],"code_dep":"39","code_region":"27","population":151,"surface_km2":13.01,"lat":46.8621,"lon":5.8257,"fibre_pct":100.0,"vivrescore":100},{"code_insee":"39117","nom":"Chatelay","codes_postaux":["39380"],"code_dep":"39","code_region":"27","population":99,"surface_km2":13.18,"lat":47.0535,"lon":5.6971,"fibre_pct":98.7,"vivrescore":100},{"code_insee":"39118","nom":"Châtel-de-Joux","codes_postaux":["39130"],"code_dep":"39","code_region":"27","population":47,"surface_km2":14.29,"lat":46.529,"lon":5.8053,"fibre_pct":100.0,"vivrescore":100},{"code_insee":"39119","nom":"Le Chateley","codes_postaux":["39230"],"code_dep":"39","code_region":"27","population":86,"surface_km2":4.7,"lat":46.8797,"lon":5.5439,"fibre_pct":100.0,"vivrescore":100},{"code_insee":"39120","nom":"Châtelneuf","codes_postaux":["39300"],"code_dep":"39","code_region":"27","population":120,"surface_km2":13.17,"lat":46.664,"lon":5.9117,"fibre_pct":92.0,"vivrescore":80},{"code_insee":"39121","nom":"Châtenois","codes_postaux":["39700"],"code_dep":"39","code_region":"27","population":411,"surface_km2":8.01,"lat":47.1543,"lon":5.5493,"fibre_pct":100.0,"vivrescore":100},{"code_insee":"39122","nom":"Châtillon","codes_postaux":["39130"],"code_dep":"39","code_region":"27","population":122,"surface_km2":16.88,"lat":46.6658,"lon":5.7314,"fibre_pct":97.6,"vivrescore":100},{"code_insee":"39124","nom":"Chaumergy","codes_postaux":["39230"],"code_dep":"39","code_region":"27","population":510,"surface_km2":6.23,"lat":46.8427,"lon":5.4767,"fibre_pct":100.0,"vivrescore":100},{"code_insee":"39126","nom":"La Chaumusse","codes_postaux":["39150"],"code_dep":"39","code_region":"27","population":389,"surface_km2":10.71,"lat":46.6012,"lon":5.9428,"fibre_pct":93.4,"vivrescore":80},{"code_insee":"39127","nom":"Chaussenans","codes_postaux":["39800"],"code_dep":"39","code_region":"27","population":102,"surface_km2":4.4,"lat":46.823,"lon":5.7442,"fibre_pct":100.0,"vivrescore":100},{"code_insee":"39128","nom":"Chaussin","codes_postaux":["39120"],"code_dep":"39","code_region":"27","population":1606,"surface_km2":16.0,"lat":46.9743,"lon":5.4046,"fibre_pct":98.4,"vivrescore":100},{"code_insee":"39129","nom":"Chaux-des-Crotenay","codes_postaux":["39150"],"code_dep":"39","code_region":"27","population":409,"surface_km2":11.69,"lat":46.6612,"lon":5.9604,"fibre_pct":88.8,"vivrescore":80},{"code_insee":"39130","nom":"Nanchez","codes_postaux":["39150","39200"],"code_dep":"39","code_region":"27","population":764,"surface_km2":31.45,"lat":46.505,"lon":5.8689,"fibre_pct":97.3,"vivrescore":100},{"code_insee":"39131","nom":"La Chaux-du-Dombief","codes_postaux":["39150"],"code_dep":"39","code_region":"27","population":574,"surface_km2":21.72,"lat":46.6012,"lon":5.9106,"fibre_pct":99.0,"vivrescore":100},{"code_insee":"39132","nom":"La Chaux-en-Bresse","codes_postaux":["39230"],"code_dep":"39","code_region":"27","population":30,"surface_km2":2.08,"lat":46.8262,"lon":5.4764,"fibre_pct":100.0,"vivrescore":100},{"code_insee":"39133","nom":"Chaux-Champagny","codes_postaux":["39110"],"code_dep":"39","code_region":"27","population":73,"surface_km2":7.48,"lat":46.8814,"lon":5.8805,"fibre_pct":100.0,"vivrescore":100},{"code_insee":"39134","nom":"Chavéria","codes_postaux":["39270"],"code_dep":"39","code_region":"27","population":201,"surface_km2":10.26,"lat":46.498,"lon":5.5589,"fibre_pct":100.0,"vivrescore":100},{"code_insee":"39136","nom":"Chemenot","codes_postaux":["39230"],"code_dep":"39","code_region":"27","population":31,"surface_km2":4.81,"lat":46.861,"lon":5.5274,"fibre_pct":100.0,"vivrescore":100},{"code_insee":"39137","nom":"Saint-Hymetière-sur-Valouse","codes_postaux":["39240"],"code_dep":"39","code_region":"27","population":409,"surface_km2":18.4,"lat":46.3442,"lon":5.5665,"fibre_pct":99.6,"vivrescore":100},{"code_insee":"39138","nom":"Chemin","codes_postaux":["39120"],"code_dep":"39","code_region":"27","population":312,"surface_km2":9.27,"lat":46.9758,"lon":5.3171,"fibre_pct":100.0,"vivrescore":100},{"code_insee":"39139","nom":"Chêne-Bernard","codes_postaux":["39120"],"code_dep":"39","code_region":"27","population":80,"surface_km2":3.65,"lat":46.9162,"lon":5.4744,"fibre_pct":100.0,"vivrescore":100},{"code_insee":"39140","nom":"Chêne-Sec","codes_postaux":["39230"],"code_dep":"39","code_region":"27","population":39,"surface_km2":0.82,"lat":46.8533,"lon":5.4444,"fibre_pct":100.0,"vivrescore":100},{"code_insee":"39141","nom":"Chevigny","codes_postaux":["39290"],"code_dep":"39","code_region":"27","population":255,"surface_km2":7.87,"lat":47.1779,"lon":5.475,"fibre_pct":100.0,"vivrescore":100},{"code_insee":"39142","nom":"Chevreaux","codes_postaux":["39190"],"code_dep":"39","code_region":"27","population":124,"surface_km2":6.14,"lat":46.4993,"lon":5.4218,"fibre_pct":100.0,"vivrescore":100},{"code_insee":"39143","nom":"Chevrotaine","codes_postaux":["39130"],"code_dep":"39","code_region":"27","population":34,"surface_km2":5.32,"lat":46.6522,"lon":5.8606,"fibre_pct":100.0,"vivrescore":100},{"code_insee":"39145","nom":"Chille","codes_postaux":["39570"],"code_dep":"39","code_region":"27","population":295,"surface_km2":1.98,"lat":46.6938,"lon":5.5718,"fibre_pct":99.4,"vivrescore":100},{"code_insee":"39146","nom":"Chilly-le-Vignoble","codes_postaux":["39570"],"code_dep":"39","code_region":"27","population":598,"surface_km2":3.09,"lat":46.6599,"lon":5.4954,"fibre_pct":100.0,"vivrescore":100},{"code_insee":"39147","nom":"Chilly-sur-Salins","codes_postaux":["39110"],"code_dep":"39","code_region":"27","population":95,"surface_km2":12.01,"lat":46.8722,"lon":5.8553,"fibre_pct":85.0,"vivrescore":80},{"code_insee":"39149","nom":"Chissey-sur-Loue","codes_postaux":["39380"],"code_dep":"39","code_region":"27","population":323,"surface_km2":38.84,"lat":47.0579,"lon":5.7459,"fibre_pct":99.5,"vivrescore":100},{"code_insee":"39150","nom":"Choisey","codes_postaux":["39100"],"code_dep":"39","code_region":"27","population":1021,"surface_km2":8.45,"lat":47.0585,"lon":5.4522,"fibre_pct":100.0,"vivrescore":100},{"code_insee":"39151","nom":"Choux","codes_postaux":["39370"],"code_dep":"39","code_region":"27","population":139,"surface_km2":8.25,"lat":46.3029,"lon":5.7715,"fibre_pct":97.1,"vivrescore":100},{"code_insee":"39153","nom":"Cize","codes_postaux":["39300"],"code_dep":"39","code_region":"27","population":797,"surface_km2":4.17,"lat":46.7209,"lon":5.9212,"fibre_pct":100.0,"vivrescore":100},{"code_insee":"39154","nom":"Clairvaux-les-Lacs","codes_postaux":["39130"],"code_dep":"39","code_region":"27","population":1426,"surface_km2":12.31,"lat":46.5629,"lon":5.756,"fibre_pct":93.4,"vivrescore":80},{"code_insee":"39155","nom":"Clucy","codes_postaux":["39110"],"code_dep":"39","code_region":"27","population":67,"surface_km2":5.19,"lat":46.9468,"lon":5.9122,"fibre_pct":100.0,"vivrescore":100},{"code_insee":"39156","nom":"Cogna","codes_postaux":["39130"],"code_dep":"39","code_region":"27","population":234,"surface_km2":6.66,"lat":46.5866,"lon":5.7751,"fibre_pct":95.0,"vivrescore":100},{"code_insee":"39157","nom":"Coiserette","codes_postaux":["39200"],"code_dep":"39","code_region":"27","population":42,"surface_km2":5.9,"lat":46.3365,"lon":5.8258,"fibre_pct":100.0,"vivrescore":100},{"code_insee":"39159","nom":"Colonne","codes_postaux":["39800"],"code_dep":"39","code_region":"27","population":256,"surface_km2":11.19,"lat":46.8783,"lon":5.5732,"fibre_pct":94.6,"vivrescore":80},{"code_insee":"39160","nom":"Commenailles","codes_postaux":["39140"],"code_dep":"39","code_region":"27","population":898,"surface_km2":21.82,"lat":46.8034,"lon":5.436,"fibre_pct":95.0,"vivrescore":100},{"code_insee":"39162","nom":"Condamine","codes_postaux":["39570"],"code_dep":"39","code_region":"27","population":243,"surface_km2":3.65,"lat":46.6491,"lon":5.4335,"fibre_pct":100.0,"vivrescore":100},{"code_insee":"39163","nom":"Condes","codes_postaux":["39240"],"code_dep":"39","code_region":"27","population":117,"surface_km2":3.58,"lat":46.3335,"lon":5.616,"fibre_pct":100.0,"vivrescore":100},{"code_insee":"39164","nom":"Conliège","codes_postaux":["39570"],"code_dep":"39","code_region":"27","population":667,"surface_km2":6.09,"lat":46.6513,"lon":5.6148,"fibre_pct":96.9,"vivrescore":100},{"code_insee":"39165","nom":"Conte","codes_postaux":["39300"],"code_dep":"39","code_region":"27","population":58,"surface_km2":3.34,"lat":46.7488,"lon":6.0093,"fibre_pct":100.0,"vivrescore":100},{"code_insee":"39166","nom":"Cornod","codes_postaux":["39240"],"code_dep":"39","code_region":"27","population":213,"surface_km2":14.07,"lat":46.3054,"lon":5.5496,"fibre_pct":94.7,"vivrescore":80},{"code_insee":"39167","nom":"Cosges","codes_postaux":["39140"],"code_dep":"39","code_region":"27","population":367,"surface_km2":13.57,"lat":46.7504,"lon":5.3911,"fibre_pct":99.6,"vivrescore":100},{"code_insee":"39168","nom":"Courbette","codes_postaux":["39570"],"code_dep":"39","code_region":"27","population":44,"surface_km2":2.65,"lat":46.5992,"lon":5.5694,"fibre_pct":96.8,"vivrescore":100},{"code_insee":"39169","nom":"Courbouzon","codes_postaux":["39570"],"code_dep":"39","code_region":"27","population":579,"surface_km2":3.25,"lat":46.6523,"lon":5.5296,"fibre_pct":100.0,"vivrescore":100},{"code_insee":"39170","nom":"Courlans","codes_postaux":["39570"],"code_dep":"39","code_region":"27","population":938,"surface_km2":6.14,"lat":46.6754,"lon":5.4837,"fibre_pct":88.7,"vivrescore":80},{"code_insee":"39171","nom":"Courlaoux","codes_postaux":["39570"],"code_dep":"39","code_region":"27","population":1204,"surface_km2":12.55,"lat":46.668,"lon":5.4504,"fibre_pct":93.6,"vivrescore":80},{"code_insee":"39172","nom":"Courtefontaine","codes_postaux":["39700"],"code_dep":"39","code_region":"27","population":258,"surface_km2":13.75,"lat":47.1269,"lon":5.7958,"fibre_pct":100.0,"vivrescore":100},{"code_insee":"39173","nom":"Cousance","codes_postaux":["39190"],"code_dep":"39","code_region":"27","population":1287,"surface_km2":6.52,"lat":46.5365,"lon":5.3795,"fibre_pct":98.1,"vivrescore":100},{"code_insee":"39174","nom":"Coyrière","codes_postaux":["39200"],"code_dep":"39","code_region":"27","population":66,"surface_km2":4.12,"lat":46.3398,"lon":5.8454,"fibre_pct":100.0,"vivrescore":100},{"code_insee":"39175","nom":"Coyron","codes_postaux":["39260"],"code_dep":"39","code_region":"27","population":68,"surface_km2":7.47,"lat":46.5108,"lon":5.697,"fibre_pct":90.6,"vivrescore":80},{"code_insee":"39176","nom":"Cramans","codes_postaux":["39600"],"code_dep":"39","code_region":"27","population":509,"surface_km2":8.15,"lat":47.0067,"lon":5.7856,"fibre_pct":89.0,"vivrescore":80},{"code_insee":"39177","nom":"Hauteroche","codes_postaux":["39210","39570"],"code_dep":"39","code_region":"27","population":971,"surface_km2":39.75,"lat":46.7008,"lon":5.6997,"fibre_pct":95.9,"vivrescore":100},{"code_insee":"39178","nom":"Crans","codes_postaux":["39300"],"code_dep":"39","code_region":"27","population":87,"surface_km2":9.1,"lat":46.6957,"lon":5.9829,"fibre_pct":100.0,"vivrescore":100},{"code_insee":"39179","nom":"Crenans","codes_postaux":["39260"],"code_dep":"39","code_region":"27","population":228,"surface_km2":8.79,"lat":46.4688,"lon":5.739,"fibre_pct":100.0,"vivrescore":100},{"code_insee":"39180","nom":"Cressia","codes_postaux":["39270"],"code_dep":"39","code_region":"27","population":243,"surface_km2":15.01,"lat":46.5277,"lon":5.4857,"fibre_pct":97.1,"vivrescore":100},{"code_insee":"39182","nom":"Crissey","codes_postaux":["39100"],"code_dep":"39","code_region":"27","population":687,"surface_km2":4.73,"lat":47.0511,"lon":5.4766,"fibre_pct":99.7,"vivrescore":100},{"code_insee":"39183","nom":"Crotenay","codes_postaux":["39300"],"code_dep":"39","code_region":"27","population":610,"surface_km2":12.04,"lat":46.7571,"lon":5.8127,"fibre_pct":89.1,"vivrescore":80},{"code_insee":"39184","nom":"Les Crozets","codes_postaux":["39260"],"code_dep":"39","code_region":"27","population":194,"surface_km2":7.69,"lat":46.4654,"lon":5.8042,"fibre_pct":96.9,"vivrescore":100},{"code_insee":"39185","nom":"Cuisia","codes_postaux":["39190"],"code_dep":"39","code_region":"27","population":386,"surface_km2":10.3,"lat":46.549,"lon":5.4061,"fibre_pct":100.0,"vivrescore":100},{"code_insee":"39187","nom":"Cuvier","codes_postaux":["39250"],"code_dep":"39","code_region":"27","population":277,"surface_km2":10.57,"lat":46.8407,"lon":6.0661,"fibre_pct":99.3,"vivrescore":100},{"code_insee":"39188","nom":"Dammartin-Marpain","codes_postaux":["39290"],"code_dep":"39","code_region":"27","population":340,"surface_km2":11.33,"lat":47.2535,"lon":5.5522,"fibre_pct":100.0,"vivrescore":100},{"code_insee":"39189","nom":"Damparis","codes_postaux":["39500"],"code_dep":"39","code_region":"27","population":2587,"surface_km2":8.91,"lat":47.0674,"lon":5.3994,"fibre_pct":99.4,"vivrescore":100},{"code_insee":"39190","nom":"Dampierre","codes_postaux":["39350","39700"],"code_dep":"39","code_region":"27","population":1314,"surface_km2":9.67,"lat":47.1767,"lon":5.7453,"fibre_pct":96.2,"vivrescore":100},{"code_insee":"39191","nom":"Darbonnay","codes_postaux":["39230"],"code_dep":"39","code_region":"27","population":78,"surface_km2":4.42,"lat":46.8261,"lon":5.6061,"fibre_pct":100.0,"vivrescore":100},{"code_insee":"39192","nom":"Denezières","codes_postaux":["39130"],"code_dep":"39","code_region":"27","population":73,"surface_km2":6.45,"lat":46.6255,"lon":5.8008,"fibre_pct":100.0,"vivrescore":100},{"code_insee":"39193","nom":"Le Deschaux","codes_postaux":["39120"],"code_dep":"39","code_region":"27","population":1036,"surface_km2":8.7,"lat":46.9525,"lon":5.5016,"fibre_pct":100.0,"vivrescore":100},{"code_insee":"39194","nom":"Desnes","codes_postaux":["39140"],"code_dep":"39","code_region":"27","population":494,"surface_km2":9.3,"lat":46.7682,"lon":5.4669,"fibre_pct":99.0,"vivrescore":100},{"code_insee":"39196","nom":"Les Deux-Fays","codes_postaux":["39230"],"code_dep":"39","code_region":"27","population":118,"surface_km2":6.84,"lat":46.8856,"lon":5.4877,"fibre_pct":98.8,"vivrescore":100},{"code_insee":"39197","nom":"Digna","codes_postaux":["39190"],"code_dep":"39","code_region":"27","population":371,"surface_km2":3.4,"lat":46.5166,"lon":5.3828,"fibre_pct":97.8,"vivrescore":100},{"code_insee":"39198","nom":"Dole","codes_postaux":["39100"],"code_dep":"39","code_region":"27","population":23840,"surface_km2":38.2,"lat":47.0739,"lon":5.5024,"fibre_pct":90.2,"vivrescore":80},{"code_insee":"39199","nom":"Domblans","codes_postaux":["39210","39230"],"code_dep":"39","code_region":"27","population":1186,"surface_km2":14.77,"lat":46.7682,"lon":5.5898,"fibre_pct":95.5,"vivrescore":100},{"code_insee":"39200","nom":"Dompierre-sur-Mont","codes_postaux":["39270"],"code_dep":"39","code_region":"27","population":210,"surface_km2":7.32,"lat":46.5645,"lon":5.6148,"fibre_pct":95.8,"vivrescore":100},{"code_insee":"39201","nom":"Doucier","codes_postaux":["39130"],"code_dep":"39","code_region":"27","population":285,"surface_km2":12.53,"lat":46.6462,"lon":5.7758,"fibre_pct":99.0,"vivrescore":100},{"code_insee":"39202","nom":"Dournon","codes_postaux":["39110"],"code_dep":"39","code_region":"27","population":142,"surface_km2":6.57,"lat":46.9329,"lon":5.9704,"fibre_pct":100.0,"vivrescore":100},{"code_insee":"39203","nom":"Doye","codes_postaux":["39250"],"code_dep":"39","code_region":"27","population":110,"surface_km2":3.6,"lat":46.77,"lon":6.012,"fibre_pct":100.0,"vivrescore":100},{"code_insee":"39204","nom":"Dramelay","codes_postaux":["39240"],"code_dep":"39","code_region":"27","population":27,"surface_km2":6.66,"lat":46.4038,"lon":5.5283,"fibre_pct":88.2,"vivrescore":80},{"code_insee":"39205","nom":"Éclans-Nenon","codes_postaux":["39700"],"code_dep":"39","code_region":"27","population":371,"surface_km2":26.09,"lat":47.1028,"lon":5.6082,"fibre_pct":95.6,"vivrescore":100},{"code_insee":"39206","nom":"Écleux","codes_postaux":["39600"],"code_dep":"39","code_region":"27","population":215,"surface_km2":6.26,"lat":46.9953,"lon":5.7368,"fibre_pct":100.0,"vivrescore":100},{"code_insee":"39207","nom":"Écrille","codes_postaux":["39270"],"code_dep":"39","code_region":"27","population":89,"surface_km2":5.25,"lat":46.4997,"lon":5.6322,"fibre_pct":92.6,"vivrescore":80},{"code_insee":"39208","nom":"Entre-deux-Monts","codes_postaux":["39150"],"code_dep":"39","code_region":"27","population":166,"surface_km2":5.4,"lat":46.6407,"lon":5.9651,"fibre_pct":99.0,"vivrescore":100},{"code_insee":"39209","nom":"Val-d'Épy","codes_postaux":["39160","39320"],"code_dep":"39","code_region":"27","population":322,"surface_km2":25.56,"lat":46.3888,"lon":5.3975,"fibre_pct":100.0,"vivrescore":100},{"code_insee":"39210","nom":"Équevillon","codes_postaux":["39300"],"code_dep":"39","code_region":"27","population":561,"surface_km2":4.81,"lat":46.7602,"lon":5.9416,"fibre_pct":100.0,"vivrescore":100},{"code_insee":"39211","nom":"Les Essards-Taignevaux","codes_postaux":["39120"],"code_dep":"39","code_region":"27","population":248,"surface_km2":5.46,"lat":46.904,"lon":5.414,"fibre_pct":100.0,"vivrescore":100},{"code_insee":"39214","nom":"Esserval-Tartre","codes_postaux":["39250"],"code_dep":"39","code_region":"27","population":140,"surface_km2":12.06,"lat":46.8296,"lon":6.0305,"fibre_pct":100.0,"vivrescore":100},{"code_insee":"39216","nom":"Étival","codes_postaux":["39130"],"code_dep":"39","code_region":"27","population":302,"surface_km2":14.09,"lat":46.4912,"lon":5.7981,"fibre_pct":100.0,"vivrescore":100},{"code_insee":"39217","nom":"L'Étoile","codes_postaux":["39570"],"code_dep":"39","code_region":"27","population":567,"surface_km2":6.0,"lat":46.7171,"lon":5.5332,"fibre_pct":99.4,"vivrescore":100},{"code_insee":"39218","nom":"Étrepigney","codes_postaux":["39700"],"code_dep":"39","code_region":"27","population":431,"surface_km2":15.67,"lat":47.1126,"lon":5.6814,"fibre_pct":94.4,"vivrescore":80},{"code_insee":"39219","nom":"Évans","codes_postaux":["39700"],"code_dep":"39","code_region":"27","population":651,"surface_km2":9.92,"lat":47.1794,"lon":5.764,"fibre_pct":96.0,"vivrescore":100},{"code_insee":"39220","nom":"Falletans","codes_postaux":["39700"],"code_dep":"39","code_region":"27","population":392,"surface_km2":24.79,"lat":47.0839,"lon":5.5683,"fibre_pct":90.0,"vivrescore":80},{"code_insee":"39221","nom":"La Favière","codes_postaux":["39250"],"code_dep":"39","code_region":"27","population":33,"surface_km2":2.75,"lat":46.7484,"lon":6.037,"fibre_pct":100.0,"vivrescore":100},{"code_insee":"39222","nom":"Fay-en-Montagne","codes_postaux":["39800"],"code_dep":"39","code_region":"27","population":90,"surface_km2":6.35,"lat":46.7538,"lon":5.7181,"fibre_pct":100.0,"vivrescore":100},{"code_insee":"39223","nom":"La Ferté","codes_postaux":["39600"],"code_dep":"39","code_region":"27","population":182,"surface_km2":11.84,"lat":46.945,"lon":5.6471,"fibre_pct":93.9,"vivrescore":80},{"code_insee":"39225","nom":"Le Fied","codes_postaux":["39800"],"code_dep":"39","code_region":"27","population":186,"surface_km2":8.41,"lat":46.7761,"lon":5.7092,"fibre_pct":88.2,"vivrescore":80},{"code_insee":"39227","nom":"Foncine-le-Bas","codes_postaux":["39520"],"code_dep":"39","code_region":"27","population":203,"surface_km2":9.19,"lat":46.6324,"lon":6.0294,"fibre_pct":99.5,"vivrescore":100},{"code_insee":"39228","nom":"Foncine-le-Haut","codes_postaux":["39460"],"code_dep":"39","code_region":"27","population":1112,"surface_km2":29.03,"lat":46.663,"lon":6.0611,"fibre_pct":89.2,"vivrescore":80},{"code_insee":"39229","nom":"Fontainebrux","codes_postaux":["39140"],"code_dep":"39","code_region":"27","population":224,"surface_km2":6.71,"lat":46.6983,"lon":5.4384,"fibre_pct":100.0,"vivrescore":100},{"code_insee":"39230","nom":"Fontenu","codes_postaux":["39130"],"code_dep":"39","code_region":"27","population":72,"surface_km2":9.31,"lat":46.6757,"lon":5.807,"fibre_pct":93.8,"vivrescore":80},{"code_insee":"39232","nom":"Fort-du-Plasne","codes_postaux":["39150"],"code_dep":"39","code_region":"27","population":484,"surface_km2":13.03,"lat":46.6204,"lon":5.9846,"fibre_pct":100.0,"vivrescore":100},{"code_insee":"39233","nom":"Foucherans","codes_postaux":["39100"],"code_dep":"39","code_region":"27","population":2284,"surface_km2":7.71,"lat":47.086,"lon":5.4386,"fibre_pct":98.7,"vivrescore":100},{"code_insee":"39234","nom":"Foulenay","codes_postaux":["39230"],"code_dep":"39","code_region":"27","population":82,"surface_km2":4.15,"lat":46.8619,"lon":5.4869,"fibre_pct":100.0,"vivrescore":100},{"code_insee":"39235","nom":"Fraisans","codes_postaux":["39700"],"code_dep":"39","code_region":"27","population":1160,"surface_km2":16.75,"lat":47.1287,"lon":5.7583,"fibre_pct":99.5,"vivrescore":100},{"code_insee":"39236","nom":"Francheville","codes_postaux":["39230"],"code_dep":"39","code_region":"27","population":39,"surface_km2":1.48,"lat":46.8375,"lon":5.5039,"fibre_pct":97.1,"vivrescore":100},{"code_insee":"39237","nom":"Fraroz","codes_postaux":["39250"],"code_dep":"39","code_region":"27","population":58,"surface_km2":6.2,"lat":46.7286,"lon":6.0984,"fibre_pct":100.0,"vivrescore":100},{"code_insee":"39238","nom":"Frasne-les-Meulières","codes_postaux":["39290"],"code_dep":"39","code_region":"27","population":110,"surface_km2":4.86,"lat":47.1966,"lon":5.5022,"fibre_pct":100.0,"vivrescore":100},{"code_insee":"39239","nom":"La Frasnée","codes_postaux":["39130"],"code_dep":"39","code_region":"27","population":41,"surface_km2":3.37,"lat":46.5604,"lon":5.8002,"fibre_pct":100.0,"vivrescore":100},{"code_insee":"39240","nom":"Le Frasnois","codes_postaux":["39130"],"code_dep":"39","code_region":"27","population":170,"surface_km2":14.72,"lat":46.6347,"lon":5.8931,"fibre_pct":98.2,"vivrescore":100},{"code_insee":"39241","nom":"Frébuans","codes_postaux":["39570"],"code_dep":"39","code_region":"27","population":386,"surface_km2":2.75,"lat":46.6485,"lon":5.4807,"fibre_pct":100.0,"vivrescore":100},{"code_insee":"39244","nom":"Frontenay","codes_postaux":["39210"],"code_dep":"39","code_region":"27","population":155,"surface_km2":8.21,"lat":46.7913,"lon":5.6395,"fibre_pct":100.0,"vivrescore":100},{"code_insee":"39245","nom":"Gatey","codes_postaux":["39120"],"code_dep":"39","code_region":"27","population":373,"surface_km2":14.96,"lat":46.9494,"lon":5.4601,"fibre_pct":100.0,"vivrescore":100},{"code_insee":"39246","nom":"Gendrey","codes_postaux":["39350"],"code_dep":"39","code_region":"27","population":436,"surface_km2":13.96,"lat":47.1988,"lon":5.6847,"fibre_pct":98.0,"vivrescore":100},{"code_insee":"39247","nom":"Genod","codes_postaux":["39240"],"code_dep":"39","code_region":"27","population":73,"surface_km2":3.21,"lat":46.3587,"lon":5.5271,"fibre_pct":100.0,"vivrescore":100},{"code_insee":"39248","nom":"Geraise","codes_postaux":["39110"],"code_dep":"39","code_region":"27","population":41,"surface_km2":6.11,"lat":46.959,"lon":5.9541,"fibre_pct":84.6,"vivrescore":80},{"code_insee":"39249","nom":"Germigney","codes_postaux":["39380"],"code_dep":"39","code_region":"27","population":79,"surface_km2":5.52,"lat":47.0456,"lon":5.6862,"fibre_pct":91.3,"vivrescore":80},{"code_insee":"39250","nom":"Geruge","codes_postaux":["39570"],"code_dep":"39","code_region":"27","population":193,"surface_km2":4.38,"lat":46.6238,"lon":5.5296,"fibre_pct":100.0,"vivrescore":100},{"code_insee":"39251","nom":"Gevingey","codes_postaux":["39570"],"code_dep":"39","code_region":"27","population":442,"surface_km2":5.77,"lat":46.6362,"lon":5.5073,"fibre_pct":92.9,"vivrescore":80},{"code_insee":"39252","nom":"Gevry","codes_postaux":["39100"],"code_dep":"39","code_region":"27","population":721,"surface_km2":5.62,"lat":47.0361,"lon":5.4451,"fibre_pct":100.0,"vivrescore":100},{"code_insee":"39253","nom":"Gigny","codes_postaux":["39320"],"code_dep":"39","code_region":"27","population":264,"surface_km2":16.04,"lat":46.4531,"lon":5.473,"fibre_pct":98.5,"vivrescore":100},{"code_insee":"39254","nom":"Gillois","codes_postaux":["39250"],"code_dep":"39","code_region":"27","population":124,"surface_km2":9.72,"lat":46.7315,"lon":6.0311,"fibre_pct":100.0,"vivrescore":100},{"code_insee":"39255","nom":"Gizia","codes_postaux":["39190"],"code_dep":"39","code_region":"27","population":186,"surface_km2":7.45,"lat":46.5305,"lon":5.4279,"fibre_pct":100.0,"vivrescore":100},{"code_insee":"39258","nom":"Grande-Rivière Château","codes_postaux":["39150"],"code_dep":"39","code_region":"27","population":644,"surface_km2":39.43,"lat":46.5287,"lon":5.9091,"fibre_pct":99.0,"vivrescore":100},{"code_insee":"39259","nom":"Grange-de-Vaivre","codes_postaux":["39600"],"code_dep":"39","code_region":"27","population":45,"surface_km2":1.73,"lat":46.9966,"lon":5.8411,"fibre_pct":79.5,"vivrescore":60},{"code_insee":"39261","nom":"Graye-et-Charnay","codes_postaux":["39320"],"code_dep":"39","code_region":"27","population":134,"surface_km2":6.31,"lat":46.4725,"lon":5.4532,"fibre_pct":97.5,"vivrescore":100},{"code_insee":"39262","nom":"Gredisans","codes_postaux":["39290"],"code_dep":"39","code_region":"27","population":136,"surface_km2":2.36,"lat":47.1635,"lon":5.5168,"fibre_pct":100.0,"vivrescore":100},{"code_insee":"39263","nom":"Grozon","codes_postaux":["39800"],"code_dep":"39","code_region":"27","population":386,"surface_km2":14.14,"lat":46.8881,"lon":5.6909,"fibre_pct":98.1,"vivrescore":100},{"code_insee":"39265","nom":"Hautecour","codes_postaux":["39130"],"code_dep":"39","code_region":"27","population":196,"surface_km2":5.18,"lat":46.5587,"lon":5.7808,"fibre_pct":96.3,"vivrescore":100},{"code_insee":"39266","nom":"Les Hays","codes_postaux":["39120"],"code_dep":"39","code_region":"27","population":362,"surface_km2":6.88,"lat":46.9078,"lon":5.3914,"fibre_pct":100.0,"vivrescore":100},{"code_insee":"39267","nom":"Ivory","codes_postaux":["39110"],"code_dep":"39","code_region":"27","population":85,"surface_km2":9.33,"lat":46.8922,"lon":5.8506,"fibre_pct":81.5,"vivrescore":80},{"code_insee":"39268","nom":"Ivrey","codes_postaux":["39110"],"code_dep":"39","code_region":"27","population":63,"surface_km2":6.86,"lat":46.9954,"lon":5.8959,"fibre_pct":100.0,"vivrescore":100},{"code_insee":"39269","nom":"Jeurre","codes_postaux":["39360"],"code_dep":"39","code_region":"27","population":235,"surface_km2":7.21,"lat":46.3755,"lon":5.7037,"fibre_pct":96.8,"vivrescore":100},{"code_insee":"39270","nom":"Jouhe","codes_postaux":["39100"],"code_dep":"39","code_region":"27","population":531,"surface_km2":6.0,"lat":47.1373,"lon":5.4826,"fibre_pct":100.0,"vivrescore":100},{"code_insee":"39271","nom":"Lac-des-Rouges-Truites","codes_postaux":["39150"],"code_dep":"39","code_region":"27","population":397,"surface_km2":19.61,"lat":46.5975,"lon":6.0124,"fibre_pct":89.6,"vivrescore":80},{"code_insee":"39272","nom":"Ladoye-sur-Seille","codes_postaux":["39210"],"code_dep":"39","code_region":"27","population":50,"surface_km2":3.74,"lat":46.7672,"lon":5.6821,"fibre_pct":100.0,"vivrescore":100},{"code_insee":"39273","nom":"Montlainsia","codes_postaux":["39320"],"code_dep":"39","code_region":"27","population":209,"surface_km2":21.37,"lat":46.3793,"lon":5.4825,"fibre_pct":100.0,"vivrescore":100},{"code_insee":"39274","nom":"Lajoux","codes_postaux":["01410","39310"],"code_dep":"39","code_region":"27","population":287,"surface_km2":23.65,"lat":46.3928,"lon":6.0067,"fibre_pct":93.0,"vivrescore":80},{"code_insee":"39275","nom":"Lamoura","codes_postaux":["39310"],"code_dep":"39","code_region":"27","population":667,"surface_km2":22.27,"lat":46.4103,"lon":5.9956,"fibre_pct":86.2,"vivrescore":80},{"code_insee":"39277","nom":"Le Larderet","codes_postaux":["39300"],"code_dep":"39","code_region":"27","population":49,"surface_km2":6.11,"lat":46.8185,"lon":5.945,"fibre_pct":100.0,"vivrescore":100},{"code_insee":"39278","nom":"Largillay-Marsonnay","codes_postaux":["39130"],"code_dep":"39","code_region":"27","population":128,"surface_km2":7.55,"lat":46.5557,"lon":5.6699,"fibre_pct":100.0,"vivrescore":100},{"code_insee":"39279","nom":"Larnaud","codes_postaux":["39140"],"code_dep":"39","code_region":"27","population":608,"surface_km2":10.65,"lat":46.7036,"lon":5.4572,"fibre_pct":98.1,"vivrescore":100},{"code_insee":"39280","nom":"Larrivoire","codes_postaux":["39360"],"code_dep":"39","code_region":"27","population":112,"surface_km2":6.45,"lat":46.3381,"lon":5.789,"fibre_pct":97.2,"vivrescore":100},{"code_insee":"39281","nom":"Le Latet","codes_postaux":["39300"],"code_dep":"39","code_region":"27","population":91,"surface_km2":4.39,"lat":46.8035,"lon":5.9422,"fibre_pct":100.0,"vivrescore":100},{"code_insee":"39282","nom":"La Latette","codes_postaux":["39250"],"code_dep":"39","code_region":"27","population":76,"surface_km2":5.88,"lat":46.7507,"lon":6.0962,"fibre_pct":100.0,"vivrescore":100},{"code_insee":"39283","nom":"Lavancia-Epercy","codes_postaux":["01590"],"code_dep":"39","code_region":"27","population":621,"surface_km2":10.79,"lat":46.3364,"lon":5.6793,"fibre_pct":92.8,"vivrescore":80},{"code_insee":"39284","nom":"Lavangeot","codes_postaux":["39700"],"code_dep":"39","code_region":"27","population":135,"surface_km2":2.35,"lat":47.1516,"lon":5.6071,"fibre_pct":92.8,"vivrescore":80},{"code_insee":"39285","nom":"Lavans-lès-Dole","codes_postaux":["39700"],"code_dep":"39","code_region":"27","population":323,"surface_km2":10.27,"lat":47.1548,"lon":5.6399,"fibre_pct":93.1,"vivrescore":80},{"code_insee":"39286","nom":"Lavans-lès-Saint-Claude","codes_postaux":["39170"],"code_dep":"39","code_region":"27","population":2351,"surface_km2":23.62,"lat":46.3899,"lon":5.7776,"fibre_pct":95.1,"vivrescore":100},{"code_insee":"39288","nom":"Lavigny","codes_postaux":["39210"],"code_dep":"39","code_region":"27","population":380,"surface_km2":5.41,"lat":46.7175,"lon":5.6054,"fibre_pct":100.0,"vivrescore":100},{"code_insee":"39289","nom":"Lect","codes_postaux":["39260"],"code_dep":"39","code_region":"27","population":319,"surface_km2":13.74,"lat":46.3917,"lon":5.6687,"fibre_pct":96.5,"vivrescore":100},{"code_insee":"39290","nom":"Valzin en Petite Montagne","codes_postaux":["39240"],"code_dep":"39","code_region":"27","population":445,"surface_km2":26.67,"lat":46.4325,"lon":5.5863,"fibre_pct":100.0,"vivrescore":100},{"code_insee":"39291","nom":"Lemuy","codes_postaux":["39110"],"code_dep":"39","code_region":"27","population":255,"surface_km2":21.42,"lat":46.892,"lon":5.9861,"fibre_pct":100.0,"vivrescore":100},{"code_insee":"39292","nom":"Lent","codes_postaux":["39300"],"code_dep":"39","code_region":"27","population":128,"surface_km2":4.18,"lat":46.75,"lon":5.977,"fibre_pct":92.1,"vivrescore":80},{"code_insee":"39293","nom":"Leschères","codes_postaux":["39170"],"code_dep":"39","code_region":"27","population":192,"surface_km2":8.19,"lat":46.4634,"lon":5.8288,"fibre_pct":100.0,"vivrescore":100},{"code_insee":"39295","nom":"Loisia","codes_postaux":["39320"],"code_dep":"39","code_region":"27","population":142,"surface_km2":11.5,"lat":46.4945,"lon":5.4595,"fibre_pct":92.8,"vivrescore":80},{"code_insee":"39296","nom":"Lombard","codes_postaux":["39230"],"code_dep":"39","code_region":"27","population":220,"surface_km2":5.26,"lat":46.7815,"lon":5.509,"fibre_pct":100.0,"vivrescore":100},{"code_insee":"39297","nom":"Longchaumois","codes_postaux":["39400"],"code_dep":"39","code_region":"27","population":1139,"surface_km2":57.85,"lat":46.4676,"lon":5.9619,"fibre_pct":97.1,"vivrescore":100},{"code_insee":"39298","nom":"Longcochon","codes_postaux":["39250"],"code_dep":"39","code_region":"27","population":59,"surface_km2":3.63,"lat":46.7707,"lon":6.0758,"fibre_pct":100.0,"vivrescore":100},{"code_insee":"39299","nom":"Longwy-sur-le-Doubs","codes_postaux":["39120"],"code_dep":"39","code_region":"27","population":496,"surface_km2":17.18,"lat":46.9619,"lon":5.3529,"fibre_pct":97.6,"vivrescore":100},{"code_insee":"39300","nom":"Lons-le-Saunier","codes_postaux":["39000"],"code_dep":"39","code_region":"27","population":16618,"surface_km2":7.7,"lat":46.6758,"lon":5.5574,"fibre_pct":93.7,"vivrescore":80},{"code_insee":"39301","nom":"Loulle","codes_postaux":["39300"],"code_dep":"39","code_region":"27","population":176,"surface_km2":10.92,"lat":46.7052,"lon":5.8845,"fibre_pct":98.4,"vivrescore":100},{"code_insee":"39302","nom":"Louvatange","codes_postaux":["39350"],"code_dep":"39","code_region":"27","population":120,"surface_km2":3.29,"lat":47.1903,"lon":5.7221,"fibre_pct":91.6,"vivrescore":80},{"code_insee":"39304","nom":"Le Louverot","codes_postaux":["39210"],"code_dep":"39","code_region":"27","population":234,"surface_km2":1.74,"lat":46.7323,"lon":5.5808,"fibre_pct":100.0,"vivrescore":100},{"code_insee":"39305","nom":"La Loye","codes_postaux":["39380"],"code_dep":"39","code_region":"27","population":518,"surface_km2":19.13,"lat":47.032,"lon":5.5498,"fibre_pct":97.4,"vivrescore":100},{"code_insee":"39306","nom":"Macornay","codes_postaux":["39570"],"code_dep":"39","code_region":"27","population":1025,"surface_km2":4.69,"lat":46.6416,"lon":5.5435,"fibre_pct":92.9,"vivrescore":80},{"code_insee":"39307","nom":"Maisod","codes_postaux":["39260"],"code_dep":"39","code_region":"27","population":326,"surface_km2":10.39,"lat":46.4754,"lon":5.6938,"fibre_pct":83.1,"vivrescore":80},{"code_insee":"39308","nom":"Malange","codes_postaux":["39700"],"code_dep":"39","code_region":"27","population":321,"surface_km2":8.48,"lat":47.1855,"lon":5.6132,"fibre_pct":96.2,"vivrescore":100},{"code_insee":"39310","nom":"Mantry","codes_postaux":["39230"],"code_dep":"39","code_region":"27","population":472,"surface_km2":10.81,"lat":46.7918,"lon":5.5501,"fibre_pct":99.7,"vivrescore":100},{"code_insee":"39312","nom":"Marigna-sur-Valouse","codes_postaux":["39240"],"code_dep":"39","code_region":"27","population":107,"surface_km2":8.54,"lat":46.4465,"lon":5.5281,"fibre_pct":100.0,"vivrescore":100},{"code_insee":"39313","nom":"Marigny","codes_postaux":["39130"],"code_dep":"39","code_region":"27","population":215,"surface_km2":12.0,"lat":46.6765,"lon":5.7797,"fibre_pct":92.7,"vivrescore":80},{"code_insee":"39314","nom":"Marnézia","codes_postaux":["39270"],"code_dep":"39","code_region":"27","population":65,"surface_km2":4.98,"lat":46.576,"lon":5.635,"fibre_pct":96.5,"vivrescore":100},{"code_insee":"39315","nom":"Marnoz","codes_postaux":["39110"],"code_dep":"39","code_region":"27","population":365,"surface_km2":4.92,"lat":46.9551,"lon":5.8383,"fibre_pct":94.2,"vivrescore":80},{"code_insee":"39317","nom":"La Marre","codes_postaux":["39210"],"code_dep":"39","code_region":"27","population":350,"surface_km2":10.73,"lat":46.737,"lon":5.7066,"fibre_pct":100.0,"vivrescore":100},{"code_insee":"39318","nom":"Martigna","codes_postaux":["39260"],"code_dep":"39","code_region":"27","population":215,"surface_km2":8.75,"lat":46.3891,"lon":5.6987,"fibre_pct":100.0,"vivrescore":100},{"code_insee":"39319","nom":"Mathenay","codes_postaux":["39600"],"code_dep":"39","code_region":"27","population":148,"surface_km2":3.45,"lat":46.9325,"lon":5.681,"fibre_pct":90.9,"vivrescore":80},{"code_insee":"39320","nom":"Maynal","codes_postaux":["39190"],"code_dep":"39","code_region":"27","population":322,"surface_km2":8.25,"lat":46.5653,"lon":5.4104,"fibre_pct":100.0,"vivrescore":100},{"code_insee":"39321","nom":"Menétru-le-Vignoble","codes_postaux":["39210"],"code_dep":"39","code_region":"27","population":164,"surface_km2":5.8,"lat":46.7728,"lon":5.6398,"fibre_pct":100.0,"vivrescore":100},{"code_insee":"39322","nom":"Menétrux-en-Joux","codes_postaux":["39130"],"code_dep":"39","code_region":"27","population":76,"surface_km2":8.86,"lat":46.6248,"lon":5.8373,"fibre_pct":93.2,"vivrescore":80},{"code_insee":"39323","nom":"Menotey","codes_postaux":["39290"],"code_dep":"39","code_region":"27","population":293,"surface_km2":5.0,"lat":47.1679,"lon":5.5023,"fibre_pct":100.0,"vivrescore":100},{"code_insee":"39324","nom":"Mérona","codes_postaux":["39270"],"code_dep":"39","code_region":"27","population":9,"surface_km2":2.91,"lat":46.5561,"lon":5.6351,"fibre_pct":90.0,"vivrescore":80},{"code_insee":"39325","nom":"Mesnay","codes_postaux":["39600"],"code_dep":"39","code_region":"27","population":579,"surface_km2":8.35,"lat":46.9007,"lon":5.8169,"fibre_pct":98.4,"vivrescore":100},{"code_insee":"39326","nom":"Mesnois","codes_postaux":["39130"],"code_dep":"39","code_region":"27","population":162,"surface_km2":11.48,"lat":46.592,"lon":5.6803,"fibre_pct":100.0,"vivrescore":100},{"code_insee":"39327","nom":"Messia-sur-Sorne","codes_postaux":["39570"],"code_dep":"39","code_region":"27","population":911,"surface_km2":2.7,"lat":46.6625,"lon":5.5158,"fibre_pct":94.3,"vivrescore":80},{"code_insee":"39328","nom":"Meussia","codes_postaux":["39260"],"code_dep":"39","code_region":"27","population":438,"surface_km2":13.67,"lat":46.497,"lon":5.7379,"fibre_pct":87.3,"vivrescore":80},{"code_insee":"39329","nom":"Mièges","codes_postaux":["39250"],"code_dep":"39","code_region":"27","population":165,"surface_km2":7.77,"lat":46.7933,"lon":6.0523,"fibre_pct":100.0,"vivrescore":100},{"code_insee":"39330","nom":"Miéry","codes_postaux":["39800"],"code_dep":"39","code_region":"27","population":133,"surface_km2":7.79,"lat":46.8069,"lon":5.6675,"fibre_pct":100.0,"vivrescore":100},{"code_insee":"39331","nom":"Mignovillard","codes_postaux":["39250"],"code_dep":"39","code_region":"27","population":902,"surface_km2":54.07,"lat":46.7741,"lon":6.14,"fibre_pct":88.2,"vivrescore":80},{"code_insee":"39333","nom":"Moirans-en-Montagne","codes_postaux":["39260"],"code_dep":"39","code_region":"27","population":2107,"surface_km2":27.96,"lat":46.4418,"lon":5.7369,"fibre_pct":93.6,"vivrescore":80},{"code_insee":"39334","nom":"Moiron","codes_postaux":["39570"],"code_dep":"39","code_region":"27","population":127,"surface_km2":1.84,"lat":46.6347,"lon":5.56,"fibre_pct":91.0,"vivrescore":80},{"code_insee":"39335","nom":"Moissey","codes_postaux":["39290"],"code_dep":"39","code_region":"27","population":567,"surface_km2":10.78,"lat":47.1871,"lon":5.5326,"fibre_pct":91.7,"vivrescore":80},{"code_insee":"39336","nom":"Molain","codes_postaux":["39800"],"code_dep":"39","code_region":"27","population":111,"surface_km2":11.65,"lat":46.8256,"lon":5.8206,"fibre_pct":94.0,"vivrescore":80},{"code_insee":"39337","nom":"Molamboz","codes_postaux":["39600"],"code_dep":"39","code_region":"27","population":88,"surface_km2":7.14,"lat":46.9521,"lon":5.6806,"fibre_pct":99.2,"vivrescore":100},{"code_insee":"39338","nom":"Molay","codes_postaux":["39500"],"code_dep":"39","code_region":"27","population":505,"surface_km2":6.39,"lat":47.0155,"lon":5.4228,"fibre_pct":100.0,"vivrescore":100},{"code_insee":"39339","nom":"Chassal-Molinges","codes_postaux":["39360"],"code_dep":"39","code_region":"27","population":1113,"surface_km2":7.85,"lat":46.3568,"lon":5.7812,"fibre_pct":99.3,"vivrescore":100},{"code_insee":"39342","nom":"Monay","codes_postaux":["39230"],"code_dep":"39","code_region":"27","population":123,"surface_km2":2.48,"lat":46.8383,"lon":5.5955,"fibre_pct":100.0,"vivrescore":100},{"code_insee":"39343","nom":"Monnetay","codes_postaux":["39320"],"code_dep":"39","code_region":"27","population":17,"surface_km2":2.53,"lat":46.4581,"lon":5.5102,"fibre_pct":89.6,"vivrescore":80},{"code_insee":"39344","nom":"Monnet-la-Ville","codes_postaux":["39300"],"code_dep":"39","code_region":"27","population":332,"surface_km2":6.21,"lat":46.7233,"lon":5.8227,"fibre_pct":95.1,"vivrescore":100},{"code_insee":"39345","nom":"Monnières","codes_postaux":["39100"],"code_dep":"39","code_region":"27","population":387,"surface_km2":2.1,"lat":47.114,"lon":5.4581,"fibre_pct":100.0,"vivrescore":100},{"code_insee":"39346","nom":"Montagna-le-Reconduit","codes_postaux":["39160"],"code_dep":"39","code_region":"27","population":108,"surface_km2":5.44,"lat":46.4551,"lon":5.3906,"fibre_pct":100.0,"vivrescore":100},{"code_insee":"39348","nom":"Montaigu","codes_postaux":["39570"],"code_dep":"39","code_region":"27","population":427,"surface_km2":7.14,"lat":46.6539,"lon":5.5736,"fibre_pct":84.6,"vivrescore":80},{"code_insee":"39349","nom":"Montain","codes_postaux":["39210"],"code_dep":"39","code_region":"27","population":484,"surface_km2":2.32,"lat":46.7212,"lon":5.5783,"fibre_pct":100.0,"vivrescore":100},{"code_insee":"39350","nom":"Montbarrey","codes_postaux":["39380"],"code_dep":"39","code_region":"27","population":304,"surface_km2":9.83,"lat":47.0181,"lon":5.638,"fibre_pct":95.5,"vivrescore":100},{"code_insee":"39351","nom":"Montcusel","codes_postaux":["39260"],"code_dep":"39","code_region":"27","population":144,"surface_km2":9.64,"lat":46.3532,"lon":5.6648,"fibre_pct":100.0,"vivrescore":100},{"code_insee":"39352","nom":"Monteplain","codes_postaux":["39700"],"code_dep":"39","code_region":"27","population":146,"surface_km2":1.53,"lat":47.1605,"lon":5.7128,"fibre_pct":100.0,"vivrescore":100},{"code_insee":"39353","nom":"Montfleur","codes_postaux":["39320"],"code_dep":"39","code_region":"27","population":162,"surface_km2":7.99,"lat":46.3331,"lon":5.4444,"fibre_pct":91.7,"vivrescore":80},{"code_insee":"39354","nom":"Montholier","codes_postaux":["39800"],"code_dep":"39","code_region":"27","population":365,"surface_km2":8.11,"lat":46.8931,"lon":5.635,"fibre_pct":100.0,"vivrescore":100},{"code_insee":"39355","nom":"Montigny-lès-Arsures","codes_postaux":["39600"],"code_dep":"39","code_region":"27","population":236,"surface_km2":10.71,"lat":46.938,"lon":5.776,"fibre_pct":90.6,"vivrescore":80},{"code_insee":"39356","nom":"Montigny-sur-l'Ain","codes_postaux":["39300"],"code_dep":"39","code_region":"27","population":217,"surface_km2":7.95,"lat":46.7054,"lon":5.7938,"fibre_pct":99.2,"vivrescore":100},{"code_insee":"39359","nom":"Montmarlon","codes_postaux":["39110"],"code_dep":"39","code_region":"27","population":33,"surface_km2":3.41,"lat":46.8731,"lon":5.971,"fibre_pct":100.0,"vivrescore":100},{"code_insee":"39360","nom":"Montmirey-la-Ville","codes_postaux":["39290"],"code_dep":"39","code_region":"27","population":176,"surface_km2":3.99,"lat":47.2181,"lon":5.5163,"fibre_pct":100.0,"vivrescore":100},{"code_insee":"39361","nom":"Montmirey-le-Château","codes_postaux":["39290"],"code_dep":"39","code_region":"27","population":198,"surface_km2":8.08,"lat":47.2267,"lon":5.5299,"fibre_pct":100.0,"vivrescore":100},{"code_insee":"39362","nom":"Montmorot","codes_postaux":["39570"],"code_dep":"39","code_region":"27","population":3261,"surface_km2":11.41,"lat":46.685,"lon":5.5136,"fibre_pct":97.2,"vivrescore":100},{"code_insee":"39363","nom":"Montrevel","codes_postaux":["39320"],"code_dep":"39","code_region":"27","population":83,"surface_km2":6.43,"lat":46.4267,"lon":5.4927,"fibre_pct":100.0,"vivrescore":100},{"code_insee":"39364","nom":"Montrond","codes_postaux":["39300"],"code_dep":"39","code_region":"27","population":485,"surface_km2":25.75,"lat":46.7858,"lon":5.8429,"fibre_pct":97.0,"vivrescore":100},{"code_insee":"39365","nom":"Mont-sous-Vaudrey","codes_postaux":["39380"],"code_dep":"39","code_region":"27","population":1309,"surface_km2":15.11,"lat":46.9691,"lon":5.5919,"fibre_pct":95.8,"vivrescore":100},{"code_insee":"39366","nom":"Mont-sur-Monnet","codes_postaux":["39300"],"code_dep":"39","code_region":"27","population":199,"surface_km2":20.24,"lat":46.7056,"lon":5.8415,"fibre_pct":99.3,"vivrescore":100},{"code_insee":"39367","nom":"Morbier","codes_postaux":["39400"],"code_dep":"39","code_region":"27","population":2456,"surface_km2":42.7,"lat":46.5587,"lon":6.0186,"fibre_pct":96.8,"vivrescore":100},{"code_insee":"39368","nom":"Hauts de Bienne","codes_postaux":["39400"],"code_dep":"39","code_region":"27","population":5032,"surface_km2":23.53,"lat":46.5165,"lon":6.0002,"fibre_pct":97.0,"vivrescore":100},{"code_insee":"39370","nom":"Mouchard","codes_postaux":["39330"],"code_dep":"39","code_region":"27","population":1095,"surface_km2":6.15,"lat":46.9776,"lon":5.7893,"fibre_pct":97.4,"vivrescore":100},{"code_insee":"39372","nom":"Mournans-Charbonny","codes_postaux":["39250"],"code_dep":"39","code_region":"27","population":79,"surface_km2":5.35,"lat":46.7732,"lon":5.9899,"fibre_pct":100.0,"vivrescore":100},{"code_insee":"39373","nom":"Les Moussières","codes_postaux":["39310"],"code_dep":"39","code_region":"27","population":174,"surface_km2":17.06,"lat":46.329,"lon":5.8766,"fibre_pct":82.5,"vivrescore":80},{"code_insee":"39375","nom":"Moutonne","codes_postaux":["39270"],"code_dep":"39","code_region":"27","population":129,"surface_km2":4.01,"lat":46.5313,"lon":5.569,"fibre_pct":100.0,"vivrescore":100},{"code_insee":"39376","nom":"Moutoux","codes_postaux":["39300"],"code_dep":"39","code_region":"27","population":76,"surface_km2":4.26,"lat":46.7894,"lon":5.9387,"fibre_pct":100.0,"vivrescore":100},{"code_insee":"39377","nom":"Mutigney","codes_postaux":["39290"],"code_dep":"39","code_region":"27","population":176,"surface_km2":7.97,"lat":47.2844,"lon":5.5322,"fibre_pct":100.0,"vivrescore":100},{"code_insee":"39378","nom":"Les Trois-Châteaux","codes_postaux":["39160"],"code_dep":"39","code_region":"27","population":772,"surface_km2":19.39,"lat":46.4196,"lon":5.3487,"fibre_pct":99.4,"vivrescore":100},{"code_insee":"39379","nom":"Nance","codes_postaux":["39140"],"code_dep":"39","code_region":"27","population":544,"surface_km2":7.44,"lat":46.7506,"lon":5.4217,"fibre_pct":100.0,"vivrescore":100},{"code_insee":"39380","nom":"Nancuise","codes_postaux":["39270"],"code_dep":"39","code_region":"27","population":40,"surface_km2":5.16,"lat":46.4739,"lon":5.5301,"fibre_pct":100.0,"vivrescore":100},{"code_insee":"39381","nom":"Les Nans","codes_postaux":["39300"],"code_dep":"39","code_region":"27","population":100,"surface_km2":8.44,"lat":46.7932,"lon":5.9778,"fibre_pct":100.0,"vivrescore":100},{"code_insee":"39385","nom":"Neublans-Abergement","codes_postaux":["39120"],"code_dep":"39","code_region":"27","population":536,"surface_km2":11.11,"lat":46.9032,"lon":5.3444,"fibre_pct":99.7,"vivrescore":100},{"code_insee":"39386","nom":"Neuvilley","codes_postaux":["39800"],"code_dep":"39","code_region":"27","population":87,"surface_km2":4.17,"lat":46.8922,"lon":5.6003,"fibre_pct":100.0,"vivrescore":100},{"code_insee":"39387","nom":"Nevy-lès-Dole","codes_postaux":["39380"],"code_dep":"39","code_region":"27","population":288,"surface_km2":7.06,"lat":46.9991,"lon":5.5151,"fibre_pct":95.3,"vivrescore":100},{"code_insee":"39388","nom":"Nevy-sur-Seille","codes_postaux":["39210"],"code_dep":"39","code_region":"27","population":199,"surface_km2":6.46,"lat":46.7385,"lon":5.6478,"fibre_pct":100.0,"vivrescore":100},{"code_insee":"39389","nom":"Ney","codes_postaux":["39300"],"code_dep":"39","code_region":"27","population":599,"surface_km2":7.4,"lat":46.7322,"lon":5.8825,"fibre_pct":94.9,"vivrescore":80},{"code_insee":"39390","nom":"Nogna","codes_postaux":["39570"],"code_dep":"39","code_region":"27","population":308,"surface_km2":6.34,"lat":46.6013,"lon":5.6412,"fibre_pct":98.1,"vivrescore":100},{"code_insee":"39391","nom":"Nozeroy","codes_postaux":["39250"],"code_dep":"39","code_region":"27","population":393,"surface_km2":3.74,"lat":46.7683,"lon":6.0371,"fibre_pct":100.0,"vivrescore":100},{"code_insee":"39392","nom":"Offlanges","codes_postaux":["39290"],"code_dep":"39","code_region":"27","population":199,"surface_km2":8.73,"lat":47.2013,"lon":5.5635,"fibre_pct":97.1,"vivrescore":100},{"code_insee":"39393","nom":"Onglières","codes_postaux":["39250"],"code_dep":"39","code_region":"27","population":70,"surface_km2":8.97,"lat":46.8055,"lon":6.0037,"fibre_pct":98.1,"vivrescore":100},{"code_insee":"39394","nom":"Onoz","codes_postaux":["39270"],"code_dep":"39","code_region":"27","population":70,"surface_km2":17.1,"lat":46.451,"lon":5.6703,"fibre_pct":81.7,"vivrescore":80},{"code_insee":"39396","nom":"Orchamps","codes_postaux":["39700"],"code_dep":"39","code_region":"27","population":1045,"surface_km2":9.92,"lat":47.1554,"lon":5.6661,"fibre_pct":81.6,"vivrescore":80},{"code_insee":"39397","nom":"Orgelet","codes_postaux":["39270"],"code_dep":"39","code_region":"27","population":1554,"surface_km2":25.55,"lat":46.5064,"lon":5.6151,"fibre_pct":95.8,"vivrescore":100},{"code_insee":"39398","nom":"Ougney","codes_postaux":["39350"],"code_dep":"39","code_region":"27","population":431,"surface_km2":7.06,"lat":47.2416,"lon":5.6607,"fibre_pct":100.0,"vivrescore":100},{"code_insee":"39399","nom":"Ounans","codes_postaux":["39380"],"code_dep":"39","code_region":"27","population":326,"surface_km2":12.25,"lat":46.9881,"lon":5.6648,"fibre_pct":98.0,"vivrescore":100},{"code_insee":"39400","nom":"Our","codes_postaux":["39700"],"code_dep":"39","code_region":"27","population":147,"surface_km2":13.78,"lat":47.1077,"lon":5.6489,"fibre_pct":95.0,"vivrescore":100},{"code_insee":"39401","nom":"Oussières","codes_postaux":["39800"],"code_dep":"39","code_region":"27","population":237,"surface_km2":7.64,"lat":46.9168,"lon":5.5963,"fibre_pct":100.0,"vivrescore":100},{"code_insee":"39402","nom":"Pagney","codes_postaux":["39350"],"code_dep":"39","code_region":"27","population":392,"surface_km2":6.01,"lat":47.2519,"lon":5.6994,"fibre_pct":90.6,"vivrescore":80},{"code_insee":"39403","nom":"Pagnoz","codes_postaux":["39330"],"code_dep":"39","code_region":"27","population":222,"surface_km2":3.32,"lat":46.9786,"lon":5.8241,"fibre_pct":100.0,"vivrescore":100},{"code_insee":"39404","nom":"Pannessières","codes_postaux":["39570"],"code_dep":"39","code_region":"27","population":444,"surface_km2":5.28,"lat":46.6966,"lon":5.5951,"fibre_pct":96.9,"vivrescore":100},{"code_insee":"39405","nom":"Parcey","codes_postaux":["39100"],"code_dep":"39","code_region":"27","population":993,"surface_km2":9.31,"lat":47.0221,"lon":5.4768,"fibre_pct":92.9,"vivrescore":80},{"code_insee":"39406","nom":"Le Pasquier","codes_postaux":["39300"],"code_dep":"39","code_region":"27","population":293,"surface_km2":7.9,"lat":46.7991,"lon":5.8986,"fibre_pct":100.0,"vivrescore":100},{"code_insee":"39407","nom":"Passenans","codes_postaux":["39230"],"code_dep":"39","code_region":"27","population":335,"surface_km2":4.95,"lat":46.805,"lon":5.625,"fibre_pct":92.1,"vivrescore":80},{"code_insee":"39408","nom":"Patornay","codes_postaux":["39130"],"code_dep":"39","code_region":"27","population":154,"surface_km2":1.86,"lat":46.5879,"lon":5.7093,"fibre_pct":100.0,"vivrescore":100},{"code_insee":"39409","nom":"Peintre","codes_postaux":["39290"],"code_dep":"39","code_region":"27","population":135,"surface_km2":6.52,"lat":47.1988,"lon":5.4721,"fibre_pct":89.1,"vivrescore":80},{"code_insee":"39411","nom":"Perrigny","codes_postaux":["39570"],"code_dep":"39","code_region":"27","population":1551,"surface_km2":8.86,"lat":46.6754,"lon":5.5998,"fibre_pct":98.1,"vivrescore":100},{"code_insee":"39412","nom":"Peseux","codes_postaux":["39120"],"code_dep":"39","code_region":"27","population":293,"surface_km2":5.5,"lat":46.9922,"lon":5.3644,"fibre_pct":88.2,"vivrescore":80},{"code_insee":"39413","nom":"La Pesse","codes_postaux":["39370"],"code_dep":"39","code_region":"27","population":334,"surface_km2":24.28,"lat":46.2896,"lon":5.8565,"fibre_pct":74.3,"vivrescore":60},{"code_insee":"39415","nom":"Petit-Noir","codes_postaux":["39120"],"code_dep":"39","code_region":"27","population":1056,"surface_km2":21.07,"lat":46.9292,"lon":5.3377,"fibre_pct":100.0,"vivrescore":100},{"code_insee":"39418","nom":"Picarreau","codes_postaux":["39800"],"code_dep":"39","code_region":"27","population":98,"surface_km2":9.13,"lat":46.7552,"lon":5.7593,"fibre_pct":92.5,"vivrescore":80},{"code_insee":"39419","nom":"Pillemoine","codes_postaux":["39300"],"code_dep":"39","code_region":"27","population":62,"surface_km2":4.73,"lat":46.7037,"lon":5.9095,"fibre_pct":79.5,"vivrescore":60},{"code_insee":"39420","nom":"Pimorin","codes_postaux":["39270"],"code_dep":"39","code_region":"27","population":209,"surface_km2":10.34,"lat":46.4977,"lon":5.4992,"fibre_pct":92.2,"vivrescore":80},{"code_insee":"39421","nom":"Le Pin","codes_postaux":["39210"],"code_dep":"39","code_region":"27","population":238,"surface_km2":2.89,"lat":46.7088,"lon":5.5703,"fibre_pct":100.0,"vivrescore":100},{"code_insee":"39422","nom":"Plainoiseau","codes_postaux":["39210"],"code_dep":"39","code_region":"27","population":502,"surface_km2":5.61,"lat":46.7245,"lon":5.556,"fibre_pct":93.7,"vivrescore":80},{"code_insee":"39423","nom":"Plaisia","codes_postaux":["39270"],"code_dep":"39","code_region":"27","population":96,"surface_km2":5.33,"lat":46.5201,"lon":5.6367,"fibre_pct":100.0,"vivrescore":100},{"code_insee":"39424","nom":"Les Planches-en-Montagne","codes_postaux":["39150"],"code_dep":"39","code_region":"27","population":152,"surface_km2":13.49,"lat":46.663,"lon":5.9994,"fibre_pct":99.4,"vivrescore":100},{"code_insee":"39425","nom":"Les Planches-près-Arbois","codes_postaux":["39600"],"code_dep":"39","code_region":"27","population":88,"surface_km2":1.37,"lat":46.8785,"lon":5.8093,"fibre_pct":100.0,"vivrescore":100},{"code_insee":"39426","nom":"Plasne","codes_postaux":["39210","39800"],"code_dep":"39","code_region":"27","population":197,"surface_km2":7.7,"lat":46.7967,"lon":5.6868,"fibre_pct":100.0,"vivrescore":100},{"code_insee":"39427","nom":"Plénise","codes_postaux":["39250"],"code_dep":"39","code_region":"27","population":64,"surface_km2":5.34,"lat":46.814,"lon":6.0193,"fibre_pct":100.0,"vivrescore":100},{"code_insee":"39428","nom":"Plénisette","codes_postaux":["39250"],"code_dep":"39","code_region":"27","population":20,"surface_km2":2.72,"lat":46.8036,"lon":6.016,"fibre_pct":100.0,"vivrescore":100},{"code_insee":"39429","nom":"Pleure","codes_postaux":["39120"],"code_dep":"39","code_region":"27","population":435,"surface_km2":5.16,"lat":46.9157,"lon":5.4633,"fibre_pct":100.0,"vivrescore":100},{"code_insee":"39430","nom":"Plumont","codes_postaux":["39700"],"code_dep":"39","code_region":"27","population":105,"surface_km2":12.17,"lat":47.1118,"lon":5.7192,"fibre_pct":100.0,"vivrescore":100},{"code_insee":"39431","nom":"Poids-de-Fiole","codes_postaux":["39570"],"code_dep":"39","code_region":"27","population":323,"surface_km2":6.54,"lat":46.5982,"lon":5.6234,"fibre_pct":100.0,"vivrescore":100},{"code_insee":"39432","nom":"Pointre","codes_postaux":["39290"],"code_dep":"39","code_region":"27","population":127,"surface_km2":6.53,"lat":47.2214,"lon":5.493,"fibre_pct":100.0,"vivrescore":100},{"code_insee":"39434","nom":"Poligny","codes_postaux":["39800"],"code_dep":"39","code_region":"27","population":3976,"surface_km2":52.13,"lat":46.8204,"lon":5.7245,"fibre_pct":97.0,"vivrescore":100},{"code_insee":"39435","nom":"Pont-de-Poitte","codes_postaux":["39130"],"code_dep":"39","code_region":"27","population":624,"surface_km2":7.63,"lat":46.5724,"lon":5.6874,"fibre_pct":92.6,"vivrescore":80},{"code_insee":"39436","nom":"Pont-d'Héry","codes_postaux":["39110"],"code_dep":"39","code_region":"27","population":244,"surface_km2":13.61,"lat":46.8794,"lon":5.9019,"fibre_pct":100.0,"vivrescore":100},{"code_insee":"39437","nom":"Pont-du-Navoy","codes_postaux":["39300"],"code_dep":"39","code_region":"27","population":275,"surface_km2":9.69,"lat":46.7303,"lon":5.7969,"fibre_pct":89.9,"vivrescore":80},{"code_insee":"39439","nom":"Port-Lesney","codes_postaux":["39330","39600"],"code_dep":"39","code_region":"27","population":532,"surface_km2":10.89,"lat":47.0006,"lon":5.8184,"fibre_pct":97.7,"vivrescore":100},{"code_insee":"39441","nom":"Prémanon","codes_postaux":["39220","39400"],"code_dep":"39","code_region":"27","population":1265,"surface_km2":28.22,"lat":46.4526,"lon":6.0374,"fibre_pct":94.0,"vivrescore":80},{"code_insee":"39443","nom":"Présilly","codes_postaux":["39270"],"code_dep":"39","code_region":"27","population":111,"surface_km2":11.3,"lat":46.5544,"lon":5.584,"fibre_pct":100.0,"vivrescore":100},{"code_insee":"39444","nom":"Pretin","codes_postaux":["39110"],"code_dep":"39","code_region":"27","population":48,"surface_km2":5.43,"lat":46.9292,"lon":5.8366,"fibre_pct":93.3,"vivrescore":80},{"code_insee":"39445","nom":"Publy","codes_postaux":["39570"],"code_dep":"39","code_region":"27","population":277,"surface_km2":15.31,"lat":46.6251,"lon":5.6502,"fibre_pct":100.0,"vivrescore":100},{"code_insee":"39446","nom":"Pupillin","codes_postaux":["39600"],"code_dep":"39","code_region":"27","population":248,"surface_km2":6.63,"lat":46.8749,"lon":5.7508,"fibre_pct":95.9,"vivrescore":100},{"code_insee":"39447","nom":"Quintigny","codes_postaux":["39570"],"code_dep":"39","code_region":"27","population":308,"surface_km2":3.7,"lat":46.7343,"lon":5.5232,"fibre_pct":100.0,"vivrescore":100},{"code_insee":"39448","nom":"Rahon","codes_postaux":["39120"],"code_dep":"39","code_region":"27","population":444,"surface_km2":19.65,"lat":46.9887,"lon":5.4654,"fibre_pct":100.0,"vivrescore":100},{"code_insee":"39449","nom":"Rainans","codes_postaux":["39290"],"code_dep":"39","code_region":"27","population":263,"surface_km2":3.72,"lat":47.1574,"lon":5.4718,"fibre_pct":100.0,"vivrescore":100},{"code_insee":"39451","nom":"Ranchot","codes_postaux":["39700"],"code_dep":"39","code_region":"27","population":517,"surface_km2":7.07,"lat":47.1601,"lon":5.7209,"fibre_pct":99.3,"vivrescore":100},{"code_insee":"39452","nom":"Rans","codes_postaux":["39700"],"code_dep":"39","code_region":"27","population":540,"surface_km2":6.1,"lat":47.137,"lon":5.7142,"fibre_pct":100.0,"vivrescore":100},{"code_insee":"39453","nom":"Ravilloles","codes_postaux":["39170"],"code_dep":"39","code_region":"27","population":434,"surface_km2":7.71,"lat":46.432,"lon":5.8005,"fibre_pct":100.0,"vivrescore":100},{"code_insee":"39454","nom":"Recanoz","codes_postaux":["39230"],"code_dep":"39","code_region":"27","population":94,"surface_km2":3.07,"lat":46.808,"lon":5.508,"fibre_pct":100.0,"vivrescore":100},{"code_insee":"39455","nom":"Reithouse","codes_postaux":["39270"],"code_dep":"39","code_region":"27","population":55,"surface_km2":4.8,"lat":46.5635,"lon":5.5528,"fibre_pct":100.0,"vivrescore":100},{"code_insee":"39456","nom":"Relans","codes_postaux":["39140"],"code_dep":"39","code_region":"27","population":348,"surface_km2":4.68,"lat":46.7675,"lon":5.4359,"fibre_pct":95.7,"vivrescore":100},{"code_insee":"39457","nom":"Les Repôts","codes_postaux":["39140"],"code_dep":"39","code_region":"27","population":56,"surface_km2":4.05,"lat":46.6857,"lon":5.4139,"fibre_pct":100.0,"vivrescore":100},{"code_insee":"39458","nom":"Revigny","codes_postaux":["39570"],"code_dep":"39","code_region":"27","population":234,"surface_km2":6.41,"lat":46.6225,"lon":5.6079,"fibre_pct":100.0,"vivrescore":100},{"code_insee":"39460","nom":"La Rixouse","codes_postaux":["39200"],"code_dep":"39","code_region":"27","population":184,"surface_km2":12.53,"lat":46.4682,"lon":5.8711,"fibre_pct":85.6,"vivrescore":80},{"code_insee":"39461","nom":"Rix","codes_postaux":["39250"],"code_dep":"39","code_region":"27","population":76,"surface_km2":5.39,"lat":46.7597,"lon":6.0536,"fibre_pct":98.2,"vivrescore":100},{"code_insee":"39462","nom":"Rochefort-sur-Nenon","codes_postaux":["39700"],"code_dep":"39","code_region":"27","population":700,"surface_km2":9.97,"lat":47.1226,"lon":5.5554,"fibre_pct":77.2,"vivrescore":60},{"code_insee":"39463","nom":"Rogna","codes_postaux":["39360"],"code_dep":"39","code_region":"27","population":234,"surface_km2":10.63,"lat":46.3271,"lon":5.7433,"fibre_pct":67.2,"vivrescore":60},{"code_insee":"39464","nom":"Romain","codes_postaux":["39350"],"code_dep":"39","code_region":"27","population":249,"surface_km2":5.89,"lat":47.2076,"lon":5.7191,"fibre_pct":92.8,"vivrescore":80},{"code_insee":"39465","nom":"Romange","codes_postaux":["39700"],"code_dep":"39","code_region":"27","population":204,"surface_km2":5.48,"lat":47.1618,"lon":5.5954,"fibre_pct":77.7,"vivrescore":60},{"code_insee":"39466","nom":"Rosay","codes_postaux":["39190"],"code_dep":"39","code_region":"27","population":116,"surface_km2":10.1,"lat":46.5358,"lon":5.455,"fibre_pct":100.0,"vivrescore":100},{"code_insee":"39467","nom":"Rotalier","codes_postaux":["39190"],"code_dep":"39","code_region":"27","population":151,"surface_km2":4.16,"lat":46.5836,"lon":5.4761,"fibre_pct":100.0,"vivrescore":100},{"code_insee":"39468","nom":"Rothonay","codes_postaux":["39270"],"code_dep":"39","code_region":"27","population":128,"surface_km2":12.96,"lat":46.5138,"lon":5.5262,"fibre_pct":100.0,"vivrescore":100},{"code_insee":"39469","nom":"Rouffange","codes_postaux":["39350"],"code_dep":"39","code_region":"27","population":120,"surface_km2":2.87,"lat":47.2256,"lon":5.7092,"fibre_pct":91.8,"vivrescore":80},{"code_insee":"39470","nom":"Les Rousses","codes_postaux":["39220","39400"],"code_dep":"39","code_region":"27","population":3740,"surface_km2":38.05,"lat":46.4911,"lon":6.0731,"fibre_pct":97.6,"vivrescore":100},{"code_insee":"39471","nom":"Ruffey-sur-Seille","codes_postaux":["39140"],"code_dep":"39","code_region":"27","population":738,"surface_km2":18.12,"lat":46.7282,"lon":5.503,"fibre_pct":87.9,"vivrescore":80},{"code_insee":"39472","nom":"Rye","codes_postaux":["39230"],"code_dep":"39","code_region":"27","population":222,"surface_km2":11.93,"lat":46.8797,"lon":5.4265,"fibre_pct":100.0,"vivrescore":100},{"code_insee":"39473","nom":"Saffloz","codes_postaux":["39130"],"code_dep":"39","code_region":"27","population":91,"surface_km2":8.78,"lat":46.6684,"lon":5.8613,"fibre_pct":100.0,"vivrescore":100},{"code_insee":"39475","nom":"Saint-Amour","codes_postaux":["39160"],"code_dep":"39","code_region":"27","population":2349,"surface_km2":11.61,"lat":46.4365,"lon":5.3373,"fibre_pct":94.1,"vivrescore":80},{"code_insee":"39476","nom":"Saint-Aubin","codes_postaux":["39410"],"code_dep":"39","code_region":"27","population":1871,"surface_km2":33.79,"lat":47.031,"lon":5.3354,"fibre_pct":91.9,"vivrescore":80},{"code_insee":"39477","nom":"Saint-Baraing","codes_postaux":["39120"],"code_dep":"39","code_region":"27","population":257,"surface_km2":6.33,"lat":46.9859,"lon":5.437,"fibre_pct":100.0,"vivrescore":100},{"code_insee":"39478","nom":"Saint-Claude","codes_postaux":["39200"],"code_dep":"39","code_region":"27","population":8386,"surface_km2":70.35,"lat":46.4098,"lon":5.8802,"fibre_pct":87.0,"vivrescore":80},{"code_insee":"39479","nom":"Saint-Cyr-Montmalin","codes_postaux":["39600"],"code_dep":"39","code_region":"27","population":245,"surface_km2":10.33,"lat":46.9608,"lon":5.7232,"fibre_pct":100.0,"vivrescore":100},{"code_insee":"39480","nom":"Saint-Didier","codes_postaux":["39570"],"code_dep":"39","code_region":"27","population":277,"surface_km2":2.99,"lat":46.7102,"lon":5.5095,"fibre_pct":99.3,"vivrescore":100},{"code_insee":"39481","nom":"Saint-Germain-en-Montagne","codes_postaux":["39300"],"code_dep":"39","code_region":"27","population":390,"surface_km2":5.39,"lat":46.7797,"lon":5.9358,"fibre_pct":95.6,"vivrescore":100},{"code_insee":"39485","nom":"Val Suran","codes_postaux":["39320"],"code_dep":"39","code_region":"27","population":777,"surface_km2":37.51,"lat":46.3868,"lon":5.4415,"fibre_pct":97.1,"vivrescore":100},{"code_insee":"39486","nom":"Saint-Lamain","codes_postaux":["39230"],"code_dep":"39","code_region":"27","population":128,"surface_km2":4.21,"lat":46.8055,"lon":5.6005,"fibre_pct":100.0,"vivrescore":100},{"code_insee":"39487","nom":"Saint-Laurent-en-Grandvaux","codes_postaux":["39150"],"code_dep":"39","code_region":"27","population":1815,"surface_km2":17.58,"lat":46.5703,"lon":5.9597,"fibre_pct":98.4,"vivrescore":100},{"code_insee":"39489","nom":"Saint-Lothain","codes_postaux":["39230"],"code_dep":"39","code_region":"27","population":463,"surface_km2":12.33,"lat":46.8281,"lon":5.6412,"fibre_pct":96.2,"vivrescore":100},{"code_insee":"39490","nom":"Saint-Loup","codes_postaux":["39120"],"code_dep":"39","code_region":"27","population":248,"surface_km2":9.59,"lat":46.9954,"lon":5.3122,"fibre_pct":100.0,"vivrescore":100},{"code_insee":"39491","nom":"Coteaux du Lizon","codes_postaux":["39170"],"code_dep":"39","code_region":"27","population":2130,"surface_km2":15.55,"lat":46.4133,"lon":5.7985,"fibre_pct":98.2,"vivrescore":100},{"code_insee":"39492","nom":"Saint-Maur","codes_postaux":["39570"],"code_dep":"39","code_region":"27","population":212,"surface_km2":6.4,"lat":46.6078,"lon":5.5969,"fibre_pct":99.3,"vivrescore":100},{"code_insee":"39493","nom":"Saint-Maurice-Crillat","codes_postaux":["39130"],"code_dep":"39","code_region":"27","population":247,"surface_km2":20.67,"lat":46.5648,"lon":5.8282,"fibre_pct":97.6,"vivrescore":100},{"code_insee":"39494","nom":"Saint-Pierre","codes_postaux":["39150"],"code_dep":"39","code_region":"27","population":383,"surface_km2":16.6,"lat":46.5703,"lon":5.8968,"fibre_pct":100.0,"vivrescore":100},{"code_insee":"39495","nom":"Saint-Thiébaud","codes_postaux":["39110"],"code_dep":"39","code_region":"27","population":71,"surface_km2":8.04,"lat":46.9745,"lon":5.8845,"fibre_pct":100.0,"vivrescore":100},{"code_insee":"39497","nom":"Saizenay","codes_postaux":["39110"],"code_dep":"39","code_region":"27","population":101,"surface_km2":4.89,"lat":46.9668,"lon":5.9356,"fibre_pct":96.6,"vivrescore":100},{"code_insee":"39498","nom":"Salans","codes_postaux":["39700"],"code_dep":"39","code_region":"27","population":658,"surface_km2":6.63,"lat":47.1608,"lon":5.7915,"fibre_pct":96.0,"vivrescore":100},{"code_insee":"39499","nom":"Saligney","codes_postaux":["39350"],"code_dep":"39","code_region":"27","population":186,"surface_km2":7.86,"lat":47.2224,"lon":5.6362,"fibre_pct":94.9,"vivrescore":80},{"code_insee":"39500","nom":"Salins-les-Bains","codes_postaux":["39110"],"code_dep":"39","code_region":"27","population":2390,"surface_km2":24.73,"lat":46.9503,"lon":5.9054,"fibre_pct":95.8,"vivrescore":100},{"code_insee":"39501","nom":"Sampans","codes_postaux":["39100"],"code_dep":"39","code_region":"27","population":1106,"surface_km2":7.48,"lat":47.1264,"lon":5.442,"fibre_pct":94.6,"vivrescore":80},{"code_insee":"39502","nom":"Santans","codes_postaux":["39380"],"code_dep":"39","code_region":"27","population":274,"surface_km2":16.6,"lat":47.0438,"lon":5.6687,"fibre_pct":97.9,"vivrescore":100},{"code_insee":"39503","nom":"Sapois","codes_postaux":["39300"],"code_dep":"39","code_region":"27","population":408,"surface_km2":3.59,"lat":46.7448,"lon":5.9461,"fibre_pct":100.0,"vivrescore":100},{"code_insee":"39504","nom":"Sarrogna","codes_postaux":["39270"],"code_dep":"39","code_region":"27","population":228,"surface_km2":19.86,"lat":46.476,"lon":5.6173,"fibre_pct":100.0,"vivrescore":100},{"code_insee":"39505","nom":"Saugeot","codes_postaux":["39130"],"code_dep":"39","code_region":"27","population":56,"surface_km2":4.48,"lat":46.6061,"lon":5.8218,"fibre_pct":100.0,"vivrescore":100},{"code_insee":"39507","nom":"Séligney","codes_postaux":["39120"],"code_dep":"39","code_region":"27","population":77,"surface_km2":4.16,"lat":46.9452,"lon":5.5403,"fibre_pct":100.0,"vivrescore":100},{"code_insee":"39508","nom":"Sellières","codes_postaux":["39230"],"code_dep":"39","code_region":"27","population":737,"surface_km2":9.91,"lat":46.8255,"lon":5.5573,"fibre_pct":97.6,"vivrescore":100},{"code_insee":"39510","nom":"Septmoncel les Molunes","codes_postaux":["39310"],"code_dep":"39","code_region":"27","population":812,"surface_km2":40.31,"lat":46.3559,"lon":5.9265,"fibre_pct":98.6,"vivrescore":100},{"code_insee":"39511","nom":"Sergenaux","codes_postaux":["39230"],"code_dep":"39","code_region":"27","population":65,"surface_km2":3.27,"lat":46.8873,"lon":5.463,"fibre_pct":100.0,"vivrescore":100},{"code_insee":"39512","nom":"Sergenon","codes_postaux":["39120"],"code_dep":"39","code_region":"27","population":58,"surface_km2":3.82,"lat":46.9033,"lon":5.4685,"fibre_pct":100.0,"vivrescore":100},{"code_insee":"39513","nom":"Sermange","codes_postaux":["39700"],"code_dep":"39","code_region":"27","population":247,"surface_km2":7.07,"lat":47.1985,"lon":5.6458,"fibre_pct":89.8,"vivrescore":80},{"code_insee":"39514","nom":"Serre-les-Moulières","codes_postaux":["39700"],"code_dep":"39","code_region":"27","population":186,"surface_km2":5.63,"lat":47.205,"lon":5.6148,"fibre_pct":100.0,"vivrescore":100},{"code_insee":"39517","nom":"Sirod","codes_postaux":["39300"],"code_dep":"39","code_region":"27","population":543,"surface_km2":16.08,"lat":46.7287,"lon":5.9897,"fibre_pct":94.7,"vivrescore":80},{"code_insee":"39518","nom":"Songeson","codes_postaux":["39130"],"code_dep":"39","code_region":"27","population":71,"surface_km2":8.6,"lat":46.6477,"lon":5.8331,"fibre_pct":98.3,"vivrescore":100},{"code_insee":"39519","nom":"Soucia","codes_postaux":["39130"],"code_dep":"39","code_region":"27","population":175,"surface_km2":12.47,"lat":46.5374,"lon":5.7557,"fibre_pct":100.0,"vivrescore":100},{"code_insee":"39520","nom":"Souvans","codes_postaux":["39380"],"code_dep":"39","code_region":"27","population":520,"surface_km2":19.94,"lat":46.9761,"lon":5.5514,"fibre_pct":96.5,"vivrescore":100},{"code_insee":"39522","nom":"Supt","codes_postaux":["39300"],"code_dep":"39","code_region":"27","population":110,"surface_km2":14.08,"lat":46.855,"lon":5.9868,"fibre_pct":100.0,"vivrescore":100},{"code_insee":"39523","nom":"Syam","codes_postaux":["39300"],"code_dep":"39","code_region":"27","population":184,"surface_km2":6.99,"lat":46.6969,"lon":5.9534,"fibre_pct":100.0,"vivrescore":100},{"code_insee":"39525","nom":"Tassenières","codes_postaux":["39120"],"code_dep":"39","code_region":"27","population":390,"surface_km2":6.72,"lat":46.925,"lon":5.5104,"fibre_pct":97.5,"vivrescore":100},{"code_insee":"39526","nom":"Tavaux","codes_postaux":["39500"],"code_dep":"39","code_region":"27","population":3888,"surface_km2":13.99,"lat":47.0396,"lon":5.4026,"fibre_pct":98.0,"vivrescore":100},{"code_insee":"39527","nom":"Taxenne","codes_postaux":["39350"],"code_dep":"39","code_region":"27","population":126,"surface_km2":3.89,"lat":47.2212,"lon":5.6857,"fibre_pct":100.0,"vivrescore":100},{"code_insee":"39528","nom":"Thervay","codes_postaux":["39290"],"code_dep":"39","code_region":"27","population":384,"surface_km2":15.85,"lat":47.2375,"lon":5.6137,"fibre_pct":100.0,"vivrescore":100},{"code_insee":"39529","nom":"Thésy","codes_postaux":["39110"],"code_dep":"39","code_region":"27","population":70,"surface_km2":4.99,"lat":46.9032,"lon":5.9267,"fibre_pct":100.0,"vivrescore":100},{"code_insee":"39530","nom":"Thoirette-Coisia","codes_postaux":["39240"],"code_dep":"39","code_region":"27","population":809,"surface_km2":16.14,"lat":46.2901,"lon":5.554,"fibre_pct":87.3,"vivrescore":80},{"code_insee":"39531","nom":"Thoiria","codes_postaux":["39130"],"code_dep":"39","code_region":"27","population":183,"surface_km2":12.36,"lat":46.5195,"lon":5.7466,"fibre_pct":100.0,"vivrescore":100},{"code_insee":"39532","nom":"Thoissia","codes_postaux":["39160"],"code_dep":"39","code_region":"27","population":34,"surface_km2":3.95,"lat":46.4276,"lon":5.3931,"fibre_pct":100.0,"vivrescore":100},{"code_insee":"39533","nom":"Toulouse-le-Château","codes_postaux":["39230"],"code_dep":"39","code_region":"27","population":204,"surface_km2":4.15,"lat":46.8221,"lon":5.5845,"fibre_pct":100.0,"vivrescore":100},{"code_insee":"39534","nom":"La Tour-du-Meix","codes_postaux":["39270"],"code_dep":"39","code_region":"27","population":261,"surface_km2":14.27,"lat":46.5219,"lon":5.6695,"fibre_pct":100.0,"vivrescore":100},{"code_insee":"39535","nom":"Tourmont","codes_postaux":["39800"],"code_dep":"39","code_region":"27","population":437,"surface_km2":9.71,"lat":46.8655,"lon":5.665,"fibre_pct":95.8,"vivrescore":100},{"code_insee":"39537","nom":"Trenal","codes_postaux":["39190","39570"],"code_dep":"39","code_region":"27","population":472,"surface_km2":9.59,"lat":46.6358,"lon":5.4628,"fibre_pct":83.3,"vivrescore":80},{"code_insee":"39538","nom":"Uxelles","codes_postaux":["39130"],"code_dep":"39","code_region":"27","population":63,"surface_km2":5.32,"lat":46.6027,"lon":5.7938,"fibre_pct":100.0,"vivrescore":100},{"code_insee":"39539","nom":"Vadans","codes_postaux":["39600"],"code_dep":"39","code_region":"27","population":306,"surface_km2":11.35,"lat":46.9402,"lon":5.7046,"fibre_pct":98.4,"vivrescore":100},{"code_insee":"39540","nom":"Valempoulières","codes_postaux":["39300"],"code_dep":"39","code_region":"27","population":213,"surface_km2":16.27,"lat":46.8267,"lon":5.877,"fibre_pct":92.5,"vivrescore":80},{"code_insee":"39543","nom":"Vannoz","codes_postaux":["39300"],"code_dep":"39","code_region":"27","population":224,"surface_km2":5.83,"lat":46.7758,"lon":5.911,"fibre_pct":100.0,"vivrescore":100},{"code_insee":"39545","nom":"Le Vaudioux","codes_postaux":["39300"],"code_dep":"39","code_region":"27","population":168,"surface_km2":6.06,"lat":46.6832,"lon":5.9262,"fibre_pct":100.0,"vivrescore":100},{"code_insee":"39546","nom":"Vaudrey","codes_postaux":["39380"],"code_dep":"39","code_region":"27","population":355,"surface_km2":18.03,"lat":46.9662,"lon":5.6291,"fibre_pct":100.0,"vivrescore":100},{"code_insee":"39547","nom":"Vaux-lès-Saint-Claude","codes_postaux":["39360"],"code_dep":"39","code_region":"27","population":678,"surface_km2":9.46,"lat":46.3546,"lon":5.7309,"fibre_pct":99.7,"vivrescore":100},{"code_insee":"39550","nom":"Verges","codes_postaux":["39570"],"code_dep":"39","code_region":"27","population":204,"surface_km2":6.43,"lat":46.6578,"lon":5.6873,"fibre_pct":100.0,"vivrescore":100},{"code_insee":"39551","nom":"Véria","codes_postaux":["39160"],"code_dep":"39","code_region":"27","population":111,"surface_km2":10.1,"lat":46.4595,"lon":5.421,"fibre_pct":98.4,"vivrescore":100},{"code_insee":"39552","nom":"Vernantois","codes_postaux":["39570"],"code_dep":"39","code_region":"27","population":298,"surface_km2":6.88,"lat":46.623,"lon":5.5812,"fibre_pct":99.3,"vivrescore":100},{"code_insee":"39553","nom":"Le Vernois","codes_postaux":["39210"],"code_dep":"39","code_region":"27","population":285,"surface_km2":1.07,"lat":46.7319,"lon":5.5941,"fibre_pct":100.0,"vivrescore":100},{"code_insee":"39554","nom":"Vers-en-Montagne","codes_postaux":["39300"],"code_dep":"39","code_region":"27","population":235,"surface_km2":8.46,"lat":46.8222,"lon":5.9111,"fibre_pct":100.0,"vivrescore":100},{"code_insee":"39555","nom":"Vers-sous-Sellières","codes_postaux":["39230"],"code_dep":"39","code_region":"27","population":223,"surface_km2":8.55,"lat":46.8227,"lon":5.5266,"fibre_pct":98.8,"vivrescore":100},{"code_insee":"39556","nom":"Vertamboz","codes_postaux":["39130"],"code_dep":"39","code_region":"27","population":83,"surface_km2":6.75,"lat":46.6007,"lon":5.7438,"fibre_pct":93.9,"vivrescore":80},{"code_insee":"39557","nom":"Vescles","codes_postaux":["39240"],"code_dep":"39","code_region":"27","population":181,"surface_km2":20.31,"lat":46.3547,"lon":5.6105,"fibre_pct":100.0,"vivrescore":100},{"code_insee":"39558","nom":"Vevy","codes_postaux":["39570"],"code_dep":"39","code_region":"27","population":301,"surface_km2":9.82,"lat":46.667,"lon":5.6688,"fibre_pct":99.4,"vivrescore":100},{"code_insee":"39559","nom":"La Vieille-Loye","codes_postaux":["39380"],"code_dep":"39","code_region":"27","population":405,"surface_km2":9.27,"lat":47.0557,"lon":5.6303,"fibre_pct":98.5,"vivrescore":100},{"code_insee":"39560","nom":"Villard-Saint-Sauveur","codes_postaux":["39200"],"code_dep":"39","code_region":"27","population":585,"surface_km2":9.01,"lat":46.3631,"lon":5.8627,"fibre_pct":93.7,"vivrescore":80},{"code_insee":"39561","nom":"Villards-d'Héria","codes_postaux":["39260"],"code_dep":"39","code_region":"27","population":397,"surface_km2":9.91,"lat":46.4046,"lon":5.7394,"fibre_pct":98.8,"vivrescore":100},{"code_insee":"39565","nom":"Villeneuve-d'Aval","codes_postaux":["39600"],"code_dep":"39","code_region":"27","population":96,"surface_km2":3.93,"lat":46.9704,"lon":5.7505,"fibre_pct":100.0,"vivrescore":100},{"code_insee":"39567","nom":"Villeneuve-sous-Pymont","codes_postaux":["39570"],"code_dep":"39","code_region":"27","population":317,"surface_km2":2.7,"lat":46.6945,"lon":5.553,"fibre_pct":86.5,"vivrescore":80},{"code_insee":"39568","nom":"Villerserine","codes_postaux":["39800"],"code_dep":"39","code_region":"27","population":33,"surface_km2":3.01,"lat":46.855,"lon":5.6399,"fibre_pct":100.0,"vivrescore":100},{"code_insee":"39569","nom":"Villers-Farlay","codes_postaux":["39600"],"code_dep":"39","code_region":"27","population":635,"surface_km2":10.06,"lat":46.9924,"lon":5.7597,"fibre_pct":98.2,"vivrescore":100},{"code_insee":"39570","nom":"Villers-les-Bois","codes_postaux":["39120","39800"],"code_dep":"39","code_region":"27","population":226,"surface_km2":10.53,"lat":46.9222,"lon":5.5712,"fibre_pct":100.0,"vivrescore":100},{"code_insee":"39571","nom":"Villers-Robert","codes_postaux":["39120"],"code_dep":"39","code_region":"27","population":236,"surface_km2":10.0,"lat":46.9646,"lon":5.5214,"fibre_pct":100.0,"vivrescore":100},{"code_insee":"39572","nom":"Villette-lès-Arbois","codes_postaux":["39600"],"code_dep":"39","code_region":"27","population":352,"surface_km2":5.46,"lat":46.9345,"lon":5.7427,"fibre_pct":100.0,"vivrescore":100},{"code_insee":"39573","nom":"Villette-lès-Dole","codes_postaux":["39100"],"code_dep":"39","code_region":"27","population":806,"surface_km2":4.55,"lat":47.0462,"lon":5.4918,"fibre_pct":91.9,"vivrescore":80},{"code_insee":"39574","nom":"Villevieux","codes_postaux":["39140"],"code_dep":"39","code_region":"27","population":705,"surface_km2":10.13,"lat":46.7276,"lon":5.4449,"fibre_pct":98.4,"vivrescore":100},{"code_insee":"39575","nom":"Le Villey","codes_postaux":["39230"],"code_dep":"39","code_region":"27","population":94,"surface_km2":3.61,"lat":46.847,"lon":5.506,"fibre_pct":100.0,"vivrescore":100},{"code_insee":"39576","nom":"Val-Sonnette","codes_postaux":["39190"],"code_dep":"39","code_region":"27","population":1318,"surface_km2":19.73,"lat":46.6047,"lon":5.4619,"fibre_pct":93.8,"vivrescore":80},{"code_insee":"39577","nom":"Vincent-Froideville","codes_postaux":["39230"],"code_dep":"39","code_region":"27","population":381,"surface_km2":12.01,"lat":46.7928,"lon":5.4803,"fibre_pct":100.0,"vivrescore":100},{"code_insee":"39579","nom":"Viry","codes_postaux":["39360"],"code_dep":"39","code_region":"27","population":904,"surface_km2":25.74,"lat":46.3035,"lon":5.7312,"fibre_pct":86.0,"vivrescore":80},{"code_insee":"39581","nom":"Vitreux","codes_postaux":["39350"],"code_dep":"39","code_region":"27","population":250,"surface_km2":7.97,"lat":47.2529,"lon":5.6708,"fibre_pct":94.3,"vivrescore":80},{"code_insee":"39582","nom":"Voiteur","codes_postaux":["39210"],"code_dep":"39","code_region":"27","population":788,"surface_km2":9.46,"lat":46.7431,"lon":5.6014,"fibre_pct":99.1,"vivrescore":100},{"code_insee":"39583","nom":"Vosbles-Valfin","codes_postaux":["39240"],"code_dep":"39","code_region":"27","population":185,"surface_km2":21.64,"lat":46.3465,"lon":5.5225,"fibre_pct":100.0,"vivrescore":100},{"code_insee":"39584","nom":"Vriange","codes_postaux":["39700"],"code_dep":"39","code_region":"27","population":163,"surface_km2":5.89,"lat":47.1832,"lon":5.5848,"fibre_pct":85.7,"vivrescore":80},{"code_insee":"39585","nom":"Vulvoz","codes_postaux":["39360"],"code_dep":"39","code_region":"27","population":25,"surface_km2":4.44,"lat":46.3209,"lon":5.7858,"fibre_pct":100.0,"vivrescore":100},{"code_insee":"39586","nom":"Aresches","codes_postaux":["39110"],"code_dep":"39","code_region":"27","population":27,"surface_km2":4.77,"lat":46.8942,"lon":5.9215,"fibre_pct":100.0,"vivrescore":100}]