[{"code_insee":"46001","nom":"Albas","codes_postaux":["46140"],"code_dep":"46","code_region":"76","population":529,"surface_km2":21.74,"lat":44.4636,"lon":1.2425,"fibre_pct":99.2,"vivrescore":100},{"code_insee":"46002","nom":"Albiac","codes_postaux":["46500"],"code_dep":"46","code_region":"76","population":95,"surface_km2":3.82,"lat":44.77,"lon":1.8135,"fibre_pct":98.6,"vivrescore":100},{"code_insee":"46003","nom":"Alvignac","codes_postaux":["46500"],"code_dep":"46","code_region":"76","population":699,"surface_km2":13.04,"lat":44.8383,"lon":1.6927,"fibre_pct":88.4,"vivrescore":80},{"code_insee":"46004","nom":"Anglars","codes_postaux":["46120"],"code_dep":"46","code_region":"76","population":218,"surface_km2":10.0,"lat":44.7502,"lon":1.8978,"fibre_pct":85.3,"vivrescore":80},{"code_insee":"46005","nom":"Anglars-Juillac","codes_postaux":["46140"],"code_dep":"46","code_region":"76","population":330,"surface_km2":5.55,"lat":44.4849,"lon":1.2099,"fibre_pct":100.0,"vivrescore":100},{"code_insee":"46006","nom":"Anglars-Nozac","codes_postaux":["46300"],"code_dep":"46","code_region":"76","population":400,"surface_km2":9.8,"lat":44.7823,"lon":1.405,"fibre_pct":99.3,"vivrescore":100},{"code_insee":"46007","nom":"Arcambal","codes_postaux":["46090"],"code_dep":"46","code_region":"76","population":1004,"surface_km2":23.46,"lat":44.4557,"lon":1.5432,"fibre_pct":83.7,"vivrescore":80},{"code_insee":"46008","nom":"Les Arques","codes_postaux":["46250"],"code_dep":"46","code_region":"76","population":214,"surface_km2":15.06,"lat":44.6,"lon":1.2417,"fibre_pct":91.5,"vivrescore":80},{"code_insee":"46009","nom":"Assier","codes_postaux":["46320"],"code_dep":"46","code_region":"76","population":709,"surface_km2":16.65,"lat":44.6721,"lon":1.8725,"fibre_pct":99.6,"vivrescore":100},{"code_insee":"46010","nom":"Aujols","codes_postaux":["46090"],"code_dep":"46","code_region":"76","population":383,"surface_km2":16.3,"lat":44.4234,"lon":1.5402,"fibre_pct":99.6,"vivrescore":100},{"code_insee":"46011","nom":"Autoire","codes_postaux":["46400"],"code_dep":"46","code_region":"76","population":376,"surface_km2":7.38,"lat":44.8577,"lon":1.8261,"fibre_pct":99.1,"vivrescore":100},{"code_insee":"46012","nom":"Aynac","codes_postaux":["46120"],"code_dep":"46","code_region":"76","population":561,"surface_km2":21.66,"lat":44.7891,"lon":1.8524,"fibre_pct":98.1,"vivrescore":100},{"code_insee":"46013","nom":"Bach","codes_postaux":["46230"],"code_dep":"46","code_region":"76","population":211,"surface_km2":21.07,"lat":44.343,"lon":1.6798,"fibre_pct":98.3,"vivrescore":100},{"code_insee":"46015","nom":"Bagnac-sur-Célé","codes_postaux":["46270"],"code_dep":"46","code_region":"76","population":1467,"surface_km2":22.29,"lat":44.6652,"lon":2.1458,"fibre_pct":98.1,"vivrescore":100},{"code_insee":"46016","nom":"Baladou","codes_postaux":["46600"],"code_dep":"46","code_region":"76","population":396,"surface_km2":15.54,"lat":44.925,"lon":1.5573,"fibre_pct":99.7,"vivrescore":100},{"code_insee":"46017","nom":"Bannes","codes_postaux":["46400"],"code_dep":"46","code_region":"76","population":143,"surface_km2":10.14,"lat":44.8138,"lon":1.9171,"fibre_pct":97.6,"vivrescore":100},{"code_insee":"46018","nom":"Le Bastit","codes_postaux":["46500"],"code_dep":"46","code_region":"76","population":145,"surface_km2":27.98,"lat":44.7101,"lon":1.6782,"fibre_pct":96.4,"vivrescore":100},{"code_insee":"46020","nom":"Beauregard","codes_postaux":["46260"],"code_dep":"46","code_region":"76","population":238,"surface_km2":15.06,"lat":44.3507,"lon":1.7773,"fibre_pct":97.7,"vivrescore":100},{"code_insee":"46021","nom":"Béduer","codes_postaux":["46100"],"code_dep":"46","code_region":"76","population":749,"surface_km2":24.97,"lat":44.572,"lon":1.9232,"fibre_pct":96.9,"vivrescore":100},{"code_insee":"46022","nom":"Bélaye","codes_postaux":["46140"],"code_dep":"46","code_region":"76","population":214,"surface_km2":18.66,"lat":44.4513,"lon":1.1868,"fibre_pct":97.2,"vivrescore":100},{"code_insee":"46023","nom":"Belfort-du-Quercy","codes_postaux":["46230"],"code_dep":"46","code_region":"76","population":504,"surface_km2":36.05,"lat":44.2702,"lon":1.5485,"fibre_pct":98.2,"vivrescore":100},{"code_insee":"46024","nom":"Belmont-Bretenoux","codes_postaux":["46130"],"code_dep":"46","code_region":"76","population":408,"surface_km2":6.59,"lat":44.8857,"lon":1.884,"fibre_pct":100.0,"vivrescore":100},{"code_insee":"46026","nom":"Belmont-Sainte-Foi","codes_postaux":["46230"],"code_dep":"46","code_region":"76","population":130,"surface_km2":8.97,"lat":44.2902,"lon":1.6331,"fibre_pct":100.0,"vivrescore":100},{"code_insee":"46027","nom":"Berganty","codes_postaux":["46090"],"code_dep":"46","code_region":"76","population":146,"surface_km2":7.03,"lat":44.4421,"lon":1.6303,"fibre_pct":100.0,"vivrescore":100},{"code_insee":"46028","nom":"Bétaille","codes_postaux":["46110"],"code_dep":"46","code_region":"76","population":1058,"surface_km2":13.94,"lat":44.9439,"lon":1.7424,"fibre_pct":99.3,"vivrescore":100},{"code_insee":"46029","nom":"Biars-sur-Cère","codes_postaux":["46130"],"code_dep":"46","code_region":"76","population":1957,"surface_km2":3.66,"lat":44.9277,"lon":1.8556,"fibre_pct":99.9,"vivrescore":100},{"code_insee":"46030","nom":"Bio","codes_postaux":["46500"],"code_dep":"46","code_region":"76","population":350,"surface_km2":10.81,"lat":44.7769,"lon":1.7896,"fibre_pct":98.3,"vivrescore":100},{"code_insee":"46031","nom":"Blars","codes_postaux":["46330"],"code_dep":"46","code_region":"76","population":137,"surface_km2":25.83,"lat":44.5747,"lon":1.7277,"fibre_pct":97.2,"vivrescore":100},{"code_insee":"46032","nom":"Boissières","codes_postaux":["46150"],"code_dep":"46","code_region":"76","population":371,"surface_km2":13.14,"lat":44.5494,"lon":1.4036,"fibre_pct":92.7,"vivrescore":80},{"code_insee":"46033","nom":"Porte-du-Quercy","codes_postaux":["46800"],"code_dep":"46","code_region":"76","population":532,"surface_km2":49.17,"lat":44.414,"lon":1.1354,"fibre_pct":98.2,"vivrescore":100},{"code_insee":"46034","nom":"Le Bourg","codes_postaux":["46120"],"code_dep":"46","code_region":"76","population":298,"surface_km2":13.32,"lat":44.7094,"lon":1.9174,"fibre_pct":98.6,"vivrescore":100},{"code_insee":"46035","nom":"Boussac","codes_postaux":["46100"],"code_dep":"46","code_region":"76","population":185,"surface_km2":7.91,"lat":44.5967,"lon":1.9181,"fibre_pct":99.2,"vivrescore":100},{"code_insee":"46036","nom":"Le Bouyssou","codes_postaux":["46120"],"code_dep":"46","code_region":"76","population":121,"surface_km2":5.58,"lat":44.695,"lon":1.9459,"fibre_pct":100.0,"vivrescore":100},{"code_insee":"46037","nom":"Bouziès","codes_postaux":["46330"],"code_dep":"46","code_region":"76","population":93,"surface_km2":8.25,"lat":44.4776,"lon":1.6384,"fibre_pct":91.5,"vivrescore":80},{"code_insee":"46038","nom":"Bretenoux","codes_postaux":["46130"],"code_dep":"46","code_region":"76","population":1468,"surface_km2":5.72,"lat":44.9146,"lon":1.8422,"fibre_pct":99.8,"vivrescore":100},{"code_insee":"46039","nom":"Brengues","codes_postaux":["46320"],"code_dep":"46","code_region":"76","population":195,"surface_km2":20.81,"lat":44.58,"lon":1.8296,"fibre_pct":75.8,"vivrescore":60},{"code_insee":"46040","nom":"Cabrerets","codes_postaux":["46330"],"code_dep":"46","code_region":"76","population":220,"surface_km2":44.0,"lat":44.5155,"lon":1.6216,"fibre_pct":99.7,"vivrescore":100},{"code_insee":"46041","nom":"Cadrieu","codes_postaux":["46160"],"code_dep":"46","code_region":"76","population":174,"surface_km2":5.26,"lat":44.5013,"lon":1.8745,"fibre_pct":100.0,"vivrescore":100},{"code_insee":"46042","nom":"Cahors","codes_postaux":["46000"],"code_dep":"46","code_region":"76","population":20050,"surface_km2":64.88,"lat":44.4565,"lon":1.439,"fibre_pct":93.1,"vivrescore":80},{"code_insee":"46043","nom":"Cahus","codes_postaux":["46130"],"code_dep":"46","code_region":"76","population":185,"surface_km2":10.19,"lat":44.9619,"lon":1.9128,"fibre_pct":94.7,"vivrescore":80},{"code_insee":"46044","nom":"Caillac","codes_postaux":["46140"],"code_dep":"46","code_region":"76","population":581,"surface_km2":7.55,"lat":44.4911,"lon":1.3471,"fibre_pct":97.6,"vivrescore":100},{"code_insee":"46045","nom":"Cajarc","codes_postaux":["46160"],"code_dep":"46","code_region":"76","population":1136,"surface_km2":25.78,"lat":44.4919,"lon":1.838,"fibre_pct":99.7,"vivrescore":100},{"code_insee":"46046","nom":"Calamane","codes_postaux":["46150"],"code_dep":"46","code_region":"76","population":471,"surface_km2":7.62,"lat":44.5199,"lon":1.4092,"fibre_pct":97.8,"vivrescore":100},{"code_insee":"46047","nom":"Calès","codes_postaux":["46350"],"code_dep":"46","code_region":"76","population":169,"surface_km2":33.99,"lat":44.7968,"lon":1.5494,"fibre_pct":98.9,"vivrescore":100},{"code_insee":"46049","nom":"Calvignac","codes_postaux":["46160"],"code_dep":"46","code_region":"76","population":245,"surface_km2":17.7,"lat":44.4509,"lon":1.7865,"fibre_pct":100.0,"vivrescore":100},{"code_insee":"46050","nom":"Cambayrac","codes_postaux":["46140"],"code_dep":"46","code_region":"76","population":136,"surface_km2":7.36,"lat":44.4307,"lon":1.2929,"fibre_pct":100.0,"vivrescore":100},{"code_insee":"46051","nom":"Cambes","codes_postaux":["46100"],"code_dep":"46","code_region":"76","population":343,"surface_km2":6.62,"lat":44.6198,"lon":1.9221,"fibre_pct":99.7,"vivrescore":100},{"code_insee":"46052","nom":"Camboulit","codes_postaux":["46100"],"code_dep":"46","code_region":"76","population":245,"surface_km2":5.22,"lat":44.6015,"lon":1.9529,"fibre_pct":99.4,"vivrescore":100},{"code_insee":"46053","nom":"Camburat","codes_postaux":["46100"],"code_dep":"46","code_region":"76","population":455,"surface_km2":8.06,"lat":44.6444,"lon":1.9941,"fibre_pct":99.2,"vivrescore":100},{"code_insee":"46054","nom":"Caniac-du-Causse","codes_postaux":["46240"],"code_dep":"46","code_region":"76","population":371,"surface_km2":35.11,"lat":44.6299,"lon":1.6543,"fibre_pct":92.9,"vivrescore":80},{"code_insee":"46055","nom":"Capdenac","codes_postaux":["46100"],"code_dep":"46","code_region":"76","population":1049,"surface_km2":11.01,"lat":44.5818,"lon":2.0706,"fibre_pct":99.5,"vivrescore":100},{"code_insee":"46056","nom":"Carayac","codes_postaux":["46160"],"code_dep":"46","code_region":"76","population":104,"surface_km2":6.95,"lat":44.5406,"lon":1.9239,"fibre_pct":100.0,"vivrescore":100},{"code_insee":"46057","nom":"Cardaillac","codes_postaux":["46100"],"code_dep":"46","code_region":"76","population":623,"surface_km2":18.22,"lat":44.6828,"lon":2.0158,"fibre_pct":99.8,"vivrescore":100},{"code_insee":"46058","nom":"Carennac","codes_postaux":["46110"],"code_dep":"46","code_region":"76","population":431,"surface_km2":19.08,"lat":44.9069,"lon":1.7238,"fibre_pct":100.0,"vivrescore":100},{"code_insee":"46059","nom":"Carlucet","codes_postaux":["46500"],"code_dep":"46","code_region":"76","population":230,"surface_km2":34.0,"lat":44.7282,"lon":1.5975,"fibre_pct":97.9,"vivrescore":100},{"code_insee":"46060","nom":"Carnac-Rouffiac","codes_postaux":["46140"],"code_dep":"46","code_region":"76","population":231,"surface_km2":13.48,"lat":44.4156,"lon":1.2209,"fibre_pct":98.7,"vivrescore":100},{"code_insee":"46061","nom":"Cassagnes","codes_postaux":["46700"],"code_dep":"46","code_region":"76","population":172,"surface_km2":11.53,"lat":44.564,"lon":1.1285,"fibre_pct":99.4,"vivrescore":100},{"code_insee":"46062","nom":"Castelfranc","codes_postaux":["46140"],"code_dep":"46","code_region":"76","population":428,"surface_km2":5.47,"lat":44.503,"lon":1.2184,"fibre_pct":99.7,"vivrescore":100},{"code_insee":"46063","nom":"Castelnau-Montratier","codes_postaux":["46170"],"code_dep":"46","code_region":"76","population":1840,"surface_km2":85.33,"lat":44.2677,"lon":1.3525,"fibre_pct":98.2,"vivrescore":100},{"code_insee":"46064","nom":"Catus","codes_postaux":["46150"],"code_dep":"46","code_region":"76","population":921,"surface_km2":21.32,"lat":44.5596,"lon":1.3391,"fibre_pct":94.9,"vivrescore":80},{"code_insee":"46065","nom":"Cavagnac","codes_postaux":["46110"],"code_dep":"46","code_region":"76","population":432,"surface_km2":10.34,"lat":45.0145,"lon":1.6399,"fibre_pct":96.7,"vivrescore":100},{"code_insee":"46066","nom":"Cazals","codes_postaux":["46250"],"code_dep":"46","code_region":"76","population":659,"surface_km2":10.55,"lat":44.6471,"lon":1.2159,"fibre_pct":99.8,"vivrescore":100},{"code_insee":"46068","nom":"Cénevières","codes_postaux":["46330"],"code_dep":"46","code_region":"76","population":185,"surface_km2":15.91,"lat":44.4454,"lon":1.7374,"fibre_pct":97.8,"vivrescore":100},{"code_insee":"46069","nom":"Cézac","codes_postaux":["46170"],"code_dep":"46","code_region":"76","population":179,"surface_km2":17.53,"lat":44.3481,"lon":1.3426,"fibre_pct":97.9,"vivrescore":100},{"code_insee":"46070","nom":"Cieurac","codes_postaux":["46230"],"code_dep":"46","code_region":"76","population":660,"surface_km2":18.67,"lat":44.3773,"lon":1.5002,"fibre_pct":99.4,"vivrescore":100},{"code_insee":"46072","nom":"Concorès","codes_postaux":["46310"],"code_dep":"46","code_region":"76","population":312,"surface_km2":19.07,"lat":44.6695,"lon":1.3915,"fibre_pct":98.9,"vivrescore":100},{"code_insee":"46073","nom":"Concots","codes_postaux":["46260"],"code_dep":"46","code_region":"76","population":420,"surface_km2":26.05,"lat":44.3982,"lon":1.6458,"fibre_pct":99.2,"vivrescore":100},{"code_insee":"46074","nom":"Condat","codes_postaux":["46110"],"code_dep":"46","code_region":"76","population":410,"surface_km2":6.12,"lat":44.9915,"lon":1.6682,"fibre_pct":97.9,"vivrescore":100},{"code_insee":"46075","nom":"Corn","codes_postaux":["46100"],"code_dep":"46","code_region":"76","population":238,"surface_km2":15.41,"lat":44.6027,"lon":1.8849,"fibre_pct":99.1,"vivrescore":100},{"code_insee":"46076","nom":"Cornac","codes_postaux":["46130"],"code_dep":"46","code_region":"76","population":366,"surface_km2":13.59,"lat":44.8999,"lon":1.9189,"fibre_pct":98.9,"vivrescore":100},{"code_insee":"46078","nom":"Couzou","codes_postaux":["46500"],"code_dep":"46","code_region":"76","population":95,"surface_km2":21.62,"lat":44.7724,"lon":1.6273,"fibre_pct":99.4,"vivrescore":100},{"code_insee":"46079","nom":"Cras","codes_postaux":["46360"],"code_dep":"46","code_region":"76","population":97,"surface_km2":10.31,"lat":44.5578,"lon":1.545,"fibre_pct":95.2,"vivrescore":100},{"code_insee":"46080","nom":"Crayssac","codes_postaux":["46150"],"code_dep":"46","code_region":"76","population":844,"surface_km2":15.12,"lat":44.5182,"lon":1.3275,"fibre_pct":99.6,"vivrescore":100},{"code_insee":"46081","nom":"Crégols","codes_postaux":["46330"],"code_dep":"46","code_region":"76","population":87,"surface_km2":18.49,"lat":44.4304,"lon":1.6899,"fibre_pct":99.2,"vivrescore":100},{"code_insee":"46082","nom":"Cremps","codes_postaux":["46230"],"code_dep":"46","code_region":"76","population":410,"surface_km2":19.68,"lat":44.3867,"lon":1.583,"fibre_pct":99.4,"vivrescore":100},{"code_insee":"46083","nom":"Cressensac-Sarrazac","codes_postaux":["46600"],"code_dep":"46","code_region":"76","population":1165,"surface_km2":41.34,"lat":45.0175,"lon":1.5499,"fibre_pct":96.9,"vivrescore":100},{"code_insee":"46084","nom":"Creysse","codes_postaux":["46600"],"code_dep":"46","code_region":"76","population":313,"surface_km2":9.54,"lat":44.8989,"lon":1.5948,"fibre_pct":99.4,"vivrescore":100},{"code_insee":"46085","nom":"Cuzac","codes_postaux":["46270"],"code_dep":"46","code_region":"76","population":238,"surface_km2":5.01,"lat":44.5808,"lon":2.1408,"fibre_pct":96.7,"vivrescore":100},{"code_insee":"46086","nom":"Cuzance","codes_postaux":["46600"],"code_dep":"46","code_region":"76","population":653,"surface_km2":29.5,"lat":44.9584,"lon":1.5273,"fibre_pct":97.8,"vivrescore":100},{"code_insee":"46087","nom":"Dégagnac","codes_postaux":["46340"],"code_dep":"46","code_region":"76","population":642,"surface_km2":37.89,"lat":44.672,"lon":1.321,"fibre_pct":98.8,"vivrescore":100},{"code_insee":"46088","nom":"Douelle","codes_postaux":["46140"],"code_dep":"46","code_region":"76","population":830,"surface_km2":9.15,"lat":44.4709,"lon":1.3563,"fibre_pct":99.7,"vivrescore":100},{"code_insee":"46089","nom":"Duravel","codes_postaux":["46700"],"code_dep":"46","code_region":"76","population":950,"surface_km2":15.01,"lat":44.5164,"lon":1.0859,"fibre_pct":99.6,"vivrescore":100},{"code_insee":"46090","nom":"Durbans","codes_postaux":["46320"],"code_dep":"46","code_region":"76","population":158,"surface_km2":27.94,"lat":44.681,"lon":1.7631,"fibre_pct":85.9,"vivrescore":80},{"code_insee":"46091","nom":"Escamps","codes_postaux":["46230"],"code_dep":"46","code_region":"76","population":206,"surface_km2":12.31,"lat":44.3672,"lon":1.6195,"fibre_pct":99.0,"vivrescore":100},{"code_insee":"46092","nom":"Esclauzels","codes_postaux":["46090"],"code_dep":"46","code_region":"76","population":224,"surface_km2":17.89,"lat":44.4373,"lon":1.6008,"fibre_pct":95.9,"vivrescore":100},{"code_insee":"46093","nom":"Espagnac-Sainte-Eulalie","codes_postaux":["46320"],"code_dep":"46","code_region":"76","population":97,"surface_km2":9.81,"lat":44.5909,"lon":1.8603,"fibre_pct":100.0,"vivrescore":100},{"code_insee":"46094","nom":"Espédaillac","codes_postaux":["46320"],"code_dep":"46","code_region":"76","population":290,"surface_km2":35.2,"lat":44.6294,"lon":1.7742,"fibre_pct":97.0,"vivrescore":100},{"code_insee":"46095","nom":"Espère","codes_postaux":["46090"],"code_dep":"46","code_region":"76","population":963,"surface_km2":6.26,"lat":44.5129,"lon":1.3709,"fibre_pct":91.0,"vivrescore":80},{"code_insee":"46096","nom":"Espeyroux","codes_postaux":["46120"],"code_dep":"46","code_region":"76","population":98,"surface_km2":7.73,"lat":44.7643,"lon":1.9274,"fibre_pct":88.4,"vivrescore":80},{"code_insee":"46097","nom":"Estal","codes_postaux":["46130"],"code_dep":"46","code_region":"76","population":97,"surface_km2":5.98,"lat":44.9194,"lon":1.9183,"fibre_pct":90.9,"vivrescore":80},{"code_insee":"46098","nom":"Fajoles","codes_postaux":["46300"],"code_dep":"46","code_region":"76","population":319,"surface_km2":8.86,"lat":44.8087,"lon":1.3827,"fibre_pct":97.2,"vivrescore":100},{"code_insee":"46100","nom":"Faycelles","codes_postaux":["46100"],"code_dep":"46","code_region":"76","population":740,"surface_km2":14.01,"lat":44.5658,"lon":1.9911,"fibre_pct":99.4,"vivrescore":100},{"code_insee":"46101","nom":"Felzins","codes_postaux":["46270"],"code_dep":"46","code_region":"76","population":464,"surface_km2":15.06,"lat":44.6114,"lon":2.1524,"fibre_pct":92.5,"vivrescore":80},{"code_insee":"46102","nom":"Figeac","codes_postaux":["46100"],"code_dep":"46","code_region":"76","population":9793,"surface_km2":35.36,"lat":44.6067,"lon":2.0231,"fibre_pct":98.9,"vivrescore":100},{"code_insee":"46103","nom":"Saint-Paul-Flaugnac","codes_postaux":["46170"],"code_dep":"46","code_region":"76","population":996,"surface_km2":51.58,"lat":44.2859,"lon":1.4255,"fibre_pct":96.3,"vivrescore":100},{"code_insee":"46104","nom":"Flaujac-Gare","codes_postaux":["46320"],"code_dep":"46","code_region":"76","population":84,"surface_km2":8.15,"lat":44.7037,"lon":1.7768,"fibre_pct":94.0,"vivrescore":80},{"code_insee":"46105","nom":"Flaujac-Poujols","codes_postaux":["46090"],"code_dep":"46","code_region":"76","population":811,"surface_km2":12.63,"lat":44.408,"lon":1.496,"fibre_pct":100.0,"vivrescore":100},{"code_insee":"46106","nom":"Floirac","codes_postaux":["46600"],"code_dep":"46","code_region":"76","population":248,"surface_km2":19.07,"lat":44.9065,"lon":1.6707,"fibre_pct":100.0,"vivrescore":100},{"code_insee":"46107","nom":"Floressas","codes_postaux":["46700"],"code_dep":"46","code_region":"76","population":176,"surface_km2":13.85,"lat":44.4604,"lon":1.1137,"fibre_pct":94.2,"vivrescore":80},{"code_insee":"46108","nom":"Fons","codes_postaux":["46100"],"code_dep":"46","code_region":"76","population":403,"surface_km2":15.09,"lat":44.658,"lon":1.9541,"fibre_pct":97.5,"vivrescore":100},{"code_insee":"46109","nom":"Fontanes","codes_postaux":["46230"],"code_dep":"46","code_region":"76","population":547,"surface_km2":16.58,"lat":44.3256,"lon":1.4926,"fibre_pct":99.5,"vivrescore":100},{"code_insee":"46111","nom":"Fourmagnac","codes_postaux":["46100"],"code_dep":"46","code_region":"76","population":178,"surface_km2":3.75,"lat":44.6649,"lon":1.9814,"fibre_pct":94.6,"vivrescore":80},{"code_insee":"46112","nom":"Francoulès","codes_postaux":["46090"],"code_dep":"46","code_region":"76","population":265,"surface_km2":13.63,"lat":44.5567,"lon":1.4879,"fibre_pct":100.0,"vivrescore":100},{"code_insee":"46113","nom":"Frayssinet","codes_postaux":["46310"],"code_dep":"46","code_region":"76","population":309,"surface_km2":16.84,"lat":44.6519,"lon":1.4858,"fibre_pct":100.0,"vivrescore":100},{"code_insee":"46114","nom":"Frayssinet-le-Gélat","codes_postaux":["46250"],"code_dep":"46","code_region":"76","population":376,"surface_km2":23.22,"lat":44.59,"lon":1.1441,"fibre_pct":100.0,"vivrescore":100},{"code_insee":"46115","nom":"Frayssinhes","codes_postaux":["46400"],"code_dep":"46","code_region":"76","population":169,"surface_km2":11.88,"lat":44.8734,"lon":1.9397,"fibre_pct":99.3,"vivrescore":100},{"code_insee":"46116","nom":"Frontenac","codes_postaux":["46160"],"code_dep":"46","code_region":"76","population":67,"surface_km2":2.81,"lat":44.5434,"lon":1.9718,"fibre_pct":94.8,"vivrescore":80},{"code_insee":"46117","nom":"Gagnac-sur-Cère","codes_postaux":["46130"],"code_dep":"46","code_region":"76","population":650,"surface_km2":12.84,"lat":44.938,"lon":1.8808,"fibre_pct":98.5,"vivrescore":100},{"code_insee":"46118","nom":"Gignac","codes_postaux":["46600"],"code_dep":"46","code_region":"76","population":691,"surface_km2":40.96,"lat":44.9863,"lon":1.4713,"fibre_pct":97.6,"vivrescore":100},{"code_insee":"46119","nom":"Gigouzac","codes_postaux":["46150"],"code_dep":"46","code_region":"76","population":303,"surface_km2":9.93,"lat":44.5851,"lon":1.4343,"fibre_pct":100.0,"vivrescore":100},{"code_insee":"46120","nom":"Gindou","codes_postaux":["46250"],"code_dep":"46","code_region":"76","population":356,"surface_km2":15.66,"lat":44.6236,"lon":1.2627,"fibre_pct":97.2,"vivrescore":100},{"code_insee":"46121","nom":"Ginouillac","codes_postaux":["46300"],"code_dep":"46","code_region":"76","population":139,"surface_km2":9.47,"lat":44.7253,"lon":1.5337,"fibre_pct":97.8,"vivrescore":100},{"code_insee":"46122","nom":"Gintrac","codes_postaux":["46130"],"code_dep":"46","code_region":"76","population":90,"surface_km2":6.77,"lat":44.8844,"lon":1.7547,"fibre_pct":100.0,"vivrescore":100},{"code_insee":"46123","nom":"Girac","codes_postaux":["46130"],"code_dep":"46","code_region":"76","population":355,"surface_km2":4.4,"lat":44.9285,"lon":1.8256,"fibre_pct":99.6,"vivrescore":100},{"code_insee":"46124","nom":"Glanes","codes_postaux":["46130"],"code_dep":"46","code_region":"76","population":292,"surface_km2":2.71,"lat":44.9187,"lon":1.8724,"fibre_pct":98.0,"vivrescore":100},{"code_insee":"46125","nom":"Gorses","codes_postaux":["46210"],"code_dep":"46","code_region":"76","population":345,"surface_km2":35.89,"lat":44.7929,"lon":2.0329,"fibre_pct":92.3,"vivrescore":80},{"code_insee":"46126","nom":"Goujounac","codes_postaux":["46250"],"code_dep":"46","code_region":"76","population":220,"surface_km2":10.28,"lat":44.5765,"lon":1.2008,"fibre_pct":98.6,"vivrescore":100},{"code_insee":"46127","nom":"Gourdon","codes_postaux":["46300"],"code_dep":"46","code_region":"76","population":4206,"surface_km2":45.69,"lat":44.7382,"lon":1.3714,"fibre_pct":99.6,"vivrescore":100},{"code_insee":"46128","nom":"Gramat","codes_postaux":["46500"],"code_dep":"46","code_region":"76","population":3512,"surface_km2":57.15,"lat":44.7643,"lon":1.7125,"fibre_pct":99.3,"vivrescore":100},{"code_insee":"46129","nom":"Gréalou","codes_postaux":["46160"],"code_dep":"46","code_region":"76","population":312,"surface_km2":17.51,"lat":44.5401,"lon":1.8719,"fibre_pct":95.8,"vivrescore":100},{"code_insee":"46130","nom":"Grézels","codes_postaux":["46700"],"code_dep":"46","code_region":"76","population":235,"surface_km2":10.85,"lat":44.4674,"lon":1.1507,"fibre_pct":100.0,"vivrescore":100},{"code_insee":"46131","nom":"Grèzes","codes_postaux":["46320"],"code_dep":"46","code_region":"76","population":155,"surface_km2":11.11,"lat":44.6227,"lon":1.8267,"fibre_pct":93.0,"vivrescore":80},{"code_insee":"46132","nom":"Issendolus","codes_postaux":["46500"],"code_dep":"46","code_region":"76","population":529,"surface_km2":19.04,"lat":44.7373,"lon":1.7793,"fibre_pct":99.2,"vivrescore":100},{"code_insee":"46133","nom":"Issepts","codes_postaux":["46320"],"code_dep":"46","code_region":"76","population":266,"surface_km2":9.12,"lat":44.6785,"lon":1.9161,"fibre_pct":98.9,"vivrescore":100},{"code_insee":"46134","nom":"Les Junies","codes_postaux":["46150"],"code_dep":"46","code_region":"76","population":251,"surface_km2":13.08,"lat":44.5392,"lon":1.2226,"fibre_pct":100.0,"vivrescore":100},{"code_insee":"46135","nom":"Labastide-du-Haut-Mont","codes_postaux":["46210"],"code_dep":"46","code_region":"76","population":44,"surface_km2":9.77,"lat":44.829,"lon":2.1109,"fibre_pct":100.0,"vivrescore":100},{"code_insee":"46136","nom":"Labastide-du-Vert","codes_postaux":["46150"],"code_dep":"46","code_region":"76","population":279,"surface_km2":10.45,"lat":44.5142,"lon":1.2662,"fibre_pct":82.5,"vivrescore":80},{"code_insee":"46137","nom":"Labastide-Marnhac","codes_postaux":["46090"],"code_dep":"46","code_region":"76","population":1311,"surface_km2":28.77,"lat":44.389,"lon":1.3861,"fibre_pct":99.1,"vivrescore":100},{"code_insee":"46138","nom":"Cœur de Causse","codes_postaux":["46240"],"code_dep":"46","code_region":"76","population":886,"surface_km2":70.99,"lat":44.6441,"lon":1.604,"fibre_pct":98.9,"vivrescore":100},{"code_insee":"46139","nom":"Labathude","codes_postaux":["46120"],"code_dep":"46","code_region":"76","population":203,"surface_km2":9.99,"lat":44.7363,"lon":1.9855,"fibre_pct":96.5,"vivrescore":100},{"code_insee":"46140","nom":"Laburgade","codes_postaux":["46230"],"code_dep":"46","code_region":"76","population":379,"surface_km2":12.43,"lat":44.3898,"lon":1.5408,"fibre_pct":98.3,"vivrescore":100},{"code_insee":"46142","nom":"Lacapelle-Cabanac","codes_postaux":["46700"],"code_dep":"46","code_region":"76","population":172,"surface_km2":8.06,"lat":44.4707,"lon":1.0739,"fibre_pct":98.7,"vivrescore":100},{"code_insee":"46143","nom":"Lacapelle-Marival","codes_postaux":["46120"],"code_dep":"46","code_region":"76","population":1268,"surface_km2":11.7,"lat":44.7275,"lon":1.9346,"fibre_pct":99.8,"vivrescore":100},{"code_insee":"46144","nom":"Lacave","codes_postaux":["46200"],"code_dep":"46","code_region":"76","population":271,"surface_km2":22.0,"lat":44.8417,"lon":1.5549,"fibre_pct":99.7,"vivrescore":100},{"code_insee":"46145","nom":"Lachapelle-Auzac","codes_postaux":["46200"],"code_dep":"46","code_region":"76","population":795,"surface_km2":31.51,"lat":44.9382,"lon":1.4819,"fibre_pct":97.9,"vivrescore":100},{"code_insee":"46146","nom":"Ladirat","codes_postaux":["46400"],"code_dep":"46","code_region":"76","population":86,"surface_km2":8.87,"lat":44.8252,"lon":1.9701,"fibre_pct":97.9,"vivrescore":100},{"code_insee":"46147","nom":"Lagardelle","codes_postaux":["46220"],"code_dep":"46","code_region":"76","population":120,"surface_km2":3.14,"lat":44.4863,"lon":1.1697,"fibre_pct":99.1,"vivrescore":100},{"code_insee":"46148","nom":"Lalbenque","codes_postaux":["46230"],"code_dep":"46","code_region":"76","population":1899,"surface_km2":52.26,"lat":44.3356,"lon":1.563,"fibre_pct":97.6,"vivrescore":100},{"code_insee":"46149","nom":"Lamagdelaine","codes_postaux":["46090"],"code_dep":"46","code_region":"76","population":721,"surface_km2":10.49,"lat":44.4768,"lon":1.5011,"fibre_pct":98.0,"vivrescore":100},{"code_insee":"46151","nom":"Lamothe-Cassel","codes_postaux":["46240"],"code_dep":"46","code_region":"76","population":116,"surface_km2":11.46,"lat":44.6132,"lon":1.5137,"fibre_pct":99.2,"vivrescore":100},{"code_insee":"46152","nom":"Lamothe-Fénelon","codes_postaux":["46350"],"code_dep":"46","code_region":"76","population":330,"surface_km2":13.94,"lat":44.8297,"lon":1.4293,"fibre_pct":99.2,"vivrescore":100},{"code_insee":"46153","nom":"Lanzac","codes_postaux":["46200"],"code_dep":"46","code_region":"76","population":563,"surface_km2":14.68,"lat":44.8693,"lon":1.4681,"fibre_pct":97.7,"vivrescore":100},{"code_insee":"46154","nom":"Laramière","codes_postaux":["46260"],"code_dep":"46","code_region":"76","population":356,"surface_km2":22.03,"lat":44.3616,"lon":1.8702,"fibre_pct":99.7,"vivrescore":100},{"code_insee":"46155","nom":"Larnagol","codes_postaux":["46160"],"code_dep":"46","code_region":"76","population":135,"surface_km2":24.14,"lat":44.4892,"lon":1.7806,"fibre_pct":100.0,"vivrescore":100},{"code_insee":"46156","nom":"Bellefont-La Rauze","codes_postaux":["46090"],"code_dep":"46","code_region":"76","population":1183,"surface_km2":37.75,"lat":44.5082,"lon":1.5041,"fibre_pct":97.7,"vivrescore":100},{"code_insee":"46157","nom":"Larroque-Toirac","codes_postaux":["46160"],"code_dep":"46","code_region":"76","population":126,"surface_km2":5.84,"lat":44.5201,"lon":1.9356,"fibre_pct":100.0,"vivrescore":100},{"code_insee":"46159","nom":"Latouille-Lentillac","codes_postaux":["46400"],"code_dep":"46","code_region":"76","population":247,"surface_km2":11.98,"lat":44.8471,"lon":1.9805,"fibre_pct":99.0,"vivrescore":100},{"code_insee":"46160","nom":"Latronquière","codes_postaux":["46210"],"code_dep":"46","code_region":"76","population":447,"surface_km2":10.4,"lat":44.8004,"lon":2.0693,"fibre_pct":99.0,"vivrescore":100},{"code_insee":"46161","nom":"Lauresses","codes_postaux":["46210"],"code_dep":"46","code_region":"76","population":239,"surface_km2":23.89,"lat":44.7869,"lon":2.1144,"fibre_pct":98.4,"vivrescore":100},{"code_insee":"46162","nom":"Lauzès","codes_postaux":["46360"],"code_dep":"46","code_region":"76","population":200,"surface_km2":6.4,"lat":44.5635,"lon":1.5781,"fibre_pct":99.0,"vivrescore":100},{"code_insee":"46163","nom":"Laval-de-Cère","codes_postaux":["46130"],"code_dep":"46","code_region":"76","population":296,"surface_km2":8.01,"lat":44.9512,"lon":1.9267,"fibre_pct":100.0,"vivrescore":100},{"code_insee":"46164","nom":"Lavercantière","codes_postaux":["46340"],"code_dep":"46","code_region":"76","population":234,"surface_km2":15.02,"lat":44.6302,"lon":1.3166,"fibre_pct":99.5,"vivrescore":100},{"code_insee":"46165","nom":"Lavergne","codes_postaux":["46500"],"code_dep":"46","code_region":"76","population":489,"surface_km2":8.82,"lat":44.8026,"lon":1.7665,"fibre_pct":97.9,"vivrescore":100},{"code_insee":"46167","nom":"Lentillac-du-Causse","codes_postaux":["46330"],"code_dep":"46","code_region":"76","population":107,"surface_km2":13.67,"lat":44.5542,"lon":1.6395,"fibre_pct":97.6,"vivrescore":100},{"code_insee":"46168","nom":"Lentillac-Saint-Blaise","codes_postaux":["46100"],"code_dep":"46","code_region":"76","population":191,"surface_km2":5.7,"lat":44.5902,"lon":2.1185,"fibre_pct":96.8,"vivrescore":100},{"code_insee":"46169","nom":"Léobard","codes_postaux":["46300"],"code_dep":"46","code_region":"76","population":234,"surface_km2":10.37,"lat":44.7197,"lon":1.3101,"fibre_pct":99.5,"vivrescore":100},{"code_insee":"46170","nom":"Leyme","codes_postaux":["46120"],"code_dep":"46","code_region":"76","population":932,"surface_km2":10.14,"lat":44.7829,"lon":1.9009,"fibre_pct":99.1,"vivrescore":100},{"code_insee":"46171","nom":"Lherm","codes_postaux":["46150"],"code_dep":"46","code_region":"76","population":228,"surface_km2":13.47,"lat":44.571,"lon":1.2402,"fibre_pct":94.0,"vivrescore":80},{"code_insee":"46172","nom":"Pern-Lhospitalet","codes_postaux":["46170"],"code_dep":"46","code_region":"76","population":925,"surface_km2":40.65,"lat":44.3423,"lon":1.4128,"fibre_pct":98.1,"vivrescore":100},{"code_insee":"46173","nom":"Limogne-en-Quercy","codes_postaux":["46260"],"code_dep":"46","code_region":"76","population":856,"surface_km2":32.24,"lat":44.4007,"lon":1.7837,"fibre_pct":96.1,"vivrescore":100},{"code_insee":"46174","nom":"Linac","codes_postaux":["46270"],"code_dep":"46","code_region":"76","population":233,"surface_km2":12.22,"lat":44.6737,"lon":2.1194,"fibre_pct":92.2,"vivrescore":80},{"code_insee":"46175","nom":"Lissac-et-Mouret","codes_postaux":["46100"],"code_dep":"46","code_region":"76","population":973,"surface_km2":15.51,"lat":44.6223,"lon":1.972,"fibre_pct":99.7,"vivrescore":100},{"code_insee":"46176","nom":"Livernon","codes_postaux":["46320"],"code_dep":"46","code_region":"76","population":722,"surface_km2":26.2,"lat":44.6516,"lon":1.8483,"fibre_pct":97.9,"vivrescore":100},{"code_insee":"46177","nom":"Loubressac","codes_postaux":["46130"],"code_dep":"46","code_region":"76","population":533,"surface_km2":23.38,"lat":44.8639,"lon":1.7887,"fibre_pct":99.6,"vivrescore":100},{"code_insee":"46178","nom":"Loupiac","codes_postaux":["46350"],"code_dep":"46","code_region":"76","population":280,"surface_km2":12.77,"lat":44.8259,"lon":1.4715,"fibre_pct":95.7,"vivrescore":100},{"code_insee":"46179","nom":"Lugagnac","codes_postaux":["46260"],"code_dep":"46","code_region":"76","population":140,"surface_km2":15.81,"lat":44.4103,"lon":1.7228,"fibre_pct":95.7,"vivrescore":100},{"code_insee":"46180","nom":"Lunan","codes_postaux":["46100"],"code_dep":"46","code_region":"76","population":625,"surface_km2":6.22,"lat":44.6088,"lon":2.084,"fibre_pct":98.1,"vivrescore":100},{"code_insee":"46181","nom":"Lunegarde","codes_postaux":["46240"],"code_dep":"46","code_region":"76","population":94,"surface_km2":10.34,"lat":44.6853,"lon":1.6901,"fibre_pct":98.8,"vivrescore":100},{"code_insee":"46182","nom":"Luzech","codes_postaux":["46140"],"code_dep":"46","code_region":"76","population":1750,"surface_km2":22.15,"lat":44.4828,"lon":1.2716,"fibre_pct":99.2,"vivrescore":100},{"code_insee":"46183","nom":"Marcilhac-sur-Célé","codes_postaux":["46160"],"code_dep":"46","code_region":"76","population":173,"surface_km2":26.89,"lat":44.5486,"lon":1.78,"fibre_pct":98.8,"vivrescore":100},{"code_insee":"46184","nom":"Marminiac","codes_postaux":["46250"],"code_dep":"46","code_region":"76","population":349,"surface_km2":22.95,"lat":44.6535,"lon":1.1857,"fibre_pct":83.3,"vivrescore":80},{"code_insee":"46185","nom":"Martel","codes_postaux":["46600"],"code_dep":"46","code_region":"76","population":1637,"surface_km2":35.54,"lat":44.9359,"lon":1.6047,"fibre_pct":98.9,"vivrescore":100},{"code_insee":"46186","nom":"Masclat","codes_postaux":["46350"],"code_dep":"46","code_region":"76","population":357,"surface_km2":9.85,"lat":44.8313,"lon":1.3822,"fibre_pct":95.2,"vivrescore":100},{"code_insee":"46187","nom":"Mauroux","codes_postaux":["46700"],"code_dep":"46","code_region":"76","population":580,"surface_km2":16.34,"lat":44.4539,"lon":1.0476,"fibre_pct":96.6,"vivrescore":100},{"code_insee":"46188","nom":"Maxou","codes_postaux":["46090"],"code_dep":"46","code_region":"76","population":287,"surface_km2":12.55,"lat":44.5475,"lon":1.4448,"fibre_pct":93.3,"vivrescore":80},{"code_insee":"46189","nom":"Mayrinhac-Lentour","codes_postaux":["46500"],"code_dep":"46","code_region":"76","population":484,"surface_km2":15.53,"lat":44.8141,"lon":1.8058,"fibre_pct":98.8,"vivrescore":100},{"code_insee":"46190","nom":"Mechmont","codes_postaux":["46150"],"code_dep":"46","code_region":"76","population":134,"surface_km2":6.73,"lat":44.5856,"lon":1.4632,"fibre_pct":95.5,"vivrescore":100},{"code_insee":"46191","nom":"Mercuès","codes_postaux":["46090"],"code_dep":"46","code_region":"76","population":1122,"surface_km2":7.2,"lat":44.4965,"lon":1.3893,"fibre_pct":100.0,"vivrescore":100},{"code_insee":"46192","nom":"Meyronne","codes_postaux":["46200"],"code_dep":"46","code_region":"76","population":269,"surface_km2":8.16,"lat":44.8668,"lon":1.5901,"fibre_pct":99.3,"vivrescore":100},{"code_insee":"46193","nom":"Miers","codes_postaux":["46500"],"code_dep":"46","code_region":"76","population":445,"surface_km2":25.19,"lat":44.859,"lon":1.7054,"fibre_pct":100.0,"vivrescore":100},{"code_insee":"46194","nom":"Milhac","codes_postaux":["46300"],"code_dep":"46","code_region":"76","population":198,"surface_km2":5.47,"lat":44.7973,"lon":1.3472,"fibre_pct":98.9,"vivrescore":100},{"code_insee":"46195","nom":"Molières","codes_postaux":["46120"],"code_dep":"46","code_region":"76","population":357,"surface_km2":12.79,"lat":44.7897,"lon":1.9386,"fibre_pct":99.3,"vivrescore":100},{"code_insee":"46196","nom":"Montamel","codes_postaux":["46310"],"code_dep":"46","code_region":"76","population":90,"surface_km2":9.71,"lat":44.6097,"lon":1.4662,"fibre_pct":95.7,"vivrescore":100},{"code_insee":"46197","nom":"Le Montat","codes_postaux":["46090"],"code_dep":"46","code_region":"76","population":1107,"surface_km2":22.53,"lat":44.3881,"lon":1.4567,"fibre_pct":97.5,"vivrescore":100},{"code_insee":"46198","nom":"Montbrun","codes_postaux":["46160"],"code_dep":"46","code_region":"76","population":117,"surface_km2":8.12,"lat":44.5078,"lon":1.9017,"fibre_pct":100.0,"vivrescore":100},{"code_insee":"46199","nom":"Montcabrier","codes_postaux":["46700"],"code_dep":"46","code_region":"76","population":342,"surface_km2":21.79,"lat":44.5529,"lon":1.0833,"fibre_pct":89.3,"vivrescore":80},{"code_insee":"46200","nom":"Montcléra","codes_postaux":["46250"],"code_dep":"46","code_region":"76","population":292,"surface_km2":20.93,"lat":44.6209,"lon":1.201,"fibre_pct":96.1,"vivrescore":100},{"code_insee":"46201","nom":"Montcuq-en-Quercy-Blanc","codes_postaux":["46800"],"code_dep":"46","code_region":"76","population":1816,"surface_km2":78.49,"lat":44.349,"lon":1.1768,"fibre_pct":99.7,"vivrescore":100},{"code_insee":"46202","nom":"Montdoumerc","codes_postaux":["46230"],"code_dep":"46","code_region":"76","population":577,"surface_km2":13.61,"lat":44.2909,"lon":1.5001,"fibre_pct":99.1,"vivrescore":100},{"code_insee":"46203","nom":"Montet-et-Bouxal","codes_postaux":["46210"],"code_dep":"46","code_region":"76","population":213,"surface_km2":11.54,"lat":44.7464,"lon":2.0363,"fibre_pct":98.1,"vivrescore":100},{"code_insee":"46204","nom":"Montfaucon","codes_postaux":["46240"],"code_dep":"46","code_region":"76","population":584,"surface_km2":26.46,"lat":44.6876,"lon":1.5763,"fibre_pct":99.7,"vivrescore":100},{"code_insee":"46205","nom":"Montgesty","codes_postaux":["46150"],"code_dep":"46","code_region":"76","population":319,"surface_km2":11.92,"lat":44.5753,"lon":1.2942,"fibre_pct":96.3,"vivrescore":100},{"code_insee":"46206","nom":"Montlauzun","codes_postaux":["46800"],"code_dep":"46","code_region":"76","population":121,"surface_km2":6.48,"lat":44.2969,"lon":1.1944,"fibre_pct":83.8,"vivrescore":80},{"code_insee":"46207","nom":"Montredon","codes_postaux":["46270"],"code_dep":"46","code_region":"76","population":300,"surface_km2":11.82,"lat":44.6117,"lon":2.1818,"fibre_pct":92.5,"vivrescore":80},{"code_insee":"46208","nom":"Montvalent","codes_postaux":["46600"],"code_dep":"46","code_region":"76","population":314,"surface_km2":27.55,"lat":44.8747,"lon":1.6344,"fibre_pct":94.5,"vivrescore":80},{"code_insee":"46209","nom":"Nadaillac-de-Rouge","codes_postaux":["46350"],"code_dep":"46","code_region":"76","population":180,"surface_km2":7.71,"lat":44.851,"lon":1.4326,"fibre_pct":95.0,"vivrescore":100},{"code_insee":"46210","nom":"Nadillac","codes_postaux":["46360"],"code_dep":"46","code_region":"76","population":75,"surface_km2":7.44,"lat":44.5654,"lon":1.5074,"fibre_pct":100.0,"vivrescore":100},{"code_insee":"46211","nom":"Nuzéjouls","codes_postaux":["46150"],"code_dep":"46","code_region":"76","population":352,"surface_km2":4.76,"lat":44.538,"lon":1.3726,"fibre_pct":99.5,"vivrescore":100},{"code_insee":"46212","nom":"Orniac","codes_postaux":["46330"],"code_dep":"46","code_region":"76","population":73,"surface_km2":17.0,"lat":44.5411,"lon":1.6812,"fibre_pct":100.0,"vivrescore":100},{"code_insee":"46213","nom":"Padirac","codes_postaux":["46500"],"code_dep":"46","code_region":"76","population":182,"surface_km2":8.87,"lat":44.8515,"lon":1.7571,"fibre_pct":100.0,"vivrescore":100},{"code_insee":"46214","nom":"Parnac","codes_postaux":["46140"],"code_dep":"46","code_region":"76","population":382,"surface_km2":5.96,"lat":44.4825,"lon":1.3201,"fibre_pct":99.6,"vivrescore":100},{"code_insee":"46215","nom":"Payrac","codes_postaux":["46350"],"code_dep":"46","code_region":"76","population":669,"surface_km2":19.66,"lat":44.792,"lon":1.4648,"fibre_pct":98.8,"vivrescore":100},{"code_insee":"46216","nom":"Payrignac","codes_postaux":["46300"],"code_dep":"46","code_region":"76","population":651,"surface_km2":21.57,"lat":44.7612,"lon":1.3423,"fibre_pct":99.8,"vivrescore":100},{"code_insee":"46218","nom":"Pescadoires","codes_postaux":["46220"],"code_dep":"46","code_region":"76","population":184,"surface_km2":2.46,"lat":44.4973,"lon":1.1605,"fibre_pct":100.0,"vivrescore":100},{"code_insee":"46219","nom":"Peyrilles","codes_postaux":["46310"],"code_dep":"46","code_region":"76","population":347,"surface_km2":28.55,"lat":44.6204,"lon":1.3869,"fibre_pct":98.5,"vivrescore":100},{"code_insee":"46220","nom":"Pinsac","codes_postaux":["46200"],"code_dep":"46","code_region":"76","population":769,"surface_km2":19.98,"lat":44.859,"lon":1.5246,"fibre_pct":99.8,"vivrescore":100},{"code_insee":"46221","nom":"Planioles","codes_postaux":["46100"],"code_dep":"46","code_region":"76","population":554,"surface_km2":5.8,"lat":44.6402,"lon":2.0279,"fibre_pct":99.7,"vivrescore":100},{"code_insee":"46222","nom":"Pomarède","codes_postaux":["46250"],"code_dep":"46","code_region":"76","population":189,"surface_km2":7.08,"lat":44.5594,"lon":1.1779,"fibre_pct":100.0,"vivrescore":100},{"code_insee":"46223","nom":"Pontcirq","codes_postaux":["46150"],"code_dep":"46","code_region":"76","population":178,"surface_km2":8.87,"lat":44.5472,"lon":1.2634,"fibre_pct":95.0,"vivrescore":100},{"code_insee":"46224","nom":"Pradines","codes_postaux":["46090"],"code_dep":"46","code_region":"76","population":3617,"surface_km2":16.44,"lat":44.4647,"lon":1.3891,"fibre_pct":94.8,"vivrescore":80},{"code_insee":"46225","nom":"Prayssac","codes_postaux":["46220"],"code_dep":"46","code_region":"76","population":2519,"surface_km2":24.21,"lat":44.5087,"lon":1.1863,"fibre_pct":98.4,"vivrescore":100},{"code_insee":"46226","nom":"Prendeignes","codes_postaux":["46270"],"code_dep":"46","code_region":"76","population":236,"surface_km2":15.76,"lat":44.6937,"lon":2.0732,"fibre_pct":98.3,"vivrescore":100},{"code_insee":"46227","nom":"Promilhanes","codes_postaux":["46260"],"code_dep":"46","code_region":"76","population":227,"surface_km2":14.59,"lat":44.3739,"lon":1.834,"fibre_pct":98.4,"vivrescore":100},{"code_insee":"46228","nom":"Prudhomat","codes_postaux":["46130"],"code_dep":"46","code_region":"76","population":733,"surface_km2":12.35,"lat":44.8965,"lon":1.8081,"fibre_pct":99.6,"vivrescore":100},{"code_insee":"46229","nom":"Puybrun","codes_postaux":["46130"],"code_dep":"46","code_region":"76","population":984,"surface_km2":4.4,"lat":44.9232,"lon":1.7871,"fibre_pct":99.9,"vivrescore":100},{"code_insee":"46230","nom":"Puyjourdes","codes_postaux":["46260"],"code_dep":"46","code_region":"76","population":88,"surface_km2":7.87,"lat":44.4062,"lon":1.8522,"fibre_pct":100.0,"vivrescore":100},{"code_insee":"46231","nom":"Puy-l'Évêque","codes_postaux":["46700"],"code_dep":"46","code_region":"76","population":1860,"surface_km2":26.45,"lat":44.5137,"lon":1.1387,"fibre_pct":99.6,"vivrescore":100},{"code_insee":"46232","nom":"Le Vignon-en-Quercy","codes_postaux":["46110","46600"],"code_dep":"46","code_region":"76","population":955,"surface_km2":21.67,"lat":44.988,"lon":1.6083,"fibre_pct":95.0,"vivrescore":100},{"code_insee":"46233","nom":"Quissac-en-Quercy","codes_postaux":["46320"],"code_dep":"46","code_region":"76","population":107,"surface_km2":25.06,"lat":44.6239,"lon":1.7177,"fibre_pct":97.4,"vivrescore":100},{"code_insee":"46234","nom":"Rampoux","codes_postaux":["46340"],"code_dep":"46","code_region":"76","population":104,"surface_km2":5.77,"lat":44.6395,"lon":1.2962,"fibre_pct":100.0,"vivrescore":100},{"code_insee":"46235","nom":"Reilhac","codes_postaux":["46500"],"code_dep":"46","code_region":"76","population":175,"surface_km2":13.01,"lat":44.6999,"lon":1.723,"fibre_pct":99.2,"vivrescore":100},{"code_insee":"46236","nom":"Reilhaguet","codes_postaux":["46350"],"code_dep":"46","code_region":"76","population":156,"surface_km2":15.97,"lat":44.7823,"lon":1.51,"fibre_pct":100.0,"vivrescore":100},{"code_insee":"46237","nom":"Reyrevignes","codes_postaux":["46320"],"code_dep":"46","code_region":"76","population":371,"surface_km2":12.48,"lat":44.6468,"lon":1.9135,"fibre_pct":99.7,"vivrescore":100},{"code_insee":"46238","nom":"Rignac","codes_postaux":["46500"],"code_dep":"46","code_region":"76","population":294,"surface_km2":9.62,"lat":44.8067,"lon":1.6987,"fibre_pct":99.2,"vivrescore":100},{"code_insee":"46239","nom":"Le Roc","codes_postaux":["46200"],"code_dep":"46","code_region":"76","population":207,"surface_km2":7.01,"lat":44.865,"lon":1.4367,"fibre_pct":99.5,"vivrescore":100},{"code_insee":"46240","nom":"Rocamadour","codes_postaux":["46500"],"code_dep":"46","code_region":"76","population":597,"surface_km2":49.38,"lat":44.8197,"lon":1.6266,"fibre_pct":99.0,"vivrescore":100},{"code_insee":"46241","nom":"Rouffilhac","codes_postaux":["46300"],"code_dep":"46","code_region":"76","population":203,"surface_km2":6.5,"lat":44.7995,"lon":1.4066,"fibre_pct":98.8,"vivrescore":100},{"code_insee":"46242","nom":"Rudelle","codes_postaux":["46120"],"code_dep":"46","code_region":"76","population":187,"surface_km2":6.81,"lat":44.7299,"lon":1.8789,"fibre_pct":97.0,"vivrescore":100},{"code_insee":"46243","nom":"Rueyres","codes_postaux":["46120"],"code_dep":"46","code_region":"76","population":198,"surface_km2":9.35,"lat":44.754,"lon":1.8545,"fibre_pct":94.4,"vivrescore":80},{"code_insee":"46244","nom":"Sabadel-Latronquière","codes_postaux":["46210"],"code_dep":"46","code_region":"76","population":92,"surface_km2":12.33,"lat":44.7261,"lon":2.0658,"fibre_pct":91.8,"vivrescore":80},{"code_insee":"46245","nom":"Sabadel-Lauzès","codes_postaux":["46360"],"code_dep":"46","code_region":"76","population":91,"surface_km2":8.76,"lat":44.5581,"lon":1.6089,"fibre_pct":97.1,"vivrescore":100},{"code_insee":"46246","nom":"Saignes","codes_postaux":["46500"],"code_dep":"46","code_region":"76","population":74,"surface_km2":3.59,"lat":44.7905,"lon":1.82,"fibre_pct":96.3,"vivrescore":100},{"code_insee":"46247","nom":"Saillac","codes_postaux":["46260"],"code_dep":"46","code_region":"76","population":148,"surface_km2":16.28,"lat":44.3292,"lon":1.7435,"fibre_pct":100.0,"vivrescore":100},{"code_insee":"46249","nom":"Saint-Bressou","codes_postaux":["46120"],"code_dep":"46","code_region":"76","population":124,"surface_km2":10.07,"lat":44.6975,"lon":1.9761,"fibre_pct":90.9,"vivrescore":80},{"code_insee":"46250","nom":"Saint-Caprais","codes_postaux":["46250"],"code_dep":"46","code_region":"76","population":75,"surface_km2":9.08,"lat":44.6134,"lon":1.1542,"fibre_pct":97.7,"vivrescore":100},{"code_insee":"46251","nom":"Saint-Céré","codes_postaux":["46400"],"code_dep":"46","code_region":"76","population":3429,"surface_km2":11.36,"lat":44.8492,"lon":1.9027,"fibre_pct":98.9,"vivrescore":100},{"code_insee":"46252","nom":"Les Pechs du Vers","codes_postaux":["46360"],"code_dep":"46","code_region":"76","population":303,"surface_km2":26.18,"lat":44.5874,"lon":1.5661,"fibre_pct":97.1,"vivrescore":100},{"code_insee":"46253","nom":"Saint-Chamarand","codes_postaux":["46310"],"code_dep":"46","code_region":"76","population":192,"surface_km2":13.1,"lat":44.6836,"lon":1.4565,"fibre_pct":99.0,"vivrescore":100},{"code_insee":"46254","nom":"Saint-Chels","codes_postaux":["46160"],"code_dep":"46","code_region":"76","population":148,"surface_km2":18.08,"lat":44.53,"lon":1.8149,"fibre_pct":98.7,"vivrescore":100},{"code_insee":"46255","nom":"Saint-Cirgues","codes_postaux":["46210"],"code_dep":"46","code_region":"76","population":324,"surface_km2":32.53,"lat":44.7337,"lon":2.1111,"fibre_pct":92.7,"vivrescore":80},{"code_insee":"46256","nom":"Saint-Cirq-Lapopie","codes_postaux":["46330"],"code_dep":"46","code_region":"76","population":201,"surface_km2":18.08,"lat":44.4519,"lon":1.6528,"fibre_pct":96.1,"vivrescore":100},{"code_insee":"46257","nom":"Saint-Cirq-Madelon","codes_postaux":["46300"],"code_dep":"46","code_region":"76","population":153,"surface_km2":7.52,"lat":44.7884,"lon":1.3181,"fibre_pct":93.2,"vivrescore":80},{"code_insee":"46258","nom":"Saint-Cirq-Souillaguet","codes_postaux":["46300"],"code_dep":"46","code_region":"76","population":172,"surface_km2":8.51,"lat":44.7049,"lon":1.4461,"fibre_pct":98.4,"vivrescore":100},{"code_insee":"46259","nom":"Saint-Clair","codes_postaux":["46300"],"code_dep":"46","code_region":"76","population":143,"surface_km2":10.94,"lat":44.694,"lon":1.3998,"fibre_pct":100.0,"vivrescore":100},{"code_insee":"46260","nom":"Sainte-Colombe","codes_postaux":["46120"],"code_dep":"46","code_region":"76","population":236,"surface_km2":11.32,"lat":44.7221,"lon":2.0132,"fibre_pct":91.2,"vivrescore":80},{"code_insee":"46262","nom":"Lendou-en-Quercy","codes_postaux":["46800"],"code_dep":"46","code_region":"76","population":612,"surface_km2":42.75,"lat":44.3125,"lon":1.2684,"fibre_pct":94.4,"vivrescore":80},{"code_insee":"46263","nom":"Barguelonne-en-Quercy","codes_postaux":["46800"],"code_dep":"46","code_region":"76","population":704,"surface_km2":46.23,"lat":44.3708,"lon":1.256,"fibre_pct":94.4,"vivrescore":80},{"code_insee":"46264","nom":"Saint-Denis-Catus","codes_postaux":["46150"],"code_dep":"46","code_region":"76","population":198,"surface_km2":10.76,"lat":44.5685,"lon":1.3897,"fibre_pct":91.4,"vivrescore":80},{"code_insee":"46265","nom":"Saint-Denis-lès-Martel","codes_postaux":["46600"],"code_dep":"46","code_region":"76","population":333,"surface_km2":7.95,"lat":44.9429,"lon":1.6567,"fibre_pct":92.7,"vivrescore":80},{"code_insee":"46266","nom":"Saint-Félix","codes_postaux":["46100"],"code_dep":"46","code_region":"76","population":511,"surface_km2":7.81,"lat":44.6125,"lon":2.1114,"fibre_pct":99.2,"vivrescore":100},{"code_insee":"46267","nom":"Saint-Germain-du-Bel-Air","codes_postaux":["46310"],"code_dep":"46","code_region":"76","population":624,"surface_km2":21.41,"lat":44.6447,"lon":1.4342,"fibre_pct":98.6,"vivrescore":100},{"code_insee":"46268","nom":"Saint Géry-Vers","codes_postaux":["46090","46330"],"code_dep":"46","code_region":"76","population":910,"surface_km2":31.77,"lat":44.4915,"lon":1.5797,"fibre_pct":99.2,"vivrescore":100},{"code_insee":"46269","nom":"Saint-Hilaire","codes_postaux":["46210"],"code_dep":"46","code_region":"76","population":65,"surface_km2":8.04,"lat":44.7915,"lon":2.1423,"fibre_pct":99.5,"vivrescore":100},{"code_insee":"46270","nom":"Saint-Jean-de-Laur","codes_postaux":["46260"],"code_dep":"46","code_region":"76","population":251,"surface_km2":21.75,"lat":44.4346,"lon":1.8294,"fibre_pct":99.1,"vivrescore":100},{"code_insee":"46271","nom":"Saint-Jean-Lespinasse","codes_postaux":["46400"],"code_dep":"46","code_region":"76","population":404,"surface_km2":5.91,"lat":44.8621,"lon":1.8599,"fibre_pct":99.7,"vivrescore":100},{"code_insee":"46272","nom":"Saint-Jean-Mirabel","codes_postaux":["46270"],"code_dep":"46","code_region":"76","population":296,"surface_km2":9.23,"lat":44.6326,"lon":2.1098,"fibre_pct":92.5,"vivrescore":80},{"code_insee":"46273","nom":"Saint-Laurent-les-Tours","codes_postaux":["46400"],"code_dep":"46","code_region":"76","population":868,"surface_km2":10.9,"lat":44.8827,"lon":1.906,"fibre_pct":99.7,"vivrescore":100},{"code_insee":"46276","nom":"Saint-Martin-Labouval","codes_postaux":["46330"],"code_dep":"46","code_region":"76","population":202,"surface_km2":13.41,"lat":44.481,"lon":1.7294,"fibre_pct":100.0,"vivrescore":100},{"code_insee":"46277","nom":"Saint-Martin-le-Redon","codes_postaux":["46700"],"code_dep":"46","code_region":"76","population":195,"surface_km2":10.69,"lat":44.5372,"lon":1.0346,"fibre_pct":96.9,"vivrescore":100},{"code_insee":"46279","nom":"Saint-Maurice-en-Quercy","codes_postaux":["46120"],"code_dep":"46","code_region":"76","population":202,"surface_km2":13.03,"lat":44.7471,"lon":1.9563,"fibre_pct":93.0,"vivrescore":80},{"code_insee":"46280","nom":"Saint-Médard","codes_postaux":["46150"],"code_dep":"46","code_region":"76","population":198,"surface_km2":11.74,"lat":44.5383,"lon":1.2961,"fibre_pct":97.9,"vivrescore":100},{"code_insee":"46281","nom":"Saint-Médard-de-Presque","codes_postaux":["46400"],"code_dep":"46","code_region":"76","population":207,"surface_km2":5.2,"lat":44.8554,"lon":1.8392,"fibre_pct":99.4,"vivrescore":100},{"code_insee":"46282","nom":"Saint-Médard-Nicourby","codes_postaux":["46210"],"code_dep":"46","code_region":"76","population":99,"surface_km2":7.82,"lat":44.7646,"lon":2.009,"fibre_pct":86.8,"vivrescore":80},{"code_insee":"46283","nom":"Saint-Michel-de-Bannières","codes_postaux":["46110"],"code_dep":"46","code_region":"76","population":354,"surface_km2":7.74,"lat":44.9752,"lon":1.6826,"fibre_pct":99.6,"vivrescore":100},{"code_insee":"46284","nom":"Saint-Michel-Loubéjou","codes_postaux":["46130"],"code_dep":"46","code_region":"76","population":418,"surface_km2":5.31,"lat":44.8889,"lon":1.8509,"fibre_pct":98.9,"vivrescore":100},{"code_insee":"46286","nom":"Saint-Paul-de-Vern","codes_postaux":["46400"],"code_dep":"46","code_region":"76","population":171,"surface_km2":10.79,"lat":44.8331,"lon":1.9376,"fibre_pct":100.0,"vivrescore":100},{"code_insee":"46288","nom":"Saint-Perdoux","codes_postaux":["46100"],"code_dep":"46","code_region":"76","population":196,"surface_km2":12.58,"lat":44.6803,"lon":2.0547,"fibre_pct":91.2,"vivrescore":80},{"code_insee":"46289","nom":"Saint-Pierre-Toirac","codes_postaux":["46160"],"code_dep":"46","code_region":"76","population":165,"surface_km2":5.81,"lat":44.5361,"lon":1.9544,"fibre_pct":100.0,"vivrescore":100},{"code_insee":"46290","nom":"Saint-Projet","codes_postaux":["46300"],"code_dep":"46","code_region":"76","population":363,"surface_km2":15.84,"lat":44.7471,"lon":1.5117,"fibre_pct":99.1,"vivrescore":100},{"code_insee":"46292","nom":"Saint-Simon","codes_postaux":["46320"],"code_dep":"46","code_region":"76","population":195,"surface_km2":9.2,"lat":44.6997,"lon":1.8313,"fibre_pct":92.8,"vivrescore":80},{"code_insee":"46293","nom":"Saint-Sozy","codes_postaux":["46200"],"code_dep":"46","code_region":"76","population":490,"surface_km2":8.75,"lat":44.8809,"lon":1.5473,"fibre_pct":100.0,"vivrescore":100},{"code_insee":"46294","nom":"Saint-Sulpice","codes_postaux":["46160"],"code_dep":"46","code_region":"76","population":127,"surface_km2":13.04,"lat":44.5774,"lon":1.7942,"fibre_pct":97.5,"vivrescore":100},{"code_insee":"46295","nom":"Saint-Vincent-du-Pendit","codes_postaux":["46400"],"code_dep":"46","code_region":"76","population":230,"surface_km2":9.24,"lat":44.8331,"lon":1.909,"fibre_pct":100.0,"vivrescore":100},{"code_insee":"46296","nom":"Saint-Vincent-Rive-d'Olt","codes_postaux":["46140"],"code_dep":"46","code_region":"76","population":442,"surface_km2":19.88,"lat":44.4486,"lon":1.3139,"fibre_pct":99.2,"vivrescore":100},{"code_insee":"46297","nom":"Salviac","codes_postaux":["46340"],"code_dep":"46","code_region":"76","population":1231,"surface_km2":29.74,"lat":44.6875,"lon":1.2705,"fibre_pct":93.4,"vivrescore":80},{"code_insee":"46299","nom":"Sauliac-sur-Célé","codes_postaux":["46330"],"code_dep":"46","code_region":"76","population":114,"surface_km2":25.15,"lat":44.5211,"lon":1.7173,"fibre_pct":98.4,"vivrescore":100},{"code_insee":"46301","nom":"Sauzet","codes_postaux":["46140"],"code_dep":"46","code_region":"76","population":531,"surface_km2":10.98,"lat":44.4168,"lon":1.256,"fibre_pct":98.8,"vivrescore":100},{"code_insee":"46302","nom":"Sénaillac-Latronquière","codes_postaux":["46210"],"code_dep":"46","code_region":"76","population":127,"surface_km2":11.3,"lat":44.8372,"lon":2.0743,"fibre_pct":99.3,"vivrescore":100},{"code_insee":"46303","nom":"Sénaillac-Lauzès","codes_postaux":["46360"],"code_dep":"46","code_region":"76","population":145,"surface_km2":26.05,"lat":44.5883,"lon":1.646,"fibre_pct":97.9,"vivrescore":100},{"code_insee":"46304","nom":"Séniergues","codes_postaux":["46240"],"code_dep":"46","code_region":"76","population":146,"surface_km2":18.21,"lat":44.7172,"lon":1.5551,"fibre_pct":92.6,"vivrescore":80},{"code_insee":"46305","nom":"Sérignac","codes_postaux":["46700"],"code_dep":"46","code_region":"76","population":326,"surface_km2":18.68,"lat":44.4299,"lon":1.0874,"fibre_pct":99.6,"vivrescore":100},{"code_insee":"46306","nom":"Sonac","codes_postaux":["46320"],"code_dep":"46","code_region":"76","population":94,"surface_km2":7.33,"lat":44.6933,"lon":1.8525,"fibre_pct":95.1,"vivrescore":100},{"code_insee":"46307","nom":"Soturac","codes_postaux":["46700"],"code_dep":"46","code_region":"76","population":644,"surface_km2":19.78,"lat":44.5122,"lon":1.0169,"fibre_pct":98.2,"vivrescore":100},{"code_insee":"46308","nom":"Soucirac","codes_postaux":["46300"],"code_dep":"46","code_region":"76","population":102,"surface_km2":11.33,"lat":44.7073,"lon":1.503,"fibre_pct":100.0,"vivrescore":100},{"code_insee":"46309","nom":"Souillac","codes_postaux":["46200"],"code_dep":"46","code_region":"76","population":3192,"surface_km2":26.08,"lat":44.9144,"lon":1.465,"fibre_pct":99.4,"vivrescore":100},{"code_insee":"46310","nom":"Soulomès","codes_postaux":["46240"],"code_dep":"46","code_region":"76","population":131,"surface_km2":7.74,"lat":44.6278,"lon":1.5855,"fibre_pct":94.2,"vivrescore":80},{"code_insee":"46311","nom":"Sousceyrac-en-Quercy","codes_postaux":["46190"],"code_dep":"46","code_region":"76","population":1328,"surface_km2":140.81,"lat":44.9001,"lon":2.034,"fibre_pct":99.4,"vivrescore":100},{"code_insee":"46312","nom":"Strenquels","codes_postaux":["46110"],"code_dep":"46","code_region":"76","population":258,"surface_km2":9.09,"lat":44.9733,"lon":1.6377,"fibre_pct":95.3,"vivrescore":100},{"code_insee":"46313","nom":"Tauriac","codes_postaux":["46130"],"code_dep":"46","code_region":"76","population":473,"surface_km2":8.21,"lat":44.9102,"lon":1.7764,"fibre_pct":99.0,"vivrescore":100},{"code_insee":"46314","nom":"Terrou","codes_postaux":["46120"],"code_dep":"46","code_region":"76","population":171,"surface_km2":10.15,"lat":44.783,"lon":1.9763,"fibre_pct":92.4,"vivrescore":80},{"code_insee":"46315","nom":"Teyssieu","codes_postaux":["46190"],"code_dep":"46","code_region":"76","population":162,"surface_km2":13.71,"lat":44.9169,"lon":1.9594,"fibre_pct":100.0,"vivrescore":100},{"code_insee":"46316","nom":"Thédirac","codes_postaux":["46150"],"code_dep":"46","code_region":"76","population":303,"surface_km2":16.49,"lat":44.5969,"lon":1.3252,"fibre_pct":91.6,"vivrescore":80},{"code_insee":"46317","nom":"Thégra","codes_postaux":["46500"],"code_dep":"46","code_region":"76","population":497,"surface_km2":12.76,"lat":44.8235,"lon":1.7536,"fibre_pct":99.5,"vivrescore":100},{"code_insee":"46318","nom":"Thémines","codes_postaux":["46120"],"code_dep":"46","code_region":"76","population":240,"surface_km2":13.46,"lat":44.738,"lon":1.8175,"fibre_pct":95.5,"vivrescore":100},{"code_insee":"46319","nom":"Théminettes","codes_postaux":["46120"],"code_dep":"46","code_region":"76","population":181,"surface_km2":8.77,"lat":44.7191,"lon":1.8473,"fibre_pct":96.6,"vivrescore":100},{"code_insee":"46320","nom":"Tour-de-Faure","codes_postaux":["46330"],"code_dep":"46","code_region":"76","population":342,"surface_km2":8.82,"lat":44.4788,"lon":1.6785,"fibre_pct":98.6,"vivrescore":100},{"code_insee":"46321","nom":"Touzac","codes_postaux":["46700"],"code_dep":"46","code_region":"76","population":354,"surface_km2":4.1,"lat":44.496,"lon":1.0616,"fibre_pct":100.0,"vivrescore":100},{"code_insee":"46322","nom":"Trespoux-Rassiels","codes_postaux":["46090"],"code_dep":"46","code_region":"76","population":845,"surface_km2":20.58,"lat":44.4255,"lon":1.3573,"fibre_pct":94.4,"vivrescore":80},{"code_insee":"46323","nom":"Ussel","codes_postaux":["46240"],"code_dep":"46","code_region":"76","population":94,"surface_km2":6.8,"lat":44.5921,"lon":1.4961,"fibre_pct":93.2,"vivrescore":80},{"code_insee":"46324","nom":"Uzech","codes_postaux":["46310"],"code_dep":"46","code_region":"76","population":196,"surface_km2":12.23,"lat":44.592,"lon":1.3843,"fibre_pct":97.3,"vivrescore":100},{"code_insee":"46328","nom":"Varaire","codes_postaux":["46260"],"code_dep":"46","code_region":"76","population":359,"surface_km2":25.43,"lat":44.3723,"lon":1.7246,"fibre_pct":92.2,"vivrescore":80},{"code_insee":"46329","nom":"Vaylats","codes_postaux":["46230"],"code_dep":"46","code_region":"76","population":327,"surface_km2":26.39,"lat":44.3209,"lon":1.6517,"fibre_pct":96.0,"vivrescore":100},{"code_insee":"46330","nom":"Vayrac","codes_postaux":["46110"],"code_dep":"46","code_region":"76","population":1266,"surface_km2":16.19,"lat":44.9435,"lon":1.6944,"fibre_pct":97.3,"vivrescore":100},{"code_insee":"46332","nom":"Viazac","codes_postaux":["46100"],"code_dep":"46","code_region":"76","population":344,"surface_km2":17.64,"lat":44.6528,"lon":2.0695,"fibre_pct":99.2,"vivrescore":100},{"code_insee":"46333","nom":"Vidaillac","codes_postaux":["46260"],"code_dep":"46","code_region":"76","population":181,"surface_km2":9.58,"lat":44.3494,"lon":1.8171,"fibre_pct":100.0,"vivrescore":100},{"code_insee":"46334","nom":"Le Vigan-en-Quercy","codes_postaux":["46300"],"code_dep":"46","code_region":"76","population":1535,"surface_km2":34.27,"lat":44.7403,"lon":1.4534,"fibre_pct":99.2,"vivrescore":100},{"code_insee":"46335","nom":"Villesèque","codes_postaux":["46090"],"code_dep":"46","code_region":"76","population":409,"surface_km2":23.43,"lat":44.3979,"lon":1.3164,"fibre_pct":99.1,"vivrescore":100},{"code_insee":"46336","nom":"Vire-sur-Lot","codes_postaux":["46700"],"code_dep":"46","code_region":"76","population":348,"surface_km2":7.77,"lat":44.4902,"lon":1.0948,"fibre_pct":99.4,"vivrescore":100},{"code_insee":"46337","nom":"Mayrac","codes_postaux":["46200"],"code_dep":"46","code_region":"76","population":254,"surface_km2":7.81,"lat":44.9002,"lon":1.5464,"fibre_pct":99.5,"vivrescore":100},{"code_insee":"46338","nom":"Bessonies","codes_postaux":["46210"],"code_dep":"46","code_region":"76","population":72,"surface_km2":7.43,"lat":44.8073,"lon":2.1428,"fibre_pct":100.0,"vivrescore":100},{"code_insee":"46339","nom":"Saint-Jean-Lagineste","codes_postaux":["46400"],"code_dep":"46","code_region":"76","population":378,"surface_km2":12.77,"lat":44.8247,"lon":1.8496,"fibre_pct":98.4,"vivrescore":100},{"code_insee":"46340","nom":"Saint-Pierre-Lafeuille","codes_postaux":["46090"],"code_dep":"46","code_region":"76","population":419,"surface_km2":8.49,"lat":44.5194,"lon":1.455,"fibre_pct":100.0,"vivrescore":100}]