[{"code_insee":"64001","nom":"Aast","codes_postaux":["64460"],"code_dep":"64","code_region":"75","population":202,"surface_km2":4.78,"lat":43.2922,"lon":-0.0829,"fibre_pct":97.4},{"code_insee":"64002","nom":"Abère","codes_postaux":["64160"],"code_dep":"64","code_region":"75","population":156,"surface_km2":5.87,"lat":43.3886,"lon":-0.174,"fibre_pct":97.6},{"code_insee":"64003","nom":"Abidos","codes_postaux":["64150"],"code_dep":"64","code_region":"75","population":222,"surface_km2":3.17,"lat":43.3937,"lon":-0.6271,"fibre_pct":100.0},{"code_insee":"64004","nom":"Abitain","codes_postaux":["64390"],"code_dep":"64","code_region":"75","population":120,"surface_km2":6.65,"lat":43.4175,"lon":-0.9984,"fibre_pct":100.0},{"code_insee":"64005","nom":"Abos","codes_postaux":["64360"],"code_dep":"64","code_region":"75","population":526,"surface_km2":8.47,"lat":43.3548,"lon":-0.5493,"fibre_pct":88.6},{"code_insee":"64006","nom":"Accous","codes_postaux":["64490"],"code_dep":"64","code_region":"75","population":471,"surface_km2":60.59,"lat":42.9216,"lon":-0.5993,"fibre_pct":80.3},{"code_insee":"64007","nom":"Agnos","codes_postaux":["64400"],"code_dep":"64","code_region":"75","population":1044,"surface_km2":9.16,"lat":43.1556,"lon":-0.6359,"fibre_pct":98.5},{"code_insee":"64008","nom":"Ahaxe-Alciette-Bascassan","codes_postaux":["64220"],"code_dep":"64","code_region":"75","population":261,"surface_km2":14.55,"lat":43.141,"lon":-1.1571,"fibre_pct":100.0},{"code_insee":"64009","nom":"Ahetze","codes_postaux":["64210"],"code_dep":"64","code_region":"75","population":2104,"surface_km2":10.58,"lat":43.4059,"lon":-1.5658,"fibre_pct":99.1},{"code_insee":"64010","nom":"Aïcirits-Camou-Suhast","codes_postaux":["64120"],"code_dep":"64","code_region":"75","population":699,"surface_km2":9.48,"lat":43.3545,"lon":-1.0141,"fibre_pct":95.5},{"code_insee":"64011","nom":"Aincille","codes_postaux":["64220"],"code_dep":"64","code_region":"75","population":117,"surface_km2":6.25,"lat":43.1352,"lon":-1.1965,"fibre_pct":95.7},{"code_insee":"64012","nom":"Ainharp","codes_postaux":["64130"],"code_dep":"64","code_region":"75","population":131,"surface_km2":14.31,"lat":43.2551,"lon":-0.9399,"fibre_pct":100.0},{"code_insee":"64013","nom":"Ainhice-Mongelos","codes_postaux":["64220"],"code_dep":"64","code_region":"75","population":168,"surface_km2":10.18,"lat":43.2136,"lon":-1.1579,"fibre_pct":89.9},{"code_insee":"64014","nom":"Ainhoa","codes_postaux":["64250"],"code_dep":"64","code_region":"75","population":672,"surface_km2":16.23,"lat":43.2968,"lon":-1.4828,"fibre_pct":96.8},{"code_insee":"64015","nom":"Alçay-Alçabéhéty-Sunharette","codes_postaux":["64470"],"code_dep":"64","code_region":"75","population":206,"surface_km2":34.62,"lat":43.0834,"lon":-0.9654,"fibre_pct":98.2},{"code_insee":"64016","nom":"Aldudes","codes_postaux":["64430"],"code_dep":"64","code_region":"75","population":332,"surface_km2":23.2,"lat":43.0924,"lon":-1.4331,"fibre_pct":98.8},{"code_insee":"64017","nom":"Alos-Sibas-Abense","codes_postaux":["64470"],"code_dep":"64","code_region":"75","population":291,"surface_km2":5.86,"lat":43.1149,"lon":-0.8772,"fibre_pct":100.0},{"code_insee":"64018","nom":"Amendeuix-Oneix","codes_postaux":["64120"],"code_dep":"64","code_region":"75","population":472,"surface_km2":7.6,"lat":43.3439,"lon":-1.0445,"fibre_pct":97.8},{"code_insee":"64019","nom":"Amorots-Succos","codes_postaux":["64120"],"code_dep":"64","code_region":"75","population":219,"surface_km2":15.2,"lat":43.3626,"lon":-1.1273,"fibre_pct":99.2},{"code_insee":"64021","nom":"Andoins","codes_postaux":["64420"],"code_dep":"64","code_region":"75","population":727,"surface_km2":12.31,"lat":43.3008,"lon":-0.2258,"fibre_pct":99.5},{"code_insee":"64022","nom":"Andrein","codes_postaux":["64390"],"code_dep":"64","code_region":"75","population":136,"surface_km2":7.8,"lat":43.4018,"lon":-0.8898,"fibre_pct":98.8},{"code_insee":"64023","nom":"Angaïs","codes_postaux":["64510"],"code_dep":"64","code_region":"75","population":885,"surface_km2":5.98,"lat":43.2399,"lon":-0.2465,"fibre_pct":97.7},{"code_insee":"64024","nom":"Anglet","codes_postaux":["64600"],"code_dep":"64","code_region":"75","population":43271,"surface_km2":27.0,"lat":43.4893,"lon":-1.5193,"fibre_pct":96.4},{"code_insee":"64025","nom":"Angous","codes_postaux":["64190"],"code_dep":"64","code_region":"75","population":96,"surface_km2":6.26,"lat":43.2912,"lon":-0.8124,"fibre_pct":100.0},{"code_insee":"64026","nom":"Anhaux","codes_postaux":["64220"],"code_dep":"64","code_region":"75","population":389,"surface_km2":12.36,"lat":43.1442,"lon":-1.3021,"fibre_pct":100.0},{"code_insee":"64027","nom":"Anos","codes_postaux":["64160"],"code_dep":"64","code_region":"75","population":174,"surface_km2":1.78,"lat":43.3992,"lon":-0.2898,"fibre_pct":100.0},{"code_insee":"64028","nom":"Anoye","codes_postaux":["64350"],"code_dep":"64","code_region":"75","population":140,"surface_km2":9.79,"lat":43.3977,"lon":-0.1375,"fibre_pct":98.0},{"code_insee":"64029","nom":"Aramits","codes_postaux":["64570"],"code_dep":"64","code_region":"75","population":659,"surface_km2":29.73,"lat":43.1343,"lon":-0.72,"fibre_pct":100.0},{"code_insee":"64031","nom":"Arancou","codes_postaux":["64270"],"code_dep":"64","code_region":"75","population":187,"surface_km2":5.2,"lat":43.4437,"lon":-1.0544,"fibre_pct":90.8},{"code_insee":"64032","nom":"Araujuzon","codes_postaux":["64190"],"code_dep":"64","code_region":"75","population":189,"surface_km2":6.96,"lat":43.3462,"lon":-0.8274,"fibre_pct":100.0},{"code_insee":"64033","nom":"Araux","codes_postaux":["64190"],"code_dep":"64","code_region":"75","population":136,"surface_km2":5.43,"lat":43.3394,"lon":-0.8203,"fibre_pct":100.0},{"code_insee":"64034","nom":"Arbérats-Sillègue","codes_postaux":["64120"],"code_dep":"64","code_region":"75","population":329,"surface_km2":5.3,"lat":43.34,"lon":-0.9912,"fibre_pct":97.5},{"code_insee":"64035","nom":"Arbonne","codes_postaux":["64210"],"code_dep":"64","code_region":"75","population":2447,"surface_km2":10.72,"lat":43.4201,"lon":-1.5536,"fibre_pct":99.9},{"code_insee":"64036","nom":"Arbouet-Sussaute","codes_postaux":["64120"],"code_dep":"64","code_region":"75","population":313,"surface_km2":14.59,"lat":43.3783,"lon":-0.9874,"fibre_pct":99.5},{"code_insee":"64037","nom":"Arbus","codes_postaux":["64230"],"code_dep":"64","code_region":"75","population":1226,"surface_km2":13.82,"lat":43.3253,"lon":-0.5094,"fibre_pct":100.0},{"code_insee":"64038","nom":"Arcangues","codes_postaux":["64200"],"code_dep":"64","code_region":"75","population":3657,"surface_km2":17.64,"lat":43.4261,"lon":-1.5079,"fibre_pct":99.4},{"code_insee":"64039","nom":"Aren","codes_postaux":["64400"],"code_dep":"64","code_region":"75","population":246,"surface_km2":7.4,"lat":43.2471,"lon":-0.7233,"fibre_pct":100.0},{"code_insee":"64040","nom":"Arette","codes_postaux":["64570"],"code_dep":"64","code_region":"75","population":1032,"surface_km2":92.16,"lat":43.0304,"lon":-0.7371,"fibre_pct":48.7},{"code_insee":"64041","nom":"Aressy","codes_postaux":["64320"],"code_dep":"64","code_region":"75","population":881,"surface_km2":2.21,"lat":43.2777,"lon":-0.3272,"fibre_pct":100.0},{"code_insee":"64042","nom":"Argagnon","codes_postaux":["64300"],"code_dep":"64","code_region":"75","population":690,"surface_km2":9.33,"lat":43.4624,"lon":-0.6741,"fibre_pct":97.6},{"code_insee":"64043","nom":"Argelos","codes_postaux":["64450"],"code_dep":"64","code_region":"75","population":263,"surface_km2":6.02,"lat":43.4489,"lon":-0.3466,"fibre_pct":100.0},{"code_insee":"64044","nom":"Arget","codes_postaux":["64410"],"code_dep":"64","code_region":"75","population":76,"surface_km2":4.01,"lat":43.5455,"lon":-0.5336,"fibre_pct":100.0},{"code_insee":"64045","nom":"Arhansus","codes_postaux":["64120"],"code_dep":"64","code_region":"75","population":66,"surface_km2":5.33,"lat":43.2569,"lon":-1.0236,"fibre_pct":100.0},{"code_insee":"64046","nom":"Armendarits","codes_postaux":["64640"],"code_dep":"64","code_region":"75","population":398,"surface_km2":17.44,"lat":43.2963,"lon":-1.1651,"fibre_pct":92.4},{"code_insee":"64047","nom":"Arnéguy","codes_postaux":["64220"],"code_dep":"64","code_region":"75","population":237,"surface_km2":21.16,"lat":43.0821,"lon":-1.2787,"fibre_pct":95.1},{"code_insee":"64048","nom":"Arnos","codes_postaux":["64370"],"code_dep":"64","code_region":"75","population":131,"surface_km2":5.73,"lat":43.4584,"lon":-0.5328,"fibre_pct":93.1},{"code_insee":"64049","nom":"Aroue-Ithorots-Olhaïby","codes_postaux":["64120"],"code_dep":"64","code_region":"75","population":240,"surface_km2":17.91,"lat":43.3125,"lon":-0.929,"fibre_pct":99.4},{"code_insee":"64050","nom":"Arrast-Larrebieu","codes_postaux":["64130"],"code_dep":"64","code_region":"75","population":96,"surface_km2":7.63,"lat":43.2824,"lon":-0.8476,"fibre_pct":100.0},{"code_insee":"64051","nom":"Arraute-Charritte","codes_postaux":["64120"],"code_dep":"64","code_region":"75","population":440,"surface_km2":22.84,"lat":43.4155,"lon":-1.1168,"fibre_pct":98.6},{"code_insee":"64052","nom":"Arricau-Bordes","codes_postaux":["64350"],"code_dep":"64","code_region":"75","population":105,"surface_km2":8.16,"lat":43.5015,"lon":-0.1441,"fibre_pct":100.0},{"code_insee":"64053","nom":"Arrien","codes_postaux":["64420"],"code_dep":"64","code_region":"75","population":197,"surface_km2":4.49,"lat":43.3122,"lon":-0.1641,"fibre_pct":97.0},{"code_insee":"64054","nom":"Arros-de-Nay","codes_postaux":["64800"],"code_dep":"64","code_region":"75","population":820,"surface_km2":13.56,"lat":43.1815,"lon":-0.2965,"fibre_pct":97.0},{"code_insee":"64056","nom":"Arrosès","codes_postaux":["64350"],"code_dep":"64","code_region":"75","population":136,"surface_km2":9.66,"lat":43.545,"lon":-0.1138,"fibre_pct":97.6},{"code_insee":"64057","nom":"Arthez-de-Béarn","codes_postaux":["64370"],"code_dep":"64","code_region":"75","population":1837,"surface_km2":27.92,"lat":43.4693,"lon":-0.6242,"fibre_pct":100.0},{"code_insee":"64058","nom":"Arthez-d'Asson","codes_postaux":["64800"],"code_dep":"64","code_region":"75","population":457,"surface_km2":7.47,"lat":43.0808,"lon":-0.2532,"fibre_pct":100.0},{"code_insee":"64059","nom":"Artigueloutan","codes_postaux":["64420"],"code_dep":"64","code_region":"75","population":1105,"surface_km2":8.1,"lat":43.2699,"lon":-0.2454,"fibre_pct":97.1},{"code_insee":"64060","nom":"Artiguelouve","codes_postaux":["64230"],"code_dep":"64","code_region":"75","population":2045,"surface_km2":10.71,"lat":43.3125,"lon":-0.4702,"fibre_pct":99.6},{"code_insee":"64061","nom":"Artix","codes_postaux":["64170"],"code_dep":"64","code_region":"75","population":3477,"surface_km2":9.08,"lat":43.3984,"lon":-0.5728,"fibre_pct":98.7},{"code_insee":"64062","nom":"Arudy","codes_postaux":["64260"],"code_dep":"64","code_region":"75","population":2228,"surface_km2":28.3,"lat":43.0987,"lon":-0.4695,"fibre_pct":85.3},{"code_insee":"64063","nom":"Arzacq-Arraziguet","codes_postaux":["64410"],"code_dep":"64","code_region":"75","population":1077,"surface_km2":15.32,"lat":43.5425,"lon":-0.43,"fibre_pct":93.1},{"code_insee":"64064","nom":"Asasp-Arros","codes_postaux":["64660"],"code_dep":"64","code_region":"75","population":516,"surface_km2":23.9,"lat":43.1102,"lon":-0.6326,"fibre_pct":100.0},{"code_insee":"64065","nom":"Ascain","codes_postaux":["64310"],"code_dep":"64","code_region":"75","population":4658,"surface_km2":19.36,"lat":43.3383,"lon":-1.6284,"fibre_pct":95.4},{"code_insee":"64066","nom":"Ascarat","codes_postaux":["64220"],"code_dep":"64","code_region":"75","population":348,"surface_km2":5.86,"lat":43.1826,"lon":-1.2621,"fibre_pct":100.0},{"code_insee":"64067","nom":"Assat","codes_postaux":["64510"],"code_dep":"64","code_region":"75","population":2068,"surface_km2":9.47,"lat":43.2576,"lon":-0.2878,"fibre_pct":98.7},{"code_insee":"64068","nom":"Asson","codes_postaux":["64800"],"code_dep":"64","code_region":"75","population":1982,"surface_km2":83.51,"lat":43.1035,"lon":-0.2432,"fibre_pct":99.4},{"code_insee":"64069","nom":"Aste-Béon","codes_postaux":["64260"],"code_dep":"64","code_region":"75","population":231,"surface_km2":18.73,"lat":43.0308,"lon":-0.3976,"fibre_pct":99.2},{"code_insee":"64070","nom":"Astis","codes_postaux":["64450"],"code_dep":"64","code_region":"75","population":353,"surface_km2":3.16,"lat":43.4384,"lon":-0.321,"fibre_pct":100.0},{"code_insee":"64071","nom":"Athos-Aspis","codes_postaux":["64390"],"code_dep":"64","code_region":"75","population":213,"surface_km2":5.93,"lat":43.4122,"lon":-0.9629,"fibre_pct":100.0},{"code_insee":"64072","nom":"Aubertin","codes_postaux":["64290"],"code_dep":"64","code_region":"75","population":671,"surface_km2":17.3,"lat":43.2724,"lon":-0.4816,"fibre_pct":86.6},{"code_insee":"64073","nom":"Aubin","codes_postaux":["64230"],"code_dep":"64","code_region":"75","population":265,"surface_km2":5.83,"lat":43.4363,"lon":-0.4223,"fibre_pct":100.0},{"code_insee":"64074","nom":"Aubous","codes_postaux":["64330"],"code_dep":"64","code_region":"75","population":45,"surface_km2":3.78,"lat":43.5752,"lon":-0.1398,"fibre_pct":100.0},{"code_insee":"64075","nom":"Audaux","codes_postaux":["64190"],"code_dep":"64","code_region":"75","population":171,"surface_km2":7.35,"lat":43.376,"lon":-0.7755,"fibre_pct":96.9},{"code_insee":"64077","nom":"Auga","codes_postaux":["64450"],"code_dep":"64","code_region":"75","population":189,"surface_km2":4.08,"lat":43.4795,"lon":-0.3787,"fibre_pct":100.0},{"code_insee":"64078","nom":"Auriac","codes_postaux":["64450"],"code_dep":"64","code_region":"75","population":247,"surface_km2":5.24,"lat":43.4531,"lon":-0.3224,"fibre_pct":94.3},{"code_insee":"64079","nom":"Aurions-Idernes","codes_postaux":["64350"],"code_dep":"64","code_region":"75","population":112,"surface_km2":6.43,"lat":43.5316,"lon":-0.1263,"fibre_pct":100.0},{"code_insee":"64080","nom":"Aussevielle","codes_postaux":["64230"],"code_dep":"64","code_region":"75","population":864,"surface_km2":3.32,"lat":43.3598,"lon":-0.4789,"fibre_pct":100.0},{"code_insee":"64081","nom":"Aussurucq","codes_postaux":["64130"],"code_dep":"64","code_region":"75","population":230,"surface_km2":47.05,"lat":43.1323,"lon":-0.9813,"fibre_pct":97.3},{"code_insee":"64082","nom":"Auterrive","codes_postaux":["64270"],"code_dep":"64","code_region":"75","population":143,"surface_km2":3.09,"lat":43.4661,"lon":-1.0083,"fibre_pct":99.1},{"code_insee":"64083","nom":"Autevielle-Saint-Martin-Bideren","codes_postaux":["64390"],"code_dep":"64","code_region":"75","population":219,"surface_km2":5.94,"lat":43.3932,"lon":-0.979,"fibre_pct":96.5},{"code_insee":"64084","nom":"Aydie","codes_postaux":["64330"],"code_dep":"64","code_region":"75","population":130,"surface_km2":7.89,"lat":43.5712,"lon":-0.117,"fibre_pct":100.0},{"code_insee":"64085","nom":"Aydius","codes_postaux":["64490"],"code_dep":"64","code_region":"75","population":102,"surface_km2":34.89,"lat":43.0012,"lon":-0.5202,"fibre_pct":89.7},{"code_insee":"64086","nom":"Ayherre","codes_postaux":["64240"],"code_dep":"64","code_region":"75","population":1128,"surface_km2":27.87,"lat":43.3716,"lon":-1.2369,"fibre_pct":98.0},{"code_insee":"64087","nom":"Baigts-de-Béarn","codes_postaux":["64300"],"code_dep":"64","code_region":"75","population":855,"surface_km2":13.47,"lat":43.5235,"lon":-0.8465,"fibre_pct":100.0},{"code_insee":"64088","nom":"Balansun","codes_postaux":["64300"],"code_dep":"64","code_region":"75","population":316,"surface_km2":10.79,"lat":43.4896,"lon":-0.6934,"fibre_pct":100.0},{"code_insee":"64089","nom":"Baleix","codes_postaux":["64460"],"code_dep":"64","code_region":"75","population":126,"surface_km2":6.54,"lat":43.3784,"lon":-0.1388,"fibre_pct":51.1},{"code_insee":"64090","nom":"Baliracq-Maumusson","codes_postaux":["64330"],"code_dep":"64","code_region":"75","population":120,"surface_km2":6.04,"lat":43.5422,"lon":-0.2499,"fibre_pct":100.0},{"code_insee":"64091","nom":"Baliros","codes_postaux":["64510"],"code_dep":"64","code_region":"75","population":515,"surface_km2":3.73,"lat":43.2303,"lon":-0.3088,"fibre_pct":98.8},{"code_insee":"64092","nom":"Banca","codes_postaux":["64430"],"code_dep":"64","code_region":"75","population":358,"surface_km2":49.61,"lat":43.0919,"lon":-1.3794,"fibre_pct":98.8},{"code_insee":"64093","nom":"Barcus","codes_postaux":["64130"],"code_dep":"64","code_region":"75","population":654,"surface_km2":47.66,"lat":43.1835,"lon":-0.7976,"fibre_pct":95.0},{"code_insee":"64094","nom":"Bardos","codes_postaux":["64520"],"code_dep":"64","code_region":"75","population":1905,"surface_km2":42.82,"lat":43.4738,"lon":-1.22,"fibre_pct":96.6},{"code_insee":"64095","nom":"Barinque","codes_postaux":["64160"],"code_dep":"64","code_region":"75","population":580,"surface_km2":9.08,"lat":43.4035,"lon":-0.2678,"fibre_pct":99.7},{"code_insee":"64096","nom":"Barraute-Camu","codes_postaux":["64390"],"code_dep":"64","code_region":"75","population":187,"surface_km2":3.91,"lat":43.383,"lon":-0.8982,"fibre_pct":100.0},{"code_insee":"64097","nom":"Barzun","codes_postaux":["64530"],"code_dep":"64","code_region":"75","population":626,"surface_km2":8.21,"lat":43.2165,"lon":-0.1335,"fibre_pct":96.9},{"code_insee":"64098","nom":"Bassillon-Vauzé","codes_postaux":["64350"],"code_dep":"64","code_region":"75","population":64,"surface_km2":4.95,"lat":43.454,"lon":-0.0773,"fibre_pct":100.0},{"code_insee":"64099","nom":"Bastanès","codes_postaux":["64190"],"code_dep":"64","code_region":"75","population":96,"surface_km2":5.28,"lat":43.3532,"lon":-0.7533,"fibre_pct":100.0},{"code_insee":"64100","nom":"Bassussarry","codes_postaux":["64200"],"code_dep":"64","code_region":"75","population":3414,"surface_km2":6.6,"lat":43.4445,"lon":-1.4974,"fibre_pct":99.7},{"code_insee":"64101","nom":"Baudreix","codes_postaux":["64800"],"code_dep":"64","code_region":"75","population":591,"surface_km2":2.01,"lat":43.2057,"lon":-0.2587,"fibre_pct":100.0},{"code_insee":"64102","nom":"Bayonne","codes_postaux":["64100"],"code_dep":"64","code_region":"75","population":54306,"surface_km2":25.79,"lat":43.4844,"lon":-1.4611,"fibre_pct":95.2},{"code_insee":"64103","nom":"Bédeille","codes_postaux":["64460"],"code_dep":"64","code_region":"75","population":202,"surface_km2":3.93,"lat":43.3461,"lon":-0.0979,"fibre_pct":94.2},{"code_insee":"64104","nom":"Bedous","codes_postaux":["64490"],"code_dep":"64","code_region":"75","population":568,"surface_km2":11.68,"lat":43.0068,"lon":-0.5901,"fibre_pct":92.0},{"code_insee":"64105","nom":"Béguios","codes_postaux":["64120"],"code_dep":"64","code_region":"75","population":259,"surface_km2":11.25,"lat":43.3531,"lon":-1.1011,"fibre_pct":100.0},{"code_insee":"64106","nom":"Béhasque-Lapiste","codes_postaux":["64120"],"code_dep":"64","code_region":"75","population":505,"surface_km2":5.66,"lat":43.3188,"lon":-1.0085,"fibre_pct":92.8},{"code_insee":"64107","nom":"Béhorléguy","codes_postaux":["64220"],"code_dep":"64","code_region":"75","population":66,"surface_km2":20.53,"lat":43.1191,"lon":-1.0824,"fibre_pct":84.0},{"code_insee":"64108","nom":"Bellocq","codes_postaux":["64270"],"code_dep":"64","code_region":"75","population":933,"surface_km2":12.73,"lat":43.5136,"lon":-0.9181,"fibre_pct":100.0},{"code_insee":"64109","nom":"Bénéjacq","codes_postaux":["64800"],"code_dep":"64","code_region":"75","population":2013,"surface_km2":17.1,"lat":43.1977,"lon":-0.1949,"fibre_pct":96.8},{"code_insee":"64110","nom":"Béost","codes_postaux":["64440"],"code_dep":"64","code_region":"75","population":231,"surface_km2":43.6,"lat":42.9714,"lon":-0.3504,"fibre_pct":89.4},{"code_insee":"64111","nom":"Bentayou-Sérée","codes_postaux":["64460"],"code_dep":"64","code_region":"75","population":107,"surface_km2":8.32,"lat":43.3951,"lon":-0.0655,"fibre_pct":98.6},{"code_insee":"64112","nom":"Bérenx","codes_postaux":["64300"],"code_dep":"64","code_region":"75","population":428,"surface_km2":13.64,"lat":43.4921,"lon":-0.8686,"fibre_pct":89.4},{"code_insee":"64113","nom":"Bergouey-Viellenave","codes_postaux":["64270"],"code_dep":"64","code_region":"75","population":123,"surface_km2":11.32,"lat":43.4257,"lon":-1.063,"fibre_pct":100.0},{"code_insee":"64114","nom":"Bernadets","codes_postaux":["64160"],"code_dep":"64","code_region":"75","population":587,"surface_km2":3.72,"lat":43.3767,"lon":-0.2834,"fibre_pct":100.0},{"code_insee":"64115","nom":"Berrogain-Laruns","codes_postaux":["64130"],"code_dep":"64","code_region":"75","population":160,"surface_km2":2.76,"lat":43.2509,"lon":-0.861,"fibre_pct":95.2},{"code_insee":"64116","nom":"Bescat","codes_postaux":["64260"],"code_dep":"64","code_region":"75","population":255,"surface_km2":6.89,"lat":43.1315,"lon":-0.4226,"fibre_pct":100.0},{"code_insee":"64117","nom":"Bésingrand","codes_postaux":["64150"],"code_dep":"64","code_region":"75","population":146,"surface_km2":2.35,"lat":43.3749,"lon":-0.5687,"fibre_pct":100.0},{"code_insee":"64118","nom":"Bétracq","codes_postaux":["64350"],"code_dep":"64","code_region":"75","population":49,"surface_km2":4.67,"lat":43.5207,"lon":-0.0536,"fibre_pct":90.2},{"code_insee":"64119","nom":"Beuste","codes_postaux":["64800"],"code_dep":"64","code_region":"75","population":698,"surface_km2":5.82,"lat":43.223,"lon":-0.2303,"fibre_pct":99.3},{"code_insee":"64120","nom":"Beyrie-sur-Joyeuse","codes_postaux":["64120"],"code_dep":"64","code_region":"75","population":561,"surface_km2":24.76,"lat":43.3059,"lon":-1.0921,"fibre_pct":100.0},{"code_insee":"64121","nom":"Beyrie-en-Béarn","codes_postaux":["64230"],"code_dep":"64","code_region":"75","population":197,"surface_km2":2.77,"lat":43.3726,"lon":-0.4639,"fibre_pct":100.0},{"code_insee":"64122","nom":"Biarritz","codes_postaux":["64200"],"code_dep":"64","code_region":"75","population":26206,"surface_km2":11.7,"lat":43.4709,"lon":-1.5557,"fibre_pct":92.4},{"code_insee":"64123","nom":"Bidache","codes_postaux":["64520"],"code_dep":"64","code_region":"75","population":1338,"surface_km2":30.38,"lat":43.4676,"lon":-1.1359,"fibre_pct":97.7},{"code_insee":"64124","nom":"Bidarray","codes_postaux":["64780"],"code_dep":"64","code_region":"75","population":693,"surface_km2":39.15,"lat":43.2682,"lon":-1.353,"fibre_pct":99.4},{"code_insee":"64125","nom":"Bidart","codes_postaux":["64210"],"code_dep":"64","code_region":"75","population":7689,"surface_km2":12.16,"lat":43.4385,"lon":-1.5753,"fibre_pct":92.4},{"code_insee":"64126","nom":"Bidos","codes_postaux":["64400"],"code_dep":"64","code_region":"75","population":1102,"surface_km2":1.38,"lat":43.1759,"lon":-0.6054,"fibre_pct":97.4},{"code_insee":"64127","nom":"Bielle","codes_postaux":["64260"],"code_dep":"64","code_region":"75","population":371,"surface_km2":25.49,"lat":43.0465,"lon":-0.4613,"fibre_pct":82.3},{"code_insee":"64128","nom":"Bilhères","codes_postaux":["64260"],"code_dep":"64","code_region":"75","population":154,"surface_km2":17.25,"lat":43.0656,"lon":-0.4789,"fibre_pct":91.2},{"code_insee":"64129","nom":"Billère","codes_postaux":["64140"],"code_dep":"64","code_region":"75","population":14384,"surface_km2":4.46,"lat":43.3064,"lon":-0.3952,"fibre_pct":99.2},{"code_insee":"64130","nom":"Biriatou","codes_postaux":["64700"],"code_dep":"64","code_region":"75","population":1297,"surface_km2":11.16,"lat":43.3227,"lon":-1.7322,"fibre_pct":96.6},{"code_insee":"64131","nom":"Biron","codes_postaux":["64300"],"code_dep":"64","code_region":"75","population":595,"surface_km2":4.03,"lat":43.4624,"lon":-0.7414,"fibre_pct":100.0},{"code_insee":"64132","nom":"Bizanos","codes_postaux":["64320"],"code_dep":"64","code_region":"75","population":4592,"surface_km2":4.42,"lat":43.2951,"lon":-0.3363,"fibre_pct":98.1},{"code_insee":"64133","nom":"Boeil-Bezing","codes_postaux":["64510"],"code_dep":"64","code_region":"75","population":1341,"surface_km2":8.52,"lat":43.2274,"lon":-0.2437,"fibre_pct":99.0},{"code_insee":"64134","nom":"Bonloc","codes_postaux":["64240"],"code_dep":"64","code_region":"75","population":376,"surface_km2":1.0,"lat":43.368,"lon":-1.2676,"fibre_pct":100.0},{"code_insee":"64135","nom":"Bonnut","codes_postaux":["64300"],"code_dep":"64","code_region":"75","population":777,"surface_km2":22.09,"lat":43.5514,"lon":-0.7659,"fibre_pct":100.0},{"code_insee":"64136","nom":"Borce","codes_postaux":["64490"],"code_dep":"64","code_region":"75","population":112,"surface_km2":58.18,"lat":42.8518,"lon":-0.5932,"fibre_pct":13.1},{"code_insee":"64137","nom":"Bordères","codes_postaux":["64800"],"code_dep":"64","code_region":"75","population":694,"surface_km2":4.62,"lat":43.2041,"lon":-0.2137,"fibre_pct":98.9},{"code_insee":"64138","nom":"Bordes","codes_postaux":["64510"],"code_dep":"64","code_region":"75","population":2872,"surface_km2":7.35,"lat":43.2435,"lon":-0.2725,"fibre_pct":94.4},{"code_insee":"64139","nom":"Bosdarros","codes_postaux":["64290"],"code_dep":"64","code_region":"75","population":962,"surface_km2":24.65,"lat":43.2011,"lon":-0.356,"fibre_pct":99.8},{"code_insee":"64140","nom":"Boucau","codes_postaux":["64340"],"code_dep":"64","code_region":"75","population":8968,"surface_km2":5.78,"lat":43.5259,"lon":-1.4814,"fibre_pct":90.9},{"code_insee":"64141","nom":"Boueilh-Boueilho-Lasque","codes_postaux":["64330"],"code_dep":"64","code_region":"75","population":382,"surface_km2":17.39,"lat":43.5406,"lon":-0.3205,"fibre_pct":85.1},{"code_insee":"64142","nom":"Bougarber","codes_postaux":["64230"],"code_dep":"64","code_region":"75","population":889,"surface_km2":10.29,"lat":43.391,"lon":-0.473,"fibre_pct":99.8},{"code_insee":"64143","nom":"Bouillon","codes_postaux":["64410"],"code_dep":"64","code_region":"75","population":159,"surface_km2":3.33,"lat":43.4944,"lon":-0.5082,"fibre_pct":98.7},{"code_insee":"64144","nom":"Boumourt","codes_postaux":["64370"],"code_dep":"64","code_region":"75","population":151,"surface_km2":7.96,"lat":43.4437,"lon":-0.5162,"fibre_pct":99.0},{"code_insee":"64145","nom":"Bourdettes","codes_postaux":["64800"],"code_dep":"64","code_region":"75","population":503,"surface_km2":2.22,"lat":43.1942,"lon":-0.2706,"fibre_pct":98.6},{"code_insee":"64146","nom":"Bournos","codes_postaux":["64450"],"code_dep":"64","code_region":"75","population":338,"surface_km2":5.76,"lat":43.4401,"lon":-0.3939,"fibre_pct":100.0},{"code_insee":"64147","nom":"Briscous","codes_postaux":["64240"],"code_dep":"64","code_region":"75","population":2965,"surface_km2":31.48,"lat":43.46,"lon":-1.3274,"fibre_pct":98.6},{"code_insee":"64148","nom":"Bruges-Capbis-Mifaget","codes_postaux":["64800"],"code_dep":"64","code_region":"75","population":847,"surface_km2":16.72,"lat":43.128,"lon":-0.2999,"fibre_pct":99.1},{"code_insee":"64149","nom":"Bugnein","codes_postaux":["64190"],"code_dep":"64","code_region":"75","population":218,"surface_km2":11.3,"lat":43.3696,"lon":-0.753,"fibre_pct":100.0},{"code_insee":"64150","nom":"Bunus","codes_postaux":["64120"],"code_dep":"64","code_region":"75","population":133,"surface_km2":6.65,"lat":43.2073,"lon":-1.0604,"fibre_pct":99.0},{"code_insee":"64151","nom":"Burgaronne","codes_postaux":["64390"],"code_dep":"64","code_region":"75","population":98,"surface_km2":5.36,"lat":43.4194,"lon":-0.9083,"fibre_pct":100.0},{"code_insee":"64152","nom":"Buros","codes_postaux":["64160"],"code_dep":"64","code_region":"75","population":2007,"surface_km2":13.93,"lat":43.3469,"lon":-0.3105,"fibre_pct":98.1},{"code_insee":"64153","nom":"Burosse-Mendousse","codes_postaux":["64330"],"code_dep":"64","code_region":"75","population":81,"surface_km2":5.65,"lat":43.5123,"lon":-0.2113,"fibre_pct":53.1},{"code_insee":"64154","nom":"Bussunarits-Sarrasquette","codes_postaux":["64220"],"code_dep":"64","code_region":"75","population":210,"surface_km2":11.99,"lat":43.1689,"lon":-1.1465,"fibre_pct":94.0},{"code_insee":"64155","nom":"Bustince-Iriberry","codes_postaux":["64220"],"code_dep":"64","code_region":"75","population":102,"surface_km2":5.7,"lat":43.1895,"lon":-1.186,"fibre_pct":94.4},{"code_insee":"64156","nom":"Buziet","codes_postaux":["64680"],"code_dep":"64","code_region":"75","population":479,"surface_km2":8.21,"lat":43.1444,"lon":-0.4785,"fibre_pct":73.6},{"code_insee":"64157","nom":"Buzy","codes_postaux":["64260"],"code_dep":"64","code_region":"75","population":1006,"surface_km2":16.86,"lat":43.1421,"lon":-0.4462,"fibre_pct":96.0},{"code_insee":"64158","nom":"Cabidos","codes_postaux":["64410"],"code_dep":"64","code_region":"75","population":171,"surface_km2":7.26,"lat":43.5394,"lon":-0.4639,"fibre_pct":100.0},{"code_insee":"64159","nom":"Cadillon","codes_postaux":["64330"],"code_dep":"64","code_region":"75","population":95,"surface_km2":5.33,"lat":43.5236,"lon":-0.1525,"fibre_pct":100.0},{"code_insee":"64160","nom":"Cambo-les-Bains","codes_postaux":["64250"],"code_dep":"64","code_region":"75","population":6760,"surface_km2":22.69,"lat":43.3622,"lon":-1.3886,"fibre_pct":96.3},{"code_insee":"64161","nom":"Came","codes_postaux":["64520"],"code_dep":"64","code_region":"75","population":1024,"surface_km2":34.17,"lat":43.4822,"lon":-1.0943,"fibre_pct":98.8},{"code_insee":"64162","nom":"Camou-Cihigue","codes_postaux":["64470"],"code_dep":"64","code_region":"75","population":107,"surface_km2":10.1,"lat":43.1195,"lon":-0.9267,"fibre_pct":100.0},{"code_insee":"64165","nom":"Cardesse","codes_postaux":["64360"],"code_dep":"64","code_region":"75","population":293,"surface_km2":7.69,"lat":43.2654,"lon":-0.5918,"fibre_pct":100.0},{"code_insee":"64166","nom":"Caro","codes_postaux":["64220"],"code_dep":"64","code_region":"75","population":170,"surface_km2":4.06,"lat":43.1487,"lon":-1.2226,"fibre_pct":100.0},{"code_insee":"64167","nom":"Carrère","codes_postaux":["64160"],"code_dep":"64","code_region":"75","population":221,"surface_km2":6.64,"lat":43.4791,"lon":-0.2784,"fibre_pct":100.0},{"code_insee":"64168","nom":"Carresse-Cassaber","codes_postaux":["64270"],"code_dep":"64","code_region":"75","population":664,"surface_km2":13.75,"lat":43.4848,"lon":-1.0008,"fibre_pct":98.6},{"code_insee":"64170","nom":"Castagnède","codes_postaux":["64270"],"code_dep":"64","code_region":"75","population":207,"surface_km2":8.39,"lat":43.4552,"lon":-0.9702,"fibre_pct":100.0},{"code_insee":"64171","nom":"Casteide-Cami","codes_postaux":["64170"],"code_dep":"64","code_region":"75","population":274,"surface_km2":6.96,"lat":43.4259,"lon":-0.5269,"fibre_pct":90.7},{"code_insee":"64172","nom":"Casteide-Candau","codes_postaux":["64370"],"code_dep":"64","code_region":"75","population":283,"surface_km2":9.46,"lat":43.5242,"lon":-0.557,"fibre_pct":100.0},{"code_insee":"64173","nom":"Casteide-Doat","codes_postaux":["64460"],"code_dep":"64","code_region":"75","population":159,"surface_km2":5.37,"lat":43.3779,"lon":-0.0126,"fibre_pct":97.7},{"code_insee":"64174","nom":"Castéra-Loubix","codes_postaux":["64460"],"code_dep":"64","code_region":"75","population":51,"surface_km2":3.41,"lat":43.4064,"lon":-0.0324,"fibre_pct":100.0},{"code_insee":"64175","nom":"Castet","codes_postaux":["64260"],"code_dep":"64","code_region":"75","population":136,"surface_km2":23.57,"lat":43.0517,"lon":-0.3751,"fibre_pct":86.9},{"code_insee":"64176","nom":"Castetbon","codes_postaux":["64190"],"code_dep":"64","code_region":"75","population":151,"surface_km2":14.2,"lat":43.3965,"lon":-0.7912,"fibre_pct":97.2},{"code_insee":"64177","nom":"Castétis","codes_postaux":["64300"],"code_dep":"64","code_region":"75","population":645,"surface_km2":9.03,"lat":43.4776,"lon":-0.7211,"fibre_pct":100.0},{"code_insee":"64178","nom":"Castetnau-Camblong","codes_postaux":["64190"],"code_dep":"64","code_region":"75","population":460,"surface_km2":11.37,"lat":43.3242,"lon":-0.7976,"fibre_pct":99.7},{"code_insee":"64179","nom":"Castetner","codes_postaux":["64300"],"code_dep":"64","code_region":"75","population":140,"surface_km2":6.58,"lat":43.4377,"lon":-0.7321,"fibre_pct":100.0},{"code_insee":"64180","nom":"Castetpugon","codes_postaux":["64330"],"code_dep":"64","code_region":"75","population":214,"surface_km2":7.4,"lat":43.5613,"lon":-0.2238,"fibre_pct":100.0},{"code_insee":"64181","nom":"Castillon (Canton d'Arthez-de-Béarn)","codes_postaux":["64370"],"code_dep":"64","code_region":"75","population":332,"surface_km2":6.87,"lat":43.4636,"lon":-0.5769,"fibre_pct":99.4},{"code_insee":"64182","nom":"Castillon (Canton de Lembeye)","codes_postaux":["64350"],"code_dep":"64","code_region":"75","population":83,"surface_km2":4.76,"lat":43.4829,"lon":-0.1317,"fibre_pct":97.6},{"code_insee":"64183","nom":"Caubios-Loos","codes_postaux":["64230"],"code_dep":"64","code_region":"75","population":683,"surface_km2":7.21,"lat":43.4184,"lon":-0.4027,"fibre_pct":99.4},{"code_insee":"64184","nom":"Cescau","codes_postaux":["64170"],"code_dep":"64","code_region":"75","population":630,"surface_km2":7.98,"lat":43.4139,"lon":-0.5053,"fibre_pct":68.6},{"code_insee":"64185","nom":"Cette-Eygun","codes_postaux":["64490"],"code_dep":"64","code_region":"75","population":66,"surface_km2":19.11,"lat":42.9386,"lon":-0.5593,"fibre_pct":0.0},{"code_insee":"64186","nom":"Charre","codes_postaux":["64190"],"code_dep":"64","code_region":"75","population":222,"surface_km2":11.46,"lat":43.3087,"lon":-0.8504,"fibre_pct":100.0},{"code_insee":"64187","nom":"Charritte-de-Bas","codes_postaux":["64130"],"code_dep":"64","code_region":"75","population":242,"surface_km2":7.53,"lat":43.297,"lon":-0.8971,"fibre_pct":100.0},{"code_insee":"64188","nom":"Chéraute","codes_postaux":["64130"],"code_dep":"64","code_region":"75","population":1043,"surface_km2":36.74,"lat":43.2303,"lon":-0.8253,"fibre_pct":93.7},{"code_insee":"64189","nom":"Ciboure","codes_postaux":["64500"],"code_dep":"64","code_region":"75","population":5951,"surface_km2":7.45,"lat":43.3764,"lon":-1.6661,"fibre_pct":94.4},{"code_insee":"64190","nom":"Claracq","codes_postaux":["64330"],"code_dep":"64","code_region":"75","population":237,"surface_km2":9.92,"lat":43.5047,"lon":-0.2942,"fibre_pct":100.0},{"code_insee":"64191","nom":"Coarraze","codes_postaux":["64800"],"code_dep":"64","code_region":"75","population":2177,"surface_km2":14.94,"lat":43.1673,"lon":-0.2098,"fibre_pct":95.5},{"code_insee":"64192","nom":"Conchez-de-Béarn","codes_postaux":["64330"],"code_dep":"64","code_region":"75","population":116,"surface_km2":4.57,"lat":43.5477,"lon":-0.1678,"fibre_pct":100.0},{"code_insee":"64193","nom":"Corbère-Abères","codes_postaux":["64350"],"code_dep":"64","code_region":"75","population":96,"surface_km2":7.07,"lat":43.4776,"lon":-0.0883,"fibre_pct":100.0},{"code_insee":"64194","nom":"Coslédaà-Lube-Boast","codes_postaux":["64160"],"code_dep":"64","code_region":"75","population":374,"surface_km2":13.96,"lat":43.4496,"lon":-0.2308,"fibre_pct":41.0},{"code_insee":"64195","nom":"Coublucq","codes_postaux":["64410"],"code_dep":"64","code_region":"75","population":92,"surface_km2":5.57,"lat":43.5392,"lon":-0.3644,"fibre_pct":96.5},{"code_insee":"64196","nom":"Crouseilles","codes_postaux":["64350"],"code_dep":"64","code_region":"75","population":118,"surface_km2":7.92,"lat":43.533,"lon":-0.0819,"fibre_pct":100.0},{"code_insee":"64197","nom":"Cuqueron","codes_postaux":["64360"],"code_dep":"64","code_region":"75","population":189,"surface_km2":3.54,"lat":43.3088,"lon":-0.5528,"fibre_pct":100.0},{"code_insee":"64198","nom":"Denguin","codes_postaux":["64230"],"code_dep":"64","code_region":"75","population":1765,"surface_km2":12.13,"lat":43.3737,"lon":-0.4985,"fibre_pct":99.8},{"code_insee":"64199","nom":"Diusse","codes_postaux":["64330"],"code_dep":"64","code_region":"75","population":146,"surface_km2":5.27,"lat":43.5686,"lon":-0.1747,"fibre_pct":99.0},{"code_insee":"64200","nom":"Doazon","codes_postaux":["64370"],"code_dep":"64","code_region":"75","population":187,"surface_km2":6.11,"lat":43.455,"lon":-0.5544,"fibre_pct":87.3},{"code_insee":"64201","nom":"Dognen","codes_postaux":["64190"],"code_dep":"64","code_region":"75","population":225,"surface_km2":6.79,"lat":43.2875,"lon":-0.7311,"fibre_pct":100.0},{"code_insee":"64202","nom":"Domezain-Berraute","codes_postaux":["64120"],"code_dep":"64","code_region":"75","population":473,"surface_km2":21.61,"lat":43.3251,"lon":-0.9656,"fibre_pct":98.6},{"code_insee":"64203","nom":"Doumy","codes_postaux":["64450"],"code_dep":"64","code_region":"75","population":325,"surface_km2":6.44,"lat":43.4432,"lon":-0.3802,"fibre_pct":100.0},{"code_insee":"64204","nom":"Eaux-Bonnes","codes_postaux":["64440"],"code_dep":"64","code_region":"75","population":215,"surface_km2":37.88,"lat":42.9514,"lon":-0.3562,"fibre_pct":90.8},{"code_insee":"64205","nom":"Escos","codes_postaux":["64270"],"code_dep":"64","code_region":"75","population":237,"surface_km2":5.61,"lat":43.4451,"lon":-1.0043,"fibre_pct":99.5},{"code_insee":"64206","nom":"Escot","codes_postaux":["64490"],"code_dep":"64","code_region":"75","population":118,"surface_km2":22.71,"lat":43.0768,"lon":-0.5693,"fibre_pct":99.1},{"code_insee":"64207","nom":"Escou","codes_postaux":["64870"],"code_dep":"64","code_region":"75","population":429,"surface_km2":6.25,"lat":43.1834,"lon":-0.5284,"fibre_pct":94.3},{"code_insee":"64208","nom":"Escoubès","codes_postaux":["64160"],"code_dep":"64","code_region":"75","population":416,"surface_km2":6.48,"lat":43.416,"lon":-0.2434,"fibre_pct":99.1},{"code_insee":"64209","nom":"Escout","codes_postaux":["64870"],"code_dep":"64","code_region":"75","population":423,"surface_km2":9.51,"lat":43.189,"lon":-0.5523,"fibre_pct":98.8},{"code_insee":"64210","nom":"Escurès","codes_postaux":["64350"],"code_dep":"64","code_region":"75","population":143,"surface_km2":4.25,"lat":43.4663,"lon":-0.1245,"fibre_pct":94.6},{"code_insee":"64211","nom":"Eslourenties-Daban","codes_postaux":["64420"],"code_dep":"64","code_region":"75","population":380,"surface_km2":5.12,"lat":43.301,"lon":-0.1425,"fibre_pct":99.8},{"code_insee":"64212","nom":"Espéchède","codes_postaux":["64160"],"code_dep":"64","code_region":"75","population":165,"surface_km2":9.39,"lat":43.3181,"lon":-0.1972,"fibre_pct":100.0},{"code_insee":"64213","nom":"Espelette","codes_postaux":["64250"],"code_dep":"64","code_region":"75","population":2155,"surface_km2":27.29,"lat":43.3226,"lon":-1.4521,"fibre_pct":95.6},{"code_insee":"64214","nom":"Espès-Undurein","codes_postaux":["64130"],"code_dep":"64","code_region":"75","population":506,"surface_km2":9.79,"lat":43.2746,"lon":-0.8927,"fibre_pct":100.0},{"code_insee":"64215","nom":"Espiute","codes_postaux":["64390"],"code_dep":"64","code_region":"75","population":113,"surface_km2":4.06,"lat":43.3547,"lon":-0.9148,"fibre_pct":100.0},{"code_insee":"64216","nom":"Espoey","codes_postaux":["64420"],"code_dep":"64","code_region":"75","population":1223,"surface_km2":13.54,"lat":43.2508,"lon":-0.1536,"fibre_pct":100.0},{"code_insee":"64217","nom":"Esquiule","codes_postaux":["64400"],"code_dep":"64","code_region":"75","population":522,"surface_km2":28.87,"lat":43.1837,"lon":-0.7141,"fibre_pct":100.0},{"code_insee":"64218","nom":"Estérençuby","codes_postaux":["64220"],"code_dep":"64","code_region":"75","population":303,"surface_km2":45.84,"lat":43.0772,"lon":-1.1763,"fibre_pct":99.2},{"code_insee":"64219","nom":"Estialescq","codes_postaux":["64290"],"code_dep":"64","code_region":"75","population":257,"surface_km2":5.08,"lat":43.2236,"lon":-0.5539,"fibre_pct":46.3},{"code_insee":"64220","nom":"Estos","codes_postaux":["64400"],"code_dep":"64","code_region":"75","population":481,"surface_km2":3.19,"lat":43.2143,"lon":-0.6071,"fibre_pct":99.6},{"code_insee":"64221","nom":"Etcharry","codes_postaux":["64120"],"code_dep":"64","code_region":"75","population":144,"surface_km2":7.5,"lat":43.3293,"lon":-0.9267,"fibre_pct":99.0},{"code_insee":"64222","nom":"Etchebar","codes_postaux":["64470"],"code_dep":"64","code_region":"75","population":75,"surface_km2":8.24,"lat":43.0674,"lon":-0.9057,"fibre_pct":100.0},{"code_insee":"64223","nom":"Etsaut","codes_postaux":["64490"],"code_dep":"64","code_region":"75","population":74,"surface_km2":34.92,"lat":42.8901,"lon":-0.5318,"fibre_pct":0.0},{"code_insee":"64224","nom":"Eysus","codes_postaux":["64400"],"code_dep":"64","code_region":"75","population":625,"surface_km2":6.74,"lat":43.1409,"lon":-0.5817,"fibre_pct":98.8},{"code_insee":"64225","nom":"Ance Féas","codes_postaux":["64570"],"code_dep":"64","code_region":"75","population":624,"surface_km2":23.91,"lat":43.1575,"lon":-0.6942,"fibre_pct":99.5},{"code_insee":"64226","nom":"Fichous-Riumayou","codes_postaux":["64410"],"code_dep":"64","code_region":"75","population":207,"surface_km2":6.4,"lat":43.4874,"lon":-0.4415,"fibre_pct":98.0},{"code_insee":"64227","nom":"Gabaston","codes_postaux":["64160"],"code_dep":"64","code_region":"75","population":673,"surface_km2":12.76,"lat":43.3593,"lon":-0.2142,"fibre_pct":99.7},{"code_insee":"64228","nom":"Gabat","codes_postaux":["64120"],"code_dep":"64","code_region":"75","population":274,"surface_km2":8.46,"lat":43.3769,"lon":-1.0283,"fibre_pct":100.0},{"code_insee":"64229","nom":"Gamarthe","codes_postaux":["64220"],"code_dep":"64","code_region":"75","population":125,"surface_km2":9.86,"lat":43.1958,"lon":-1.1318,"fibre_pct":88.8},{"code_insee":"64230","nom":"Gan","codes_postaux":["64290"],"code_dep":"64","code_region":"75","population":5676,"surface_km2":39.32,"lat":43.2074,"lon":-0.4096,"fibre_pct":89.8},{"code_insee":"64231","nom":"Garindein","codes_postaux":["64130"],"code_dep":"64","code_region":"75","population":457,"surface_km2":7.04,"lat":43.2211,"lon":-0.9253,"fibre_pct":100.0},{"code_insee":"64232","nom":"Garlède-Mondebat","codes_postaux":["64450"],"code_dep":"64","code_region":"75","population":220,"surface_km2":8.68,"lat":43.5149,"lon":-0.3346,"fibre_pct":100.0},{"code_insee":"64233","nom":"Garlin","codes_postaux":["64330"],"code_dep":"64","code_region":"75","population":1360,"surface_km2":18.2,"lat":43.5578,"lon":-0.2739,"fibre_pct":96.5},{"code_insee":"64234","nom":"Garos","codes_postaux":["64410"],"code_dep":"64","code_region":"75","population":262,"surface_km2":12.18,"lat":43.508,"lon":-0.4853,"fibre_pct":99.3},{"code_insee":"64235","nom":"Garris","codes_postaux":["64120"],"code_dep":"64","code_region":"75","population":320,"surface_km2":3.2,"lat":43.341,"lon":-1.0585,"fibre_pct":100.0},{"code_insee":"64236","nom":"Gayon","codes_postaux":["64350"],"code_dep":"64","code_region":"75","population":57,"surface_km2":3.95,"lat":43.4855,"lon":-0.1656,"fibre_pct":100.0},{"code_insee":"64237","nom":"Gelos","codes_postaux":["64110"],"code_dep":"64","code_region":"75","population":3637,"surface_km2":11.05,"lat":43.259,"lon":-0.3668,"fibre_pct":99.2},{"code_insee":"64238","nom":"Ger","codes_postaux":["64530"],"code_dep":"64","code_region":"75","population":2137,"surface_km2":31.67,"lat":43.254,"lon":-0.0606,"fibre_pct":96.4},{"code_insee":"64239","nom":"Gerderest","codes_postaux":["64160"],"code_dep":"64","code_region":"75","population":141,"surface_km2":6.55,"lat":43.411,"lon":-0.1684,"fibre_pct":3.1},{"code_insee":"64240","nom":"Gère-Bélesten","codes_postaux":["64260"],"code_dep":"64","code_region":"75","population":189,"surface_km2":12.72,"lat":43.0214,"lon":-0.4489,"fibre_pct":79.4},{"code_insee":"64241","nom":"Géronce","codes_postaux":["64400"],"code_dep":"64","code_region":"75","population":492,"surface_km2":16.16,"lat":43.2251,"lon":-0.716,"fibre_pct":99.3},{"code_insee":"64242","nom":"Gestas","codes_postaux":["64190"],"code_dep":"64","code_region":"75","population":74,"surface_km2":2.17,"lat":43.3535,"lon":-0.8808,"fibre_pct":100.0},{"code_insee":"64243","nom":"Géus-d'Arzacq","codes_postaux":["64370"],"code_dep":"64","code_region":"75","population":234,"surface_km2":4.14,"lat":43.4809,"lon":-0.5229,"fibre_pct":95.2},{"code_insee":"64244","nom":"Geüs-d'Oloron","codes_postaux":["64400"],"code_dep":"64","code_region":"75","population":261,"surface_km2":6.74,"lat":43.238,"lon":-0.7283,"fibre_pct":100.0},{"code_insee":"64245","nom":"Goès","codes_postaux":["64400"],"code_dep":"64","code_region":"75","population":520,"surface_km2":4.78,"lat":43.216,"lon":-0.5782,"fibre_pct":87.0},{"code_insee":"64246","nom":"Gomer","codes_postaux":["64420"],"code_dep":"64","code_region":"75","population":298,"surface_km2":3.27,"lat":43.246,"lon":-0.199,"fibre_pct":100.0},{"code_insee":"64247","nom":"Gotein-Libarrenx","codes_postaux":["64130"],"code_dep":"64","code_region":"75","population":479,"surface_km2":11.97,"lat":43.1906,"lon":-0.8848,"fibre_pct":96.3},{"code_insee":"64249","nom":"Guéthary","codes_postaux":["64210"],"code_dep":"64","code_region":"75","population":1306,"surface_km2":1.47,"lat":43.421,"lon":-1.6104,"fibre_pct":99.3},{"code_insee":"64250","nom":"Guiche","codes_postaux":["64520"],"code_dep":"64","code_region":"75","population":1075,"surface_km2":24.87,"lat":43.5126,"lon":-1.2119,"fibre_pct":96.8},{"code_insee":"64251","nom":"Guinarthe-Parenties","codes_postaux":["64390"],"code_dep":"64","code_region":"75","population":227,"surface_km2":2.46,"lat":43.3845,"lon":-0.9471,"fibre_pct":98.7},{"code_insee":"64252","nom":"Gurmençon","codes_postaux":["64400"],"code_dep":"64","code_region":"75","population":867,"surface_km2":3.0,"lat":43.1598,"lon":-0.5992,"fibre_pct":99.1},{"code_insee":"64253","nom":"Gurs","codes_postaux":["64190"],"code_dep":"64","code_region":"75","population":418,"surface_km2":10.96,"lat":43.2771,"lon":-0.7594,"fibre_pct":100.0},{"code_insee":"64254","nom":"Hagetaubin","codes_postaux":["64370"],"code_dep":"64","code_region":"75","population":568,"surface_km2":18.84,"lat":43.5128,"lon":-0.6144,"fibre_pct":100.0},{"code_insee":"64255","nom":"Halsou","codes_postaux":["64480"],"code_dep":"64","code_region":"75","population":589,"surface_km2":5.4,"lat":43.3842,"lon":-1.4089,"fibre_pct":98.1},{"code_insee":"64256","nom":"Hasparren","codes_postaux":["64240"],"code_dep":"64","code_region":"75","population":7626,"surface_km2":77.52,"lat":43.3951,"lon":-1.3196,"fibre_pct":95.4},{"code_insee":"64257","nom":"Haut-de-Bosdarros","codes_postaux":["64800"],"code_dep":"64","code_region":"75","population":322,"surface_km2":12.32,"lat":43.1695,"lon":-0.3251,"fibre_pct":98.1},{"code_insee":"64258","nom":"Haux","codes_postaux":["64470"],"code_dep":"64","code_region":"75","population":84,"surface_km2":17.11,"lat":43.059,"lon":-0.8373,"fibre_pct":96.0},{"code_insee":"64259","nom":"Hélette","codes_postaux":["64640"],"code_dep":"64","code_region":"75","population":758,"surface_km2":23.72,"lat":43.3095,"lon":-1.2472,"fibre_pct":93.4},{"code_insee":"64260","nom":"Hendaye","codes_postaux":["64700"],"code_dep":"64","code_region":"75","population":18102,"surface_km2":10.42,"lat":43.3635,"lon":-1.7627,"fibre_pct":93.4},{"code_insee":"64261","nom":"Herrère","codes_postaux":["64680"],"code_dep":"64","code_region":"75","population":397,"surface_km2":8.91,"lat":43.1577,"lon":-0.5468,"fibre_pct":98.0},{"code_insee":"64262","nom":"Higuères-Souye","codes_postaux":["64160"],"code_dep":"64","code_region":"75","population":284,"surface_km2":7.46,"lat":43.3791,"lon":-0.2501,"fibre_pct":99.3},{"code_insee":"64263","nom":"L'Hôpital-d'Orion","codes_postaux":["64270"],"code_dep":"64","code_region":"75","population":136,"surface_km2":8.49,"lat":43.4457,"lon":-0.8557,"fibre_pct":99.1},{"code_insee":"64264","nom":"L'Hôpital-Saint-Blaise","codes_postaux":["64130"],"code_dep":"64","code_region":"75","population":55,"surface_km2":2.14,"lat":43.2555,"lon":-0.7708,"fibre_pct":100.0},{"code_insee":"64265","nom":"Hosta","codes_postaux":["64120"],"code_dep":"64","code_region":"75","population":100,"surface_km2":17.3,"lat":43.1438,"lon":-1.078,"fibre_pct":100.0},{"code_insee":"64266","nom":"Hours","codes_postaux":["64420"],"code_dep":"64","code_region":"75","population":231,"surface_km2":5.79,"lat":43.2234,"lon":-0.1708,"fibre_pct":99.3},{"code_insee":"64267","nom":"Ibarrolle","codes_postaux":["64120"],"code_dep":"64","code_region":"75","population":73,"surface_km2":8.95,"lat":43.1909,"lon":-1.0971,"fibre_pct":98.4},{"code_insee":"64268","nom":"Idaux-Mendy","codes_postaux":["64130"],"code_dep":"64","code_region":"75","population":267,"surface_km2":9.65,"lat":43.1736,"lon":-0.9243,"fibre_pct":94.7},{"code_insee":"64269","nom":"Idron","codes_postaux":["64320"],"code_dep":"64","code_region":"75","population":5340,"surface_km2":7.76,"lat":43.3008,"lon":-0.3078,"fibre_pct":97.2},{"code_insee":"64270","nom":"Igon","codes_postaux":["64800"],"code_dep":"64","code_region":"75","population":1028,"surface_km2":5.39,"lat":43.1521,"lon":-0.2314,"fibre_pct":90.1},{"code_insee":"64271","nom":"Iholdy","codes_postaux":["64640"],"code_dep":"64","code_region":"75","population":550,"surface_km2":22.03,"lat":43.2743,"lon":-1.1757,"fibre_pct":98.9},{"code_insee":"64272","nom":"Ilharre","codes_postaux":["64120"],"code_dep":"64","code_region":"75","population":147,"surface_km2":10.54,"lat":43.4022,"lon":-1.0332,"fibre_pct":100.0},{"code_insee":"64273","nom":"Irissarry","codes_postaux":["64780"],"code_dep":"64","code_region":"75","population":870,"surface_km2":26.56,"lat":43.2559,"lon":-1.2447,"fibre_pct":95.4},{"code_insee":"64274","nom":"Irouléguy","codes_postaux":["64220"],"code_dep":"64","code_region":"75","population":364,"surface_km2":9.44,"lat":43.1813,"lon":-1.2882,"fibre_pct":95.2},{"code_insee":"64275","nom":"Ispoure","codes_postaux":["64220"],"code_dep":"64","code_region":"75","population":667,"surface_km2":7.89,"lat":43.185,"lon":-1.2385,"fibre_pct":99.3},{"code_insee":"64276","nom":"Issor","codes_postaux":["64570"],"code_dep":"64","code_region":"75","population":256,"surface_km2":22.9,"lat":43.0892,"lon":-0.6566,"fibre_pct":95.9},{"code_insee":"64277","nom":"Isturits","codes_postaux":["64240"],"code_dep":"64","code_region":"75","population":537,"surface_km2":13.72,"lat":43.3698,"lon":-1.2021,"fibre_pct":98.2},{"code_insee":"64279","nom":"Itxassou","codes_postaux":["64250"],"code_dep":"64","code_region":"75","population":2248,"surface_km2":39.36,"lat":43.3096,"lon":-1.4046,"fibre_pct":97.8},{"code_insee":"64280","nom":"Izeste","codes_postaux":["64260"],"code_dep":"64","code_region":"75","population":442,"surface_km2":6.95,"lat":43.0872,"lon":-0.4483,"fibre_pct":95.8},{"code_insee":"64281","nom":"Jasses","codes_postaux":["64190"],"code_dep":"64","code_region":"75","population":142,"surface_km2":5.48,"lat":43.3135,"lon":-0.735,"fibre_pct":100.0},{"code_insee":"64282","nom":"Jatxou","codes_postaux":["64480"],"code_dep":"64","code_region":"75","population":1267,"surface_km2":13.98,"lat":43.4059,"lon":-1.4109,"fibre_pct":84.2},{"code_insee":"64283","nom":"Jaxu","codes_postaux":["64220"],"code_dep":"64","code_region":"75","population":206,"surface_km2":10.68,"lat":43.2032,"lon":-1.2096,"fibre_pct":100.0},{"code_insee":"64284","nom":"Jurançon","codes_postaux":["64110"],"code_dep":"64","code_region":"75","population":7040,"surface_km2":18.85,"lat":43.2716,"lon":-0.4117,"fibre_pct":98.3},{"code_insee":"64285","nom":"Juxue","codes_postaux":["64120"],"code_dep":"64","code_region":"75","population":200,"surface_km2":15.32,"lat":43.2286,"lon":-1.0404,"fibre_pct":94.2},{"code_insee":"64286","nom":"Laà-Mondrans","codes_postaux":["64300"],"code_dep":"64","code_region":"75","population":423,"surface_km2":6.16,"lat":43.4563,"lon":-0.7698,"fibre_pct":95.5},{"code_insee":"64287","nom":"Laàs","codes_postaux":["64390"],"code_dep":"64","code_region":"75","population":140,"surface_km2":6.52,"lat":43.3874,"lon":-0.8576,"fibre_pct":99.2},{"code_insee":"64288","nom":"Labastide-Cézéracq","codes_postaux":["64170"],"code_dep":"64","code_region":"75","population":584,"surface_km2":5.02,"lat":43.3755,"lon":-0.5419,"fibre_pct":99.7},{"code_insee":"64289","nom":"La Bastide-Clairence","codes_postaux":["64240"],"code_dep":"64","code_region":"75","population":1000,"surface_km2":23.47,"lat":43.418,"lon":-1.234,"fibre_pct":95.1},{"code_insee":"64290","nom":"Labastide-Monréjeau","codes_postaux":["64170"],"code_dep":"64","code_region":"75","population":591,"surface_km2":8.31,"lat":43.3902,"lon":-0.5278,"fibre_pct":99.2},{"code_insee":"64291","nom":"Labastide-Villefranche","codes_postaux":["64270"],"code_dep":"64","code_region":"75","population":343,"surface_km2":15.33,"lat":43.4533,"lon":-1.0346,"fibre_pct":100.0},{"code_insee":"64292","nom":"Labatmale","codes_postaux":["64530"],"code_dep":"64","code_region":"75","population":257,"surface_km2":3.34,"lat":43.1838,"lon":-0.151,"fibre_pct":97.0},{"code_insee":"64293","nom":"Labatut-Figuières","codes_postaux":["64460"],"code_dep":"64","code_region":"75","population":172,"surface_km2":8.49,"lat":43.416,"lon":-0.0145,"fibre_pct":99.0},{"code_insee":"64294","nom":"Labets-Biscay","codes_postaux":["64120"],"code_dep":"64","code_region":"75","population":144,"surface_km2":8.78,"lat":43.3906,"lon":-1.0638,"fibre_pct":92.9},{"code_insee":"64295","nom":"Labeyrie","codes_postaux":["64300"],"code_dep":"64","code_region":"75","population":103,"surface_km2":3.75,"lat":43.5411,"lon":-0.6329,"fibre_pct":98.5},{"code_insee":"64296","nom":"Lacadée","codes_postaux":["64300"],"code_dep":"64","code_region":"75","population":145,"surface_km2":4.81,"lat":43.5275,"lon":-0.6561,"fibre_pct":97.5},{"code_insee":"64297","nom":"Lacarre","codes_postaux":["64220"],"code_dep":"64","code_region":"75","population":171,"surface_km2":4.47,"lat":43.19,"lon":-1.1563,"fibre_pct":94.2},{"code_insee":"64298","nom":"Lacarry-Arhan-Charritte-de-Haut","codes_postaux":["64470"],"code_dep":"64","code_region":"75","population":109,"surface_km2":23.55,"lat":43.0733,"lon":-0.9607,"fibre_pct":96.6},{"code_insee":"64299","nom":"Lacommande","codes_postaux":["64360"],"code_dep":"64","code_region":"75","population":172,"surface_km2":3.3,"lat":43.276,"lon":-0.5096,"fibre_pct":85.5},{"code_insee":"64300","nom":"Lacq","codes_postaux":["64170"],"code_dep":"64","code_region":"75","population":1036,"surface_km2":23.09,"lat":43.425,"lon":-0.6003,"fibre_pct":98.9},{"code_insee":"64301","nom":"Lagor","codes_postaux":["64150"],"code_dep":"64","code_region":"75","population":1121,"surface_km2":21.01,"lat":43.3838,"lon":-0.6681,"fibre_pct":97.8},{"code_insee":"64302","nom":"Lagos","codes_postaux":["64800"],"code_dep":"64","code_region":"75","population":473,"surface_km2":4.46,"lat":43.2131,"lon":-0.2234,"fibre_pct":93.8},{"code_insee":"64303","nom":"Laguinge-Restoue","codes_postaux":["64470"],"code_dep":"64","code_region":"75","population":155,"surface_km2":6.07,"lat":43.0973,"lon":-0.8492,"fibre_pct":95.5},{"code_insee":"64304","nom":"Lahonce","codes_postaux":["64990"],"code_dep":"64","code_region":"75","population":2740,"surface_km2":9.79,"lat":43.4816,"lon":-1.402,"fibre_pct":98.6},{"code_insee":"64305","nom":"Lahontan","codes_postaux":["64270"],"code_dep":"64","code_region":"75","population":536,"surface_km2":14.73,"lat":43.5207,"lon":-0.9684,"fibre_pct":99.7},{"code_insee":"64306","nom":"Lahourcade","codes_postaux":["64150"],"code_dep":"64","code_region":"75","population":709,"surface_km2":10.96,"lat":43.3562,"lon":-0.6275,"fibre_pct":89.9},{"code_insee":"64307","nom":"Lalongue","codes_postaux":["64350"],"code_dep":"64","code_region":"75","population":201,"surface_km2":7.96,"lat":43.4794,"lon":-0.1888,"fibre_pct":90.9},{"code_insee":"64308","nom":"Lalonquette","codes_postaux":["64450"],"code_dep":"64","code_region":"75","population":261,"surface_km2":5.32,"lat":43.4905,"lon":-0.3176,"fibre_pct":99.3},{"code_insee":"64309","nom":"Lamayou","codes_postaux":["64460"],"code_dep":"64","code_region":"75","population":214,"surface_km2":9.75,"lat":43.384,"lon":-0.0272,"fibre_pct":87.4},{"code_insee":"64310","nom":"Lanne-en-Barétous","codes_postaux":["64570"],"code_dep":"64","code_region":"75","population":481,"surface_km2":41.41,"lat":43.0785,"lon":-0.7861,"fibre_pct":98.3},{"code_insee":"64311","nom":"Lannecaube","codes_postaux":["64350"],"code_dep":"64","code_region":"75","population":145,"surface_km2":8.67,"lat":43.4806,"lon":-0.2208,"fibre_pct":93.3},{"code_insee":"64312","nom":"Lanneplaà","codes_postaux":["64300"],"code_dep":"64","code_region":"75","population":301,"surface_km2":7.25,"lat":43.4603,"lon":-0.8282,"fibre_pct":97.1},{"code_insee":"64313","nom":"Lantabat","codes_postaux":["64640"],"code_dep":"64","code_region":"75","population":297,"surface_km2":29.12,"lat":43.2634,"lon":-1.1321,"fibre_pct":98.6},{"code_insee":"64314","nom":"Larceveau-Arros-Cibits","codes_postaux":["64120"],"code_dep":"64","code_region":"75","population":449,"surface_km2":18.34,"lat":43.2245,"lon":-1.0995,"fibre_pct":97.8},{"code_insee":"64315","nom":"Laroin","codes_postaux":["64110"],"code_dep":"64","code_region":"75","population":1030,"surface_km2":7.06,"lat":43.2933,"lon":-0.4377,"fibre_pct":98.8},{"code_insee":"64316","nom":"Larrau","codes_postaux":["64560"],"code_dep":"64","code_region":"75","population":179,"surface_km2":126.82,"lat":43.0059,"lon":-0.9806,"fibre_pct":89.8},{"code_insee":"64317","nom":"Larressore","codes_postaux":["64480"],"code_dep":"64","code_region":"75","population":2163,"surface_km2":10.91,"lat":43.3688,"lon":-1.4446,"fibre_pct":96.7},{"code_insee":"64318","nom":"Larreule","codes_postaux":["64410"],"code_dep":"64","code_region":"75","population":194,"surface_km2":10.14,"lat":43.4742,"lon":-0.4686,"fibre_pct":82.6},{"code_insee":"64319","nom":"Larribar-Sorhapuru","codes_postaux":["64120"],"code_dep":"64","code_region":"75","population":187,"surface_km2":10.63,"lat":43.2864,"lon":-1.008,"fibre_pct":94.7},{"code_insee":"64320","nom":"Laruns","codes_postaux":["64440"],"code_dep":"64","code_region":"75","population":1177,"surface_km2":248.28,"lat":42.907,"lon":-0.4087,"fibre_pct":68.8},{"code_insee":"64321","nom":"Lasclaveries","codes_postaux":["64450"],"code_dep":"64","code_region":"75","population":246,"surface_km2":6.13,"lat":43.4352,"lon":-0.2915,"fibre_pct":71.5},{"code_insee":"64322","nom":"Lasse","codes_postaux":["64220"],"code_dep":"64","code_region":"75","population":334,"surface_km2":14.81,"lat":43.1377,"lon":-1.2932,"fibre_pct":97.9},{"code_insee":"64323","nom":"Lasserre","codes_postaux":["64350"],"code_dep":"64","code_region":"75","population":115,"surface_km2":4.26,"lat":43.511,"lon":-0.0816,"fibre_pct":98.6},{"code_insee":"64324","nom":"Lasseube","codes_postaux":["64290"],"code_dep":"64","code_region":"75","population":1735,"surface_km2":48.91,"lat":43.2118,"lon":-0.4855,"fibre_pct":95.5},{"code_insee":"64325","nom":"Lasseubetat","codes_postaux":["64290"],"code_dep":"64","code_region":"75","population":188,"surface_km2":7.15,"lat":43.1844,"lon":-0.4447,"fibre_pct":22.2},{"code_insee":"64326","nom":"Lay-Lamidou","codes_postaux":["64190"],"code_dep":"64","code_region":"75","population":130,"surface_km2":5.47,"lat":43.2921,"lon":-0.7053,"fibre_pct":98.9},{"code_insee":"64327","nom":"Lecumberry","codes_postaux":["64220"],"code_dep":"64","code_region":"75","population":196,"surface_km2":58.13,"lat":43.085,"lon":-1.1229,"fibre_pct":93.7},{"code_insee":"64328","nom":"Ledeuix","codes_postaux":["64400"],"code_dep":"64","code_region":"75","population":1029,"surface_km2":13.53,"lat":43.2326,"lon":-0.6126,"fibre_pct":99.8},{"code_insee":"64329","nom":"Lée","codes_postaux":["64320"],"code_dep":"64","code_region":"75","population":1271,"surface_km2":3.01,"lat":43.2938,"lon":-0.2861,"fibre_pct":100.0},{"code_insee":"64330","nom":"Lées-Athas","codes_postaux":["64490"],"code_dep":"64","code_region":"75","population":229,"surface_km2":43.99,"lat":42.9716,"lon":-0.675,"fibre_pct":93.6},{"code_insee":"64331","nom":"Lembeye","codes_postaux":["64350"],"code_dep":"64","code_region":"75","population":838,"surface_km2":8.49,"lat":43.4497,"lon":-0.1087,"fibre_pct":94.5},{"code_insee":"64332","nom":"Lème","codes_postaux":["64450"],"code_dep":"64","code_region":"75","population":168,"surface_km2":6.65,"lat":43.4961,"lon":-0.3599,"fibre_pct":98.9},{"code_insee":"64334","nom":"Léren","codes_postaux":["64270"],"code_dep":"64","code_region":"75","population":210,"surface_km2":4.58,"lat":43.5034,"lon":-1.0482,"fibre_pct":100.0},{"code_insee":"64335","nom":"Lescar","codes_postaux":["64230"],"code_dep":"64","code_region":"75","population":9455,"surface_km2":26.47,"lat":43.3412,"lon":-0.4303,"fibre_pct":99.1},{"code_insee":"64336","nom":"Lescun","codes_postaux":["64490"],"code_dep":"64","code_region":"75","population":163,"surface_km2":61.68,"lat":42.9166,"lon":-0.6731,"fibre_pct":0.0},{"code_insee":"64337","nom":"Lespielle","codes_postaux":["64350"],"code_dep":"64","code_region":"75","population":152,"surface_km2":7.17,"lat":43.4682,"lon":-0.1539,"fibre_pct":81.6},{"code_insee":"64338","nom":"Lespourcy","codes_postaux":["64160"],"code_dep":"64","code_region":"75","population":178,"surface_km2":7.11,"lat":43.3586,"lon":-0.1564,"fibre_pct":100.0},{"code_insee":"64339","nom":"Lestelle-Bétharram","codes_postaux":["64800"],"code_dep":"64","code_region":"75","population":788,"surface_km2":8.66,"lat":43.125,"lon":-0.2124,"fibre_pct":96.1},{"code_insee":"64340","nom":"Lichans-Sunhar","codes_postaux":["64470"],"code_dep":"64","code_region":"75","population":84,"surface_km2":3.51,"lat":43.0931,"lon":-0.8821,"fibre_pct":100.0},{"code_insee":"64341","nom":"Lichos","codes_postaux":["64130"],"code_dep":"64","code_region":"75","population":127,"surface_km2":3.49,"lat":43.3086,"lon":-0.882,"fibre_pct":100.0},{"code_insee":"64342","nom":"Licq-Athérey","codes_postaux":["64560"],"code_dep":"64","code_region":"75","population":194,"surface_km2":17.92,"lat":43.0582,"lon":-0.8836,"fibre_pct":100.0},{"code_insee":"64343","nom":"Limendous","codes_postaux":["64420"],"code_dep":"64","code_region":"75","population":690,"surface_km2":7.54,"lat":43.2786,"lon":-0.1829,"fibre_pct":97.7},{"code_insee":"64344","nom":"Livron","codes_postaux":["64530"],"code_dep":"64","code_region":"75","population":380,"surface_km2":7.6,"lat":43.2336,"lon":-0.1287,"fibre_pct":99.5},{"code_insee":"64345","nom":"Lohitzun-Oyhercq","codes_postaux":["64120"],"code_dep":"64","code_region":"75","population":192,"surface_km2":17.57,"lat":43.271,"lon":-0.9623,"fibre_pct":98.6},{"code_insee":"64346","nom":"Lombia","codes_postaux":["64160"],"code_dep":"64","code_region":"75","population":206,"surface_km2":7.69,"lat":43.33,"lon":-0.1317,"fibre_pct":100.0},{"code_insee":"64347","nom":"Lonçon","codes_postaux":["64410"],"code_dep":"64","code_region":"75","population":221,"surface_km2":5.46,"lat":43.4712,"lon":-0.4202,"fibre_pct":99.0},{"code_insee":"64348","nom":"Lons","codes_postaux":["64140"],"code_dep":"64","code_region":"75","population":13606,"surface_km2":11.55,"lat":43.3253,"lon":-0.4067,"fibre_pct":99.7},{"code_insee":"64349","nom":"Loubieng","codes_postaux":["64300"],"code_dep":"64","code_region":"75","population":491,"surface_km2":23.42,"lat":43.4195,"lon":-0.7587,"fibre_pct":99.4},{"code_insee":"64350","nom":"Louhossoa","codes_postaux":["64250"],"code_dep":"64","code_region":"75","population":886,"surface_km2":7.44,"lat":43.3172,"lon":-1.3466,"fibre_pct":95.5},{"code_insee":"64351","nom":"Lourdios-Ichère","codes_postaux":["64570"],"code_dep":"64","code_region":"75","population":145,"surface_km2":16.27,"lat":43.0433,"lon":-0.6557,"fibre_pct":0.0},{"code_insee":"64352","nom":"Lourenties","codes_postaux":["64420"],"code_dep":"64","code_region":"75","population":427,"surface_km2":9.04,"lat":43.2874,"lon":-0.1593,"fibre_pct":99.5},{"code_insee":"64353","nom":"Louvie-Juzon","codes_postaux":["64260"],"code_dep":"64","code_region":"75","population":1058,"surface_km2":56.26,"lat":43.0692,"lon":-0.3428,"fibre_pct":89.5},{"code_insee":"64354","nom":"Louvie-Soubiron","codes_postaux":["64440"],"code_dep":"64","code_region":"75","population":133,"surface_km2":26.45,"lat":43.0152,"lon":-0.3383,"fibre_pct":85.9},{"code_insee":"64355","nom":"Louvigny","codes_postaux":["64410"],"code_dep":"64","code_region":"75","population":139,"surface_km2":7.12,"lat":43.5056,"lon":-0.442,"fibre_pct":98.7},{"code_insee":"64356","nom":"Luc-Armau","codes_postaux":["64350"],"code_dep":"64","code_region":"75","population":104,"surface_km2":5.89,"lat":43.4271,"lon":-0.0712,"fibre_pct":100.0},{"code_insee":"64357","nom":"Lucarré","codes_postaux":["64350"],"code_dep":"64","code_region":"75","population":64,"surface_km2":3.32,"lat":43.4023,"lon":-0.0869,"fibre_pct":100.0},{"code_insee":"64358","nom":"Lucgarier","codes_postaux":["64420"],"code_dep":"64","code_region":"75","population":273,"surface_km2":5.68,"lat":43.2298,"lon":-0.1959,"fibre_pct":99.5},{"code_insee":"64359","nom":"Lucq-de-Béarn","codes_postaux":["64360"],"code_dep":"64","code_region":"75","population":925,"surface_km2":48.81,"lat":43.2972,"lon":-0.6497,"fibre_pct":100.0},{"code_insee":"64360","nom":"Lurbe-Saint-Christau","codes_postaux":["64660"],"code_dep":"64","code_region":"75","population":207,"surface_km2":7.52,"lat":43.1098,"lon":-0.6013,"fibre_pct":100.0},{"code_insee":"64361","nom":"Lussagnet-Lusson","codes_postaux":["64160"],"code_dep":"64","code_region":"75","population":183,"surface_km2":6.72,"lat":43.4452,"lon":-0.199,"fibre_pct":96.3},{"code_insee":"64362","nom":"Luxe-Sumberraute","codes_postaux":["64120"],"code_dep":"64","code_region":"75","population":385,"surface_km2":8.47,"lat":43.3513,"lon":-1.0779,"fibre_pct":97.6},{"code_insee":"64363","nom":"Lys","codes_postaux":["64260"],"code_dep":"64","code_region":"75","population":322,"surface_km2":15.47,"lat":43.1364,"lon":-0.348,"fibre_pct":98.6},{"code_insee":"64364","nom":"Macaye","codes_postaux":["64240"],"code_dep":"64","code_region":"75","population":593,"surface_km2":19.76,"lat":43.3187,"lon":-1.327,"fibre_pct":97.4},{"code_insee":"64365","nom":"Malaussanne","codes_postaux":["64410"],"code_dep":"64","code_region":"75","population":450,"surface_km2":17.62,"lat":43.5699,"lon":-0.4703,"fibre_pct":97.0},{"code_insee":"64366","nom":"Mascaraàs-Haron","codes_postaux":["64330"],"code_dep":"64","code_region":"75","population":109,"surface_km2":8.78,"lat":43.5415,"lon":-0.2195,"fibre_pct":100.0},{"code_insee":"64367","nom":"Maslacq","codes_postaux":["64300"],"code_dep":"64","code_region":"75","population":891,"surface_km2":13.44,"lat":43.429,"lon":-0.7009,"fibre_pct":100.0},{"code_insee":"64368","nom":"Masparraute","codes_postaux":["64120"],"code_dep":"64","code_region":"75","population":264,"surface_km2":8.19,"lat":43.3945,"lon":-1.0865,"fibre_pct":98.4},{"code_insee":"64369","nom":"Maspie-Lalonquère-Juillacq","codes_postaux":["64350"],"code_dep":"64","code_region":"75","population":233,"surface_km2":10.8,"lat":43.4244,"lon":-0.1488,"fibre_pct":98.8},{"code_insee":"64370","nom":"Maucor","codes_postaux":["64160"],"code_dep":"64","code_region":"75","population":564,"surface_km2":4.99,"lat":43.3548,"lon":-0.289,"fibre_pct":99.2},{"code_insee":"64371","nom":"Mauléon-Licharre","codes_postaux":["64130"],"code_dep":"64","code_region":"75","population":2972,"surface_km2":12.66,"lat":43.214,"lon":-0.8842,"fibre_pct":86.4},{"code_insee":"64372","nom":"Maure","codes_postaux":["64460"],"code_dep":"64","code_region":"75","population":90,"surface_km2":3.63,"lat":43.3774,"lon":-0.0781,"fibre_pct":78.6},{"code_insee":"64373","nom":"Mazères-Lezons","codes_postaux":["64110"],"code_dep":"64","code_region":"75","population":1845,"surface_km2":3.98,"lat":43.2701,"lon":-0.3524,"fibre_pct":99.1},{"code_insee":"64374","nom":"Mazerolles","codes_postaux":["64230"],"code_dep":"64","code_region":"75","population":1194,"surface_km2":11.8,"lat":43.4421,"lon":-0.4817,"fibre_pct":95.6},{"code_insee":"64375","nom":"Méharin","codes_postaux":["64120"],"code_dep":"64","code_region":"75","population":274,"surface_km2":12.79,"lat":43.3313,"lon":-1.1502,"fibre_pct":99.5},{"code_insee":"64376","nom":"Meillon","codes_postaux":["64510"],"code_dep":"64","code_region":"75","population":957,"surface_km2":7.09,"lat":43.2687,"lon":-0.3087,"fibre_pct":94.7},{"code_insee":"64377","nom":"Mendionde","codes_postaux":["64240"],"code_dep":"64","code_region":"75","population":854,"surface_km2":21.51,"lat":43.3315,"lon":-1.293,"fibre_pct":98.4},{"code_insee":"64378","nom":"Menditte","codes_postaux":["64130"],"code_dep":"64","code_region":"75","population":208,"surface_km2":6.53,"lat":43.1654,"lon":-0.8832,"fibre_pct":100.0},{"code_insee":"64379","nom":"Mendive","codes_postaux":["64220"],"code_dep":"64","code_region":"75","population":172,"surface_km2":41.94,"lat":43.0842,"lon":-1.0878,"fibre_pct":96.4},{"code_insee":"64380","nom":"Méracq","codes_postaux":["64410"],"code_dep":"64","code_region":"75","population":234,"surface_km2":8.27,"lat":43.5103,"lon":-0.3838,"fibre_pct":77.9},{"code_insee":"64381","nom":"Méritein","codes_postaux":["64190"],"code_dep":"64","code_region":"75","population":279,"surface_km2":6.84,"lat":43.3388,"lon":-0.7491,"fibre_pct":100.0},{"code_insee":"64382","nom":"Mesplède","codes_postaux":["64370"],"code_dep":"64","code_region":"75","population":325,"surface_km2":11.69,"lat":43.4952,"lon":-0.6519,"fibre_pct":98.6},{"code_insee":"64383","nom":"Mialos","codes_postaux":["64410"],"code_dep":"64","code_region":"75","population":142,"surface_km2":4.52,"lat":43.4979,"lon":-0.4099,"fibre_pct":100.0},{"code_insee":"64385","nom":"Miossens-Lanusse","codes_postaux":["64450"],"code_dep":"64","code_region":"75","population":288,"surface_km2":9.15,"lat":43.4687,"lon":-0.3043,"fibre_pct":94.6},{"code_insee":"64386","nom":"Mirepeix","codes_postaux":["64800"],"code_dep":"64","code_region":"75","population":1255,"surface_km2":3.33,"lat":43.1953,"lon":-0.2515,"fibre_pct":98.2},{"code_insee":"64387","nom":"Momas","codes_postaux":["64230"],"code_dep":"64","code_region":"75","population":604,"surface_km2":14.53,"lat":43.4409,"lon":-0.4361,"fibre_pct":98.9},{"code_insee":"64388","nom":"Momy","codes_postaux":["64350"],"code_dep":"64","code_region":"75","population":114,"surface_km2":6.04,"lat":43.3885,"lon":-0.1041,"fibre_pct":73.0},{"code_insee":"64389","nom":"Monassut-Audiracq","codes_postaux":["64160"],"code_dep":"64","code_region":"75","population":369,"surface_km2":9.99,"lat":43.412,"lon":-0.2059,"fibre_pct":81.5},{"code_insee":"64390","nom":"Moncaup","codes_postaux":["64350"],"code_dep":"64","code_region":"75","population":156,"surface_km2":11.5,"lat":43.4815,"lon":-0.0501,"fibre_pct":97.9},{"code_insee":"64391","nom":"Moncayolle-Larrory-Mendibieu","codes_postaux":["64130"],"code_dep":"64","code_region":"75","population":284,"surface_km2":16.46,"lat":43.2681,"lon":-0.8211,"fibre_pct":100.0},{"code_insee":"64392","nom":"Moncla","codes_postaux":["64330"],"code_dep":"64","code_region":"75","population":90,"surface_km2":5.81,"lat":43.5817,"lon":-0.2251,"fibre_pct":100.0},{"code_insee":"64393","nom":"Monein","codes_postaux":["64360"],"code_dep":"64","code_region":"75","population":4446,"surface_km2":80.9,"lat":43.2905,"lon":-0.5628,"fibre_pct":90.1},{"code_insee":"64394","nom":"Monpezat","codes_postaux":["64350"],"code_dep":"64","code_region":"75","population":80,"surface_km2":3.54,"lat":43.5011,"lon":-0.0628,"fibre_pct":100.0},{"code_insee":"64395","nom":"Monségur","codes_postaux":["64460"],"code_dep":"64","code_region":"75","population":136,"surface_km2":2.8,"lat":43.4349,"lon":-0.0128,"fibre_pct":100.0},{"code_insee":"64396","nom":"Mont","codes_postaux":["64300"],"code_dep":"64","code_region":"75","population":1146,"surface_km2":18.39,"lat":43.4251,"lon":-0.6606,"fibre_pct":91.4},{"code_insee":"64397","nom":"Montagut","codes_postaux":["64410"],"code_dep":"64","code_region":"75","population":116,"surface_km2":6.23,"lat":43.5516,"lon":-0.5001,"fibre_pct":100.0},{"code_insee":"64398","nom":"Montaner","codes_postaux":["64460"],"code_dep":"64","code_region":"75","population":408,"surface_km2":19.37,"lat":43.346,"lon":-0.0178,"fibre_pct":91.7},{"code_insee":"64399","nom":"Montardon","codes_postaux":["64121"],"code_dep":"64","code_region":"75","population":2419,"surface_km2":8.36,"lat":43.3657,"lon":-0.352,"fibre_pct":99.6},{"code_insee":"64400","nom":"Montaut","codes_postaux":["64800"],"code_dep":"64","code_region":"75","population":1120,"surface_km2":15.5,"lat":43.1312,"lon":-0.1765,"fibre_pct":91.2},{"code_insee":"64401","nom":"Mont-Disse","codes_postaux":["64330"],"code_dep":"64","code_region":"75","population":81,"surface_km2":5.43,"lat":43.5528,"lon":-0.1482,"fibre_pct":100.0},{"code_insee":"64403","nom":"Montfort","codes_postaux":["64190"],"code_dep":"64","code_region":"75","population":196,"surface_km2":8.66,"lat":43.3667,"lon":-0.8684,"fibre_pct":100.0},{"code_insee":"64404","nom":"Montory","codes_postaux":["64470"],"code_dep":"64","code_region":"75","population":318,"surface_km2":20.69,"lat":43.0947,"lon":-0.811,"fibre_pct":100.0},{"code_insee":"64405","nom":"Morlaàs","codes_postaux":["64160"],"code_dep":"64","code_region":"75","population":4374,"surface_km2":13.27,"lat":43.3354,"lon":-0.2725,"fibre_pct":96.0},{"code_insee":"64406","nom":"Morlanne","codes_postaux":["64370"],"code_dep":"64","code_region":"75","population":611,"surface_km2":13.08,"lat":43.5143,"lon":-0.5446,"fibre_pct":97.9},{"code_insee":"64407","nom":"Mouguerre","codes_postaux":["64990"],"code_dep":"64","code_region":"75","population":5428,"surface_km2":22.45,"lat":43.4588,"lon":-1.4057,"fibre_pct":92.6},{"code_insee":"64408","nom":"Mouhous","codes_postaux":["64330"],"code_dep":"64","code_region":"75","population":75,"surface_km2":3.32,"lat":43.492,"lon":-0.2538,"fibre_pct":100.0},{"code_insee":"64409","nom":"Moumour","codes_postaux":["64400"],"code_dep":"64","code_region":"75","population":814,"surface_km2":8.15,"lat":43.2134,"lon":-0.6647,"fibre_pct":99.8},{"code_insee":"64410","nom":"Mourenx","codes_postaux":["64150"],"code_dep":"64","code_region":"75","population":5695,"surface_km2":6.43,"lat":43.374,"lon":-0.6156,"fibre_pct":97.8},{"code_insee":"64411","nom":"Musculdy","codes_postaux":["64130"],"code_dep":"64","code_region":"75","population":220,"surface_km2":24.41,"lat":43.1781,"lon":-0.9926,"fibre_pct":97.6},{"code_insee":"64412","nom":"Nabas","codes_postaux":["64190"],"code_dep":"64","code_region":"75","population":81,"surface_km2":6.44,"lat":43.3316,"lon":-0.8905,"fibre_pct":98.8},{"code_insee":"64413","nom":"Narcastet","codes_postaux":["64510"],"code_dep":"64","code_region":"75","population":753,"surface_km2":4.61,"lat":43.2417,"lon":-0.3203,"fibre_pct":100.0},{"code_insee":"64414","nom":"Narp","codes_postaux":["64190"],"code_dep":"64","code_region":"75","population":122,"surface_km2":6.4,"lat":43.3819,"lon":-0.8247,"fibre_pct":100.0},{"code_insee":"64415","nom":"Navailles-Angos","codes_postaux":["64450"],"code_dep":"64","code_region":"75","population":1545,"surface_km2":14.3,"lat":43.4151,"lon":-0.3421,"fibre_pct":99.7},{"code_insee":"64416","nom":"Navarrenx","codes_postaux":["64190"],"code_dep":"64","code_region":"75","population":1042,"surface_km2":6.51,"lat":43.3291,"lon":-0.7363,"fibre_pct":94.1},{"code_insee":"64417","nom":"Nay","codes_postaux":["64800"],"code_dep":"64","code_region":"75","population":3184,"surface_km2":5.24,"lat":43.1766,"lon":-0.2624,"fibre_pct":91.3},{"code_insee":"64418","nom":"Noguères","codes_postaux":["64150"],"code_dep":"64","code_region":"75","population":121,"surface_km2":2.01,"lat":43.3723,"lon":-0.6012,"fibre_pct":100.0},{"code_insee":"64419","nom":"Nousty","codes_postaux":["64420"],"code_dep":"64","code_region":"75","population":1572,"surface_km2":9.69,"lat":43.2635,"lon":-0.2178,"fibre_pct":99.7},{"code_insee":"64420","nom":"Ogenne-Camptort","codes_postaux":["64190"],"code_dep":"64","code_region":"75","population":241,"surface_km2":11.79,"lat":43.3181,"lon":-0.6987,"fibre_pct":94.5},{"code_insee":"64421","nom":"Ogeu-les-Bains","codes_postaux":["64680"],"code_dep":"64","code_region":"75","population":1290,"surface_km2":23.09,"lat":43.1547,"lon":-0.508,"fibre_pct":97.8},{"code_insee":"64422","nom":"Oloron-Sainte-Marie","codes_postaux":["64400"],"code_dep":"64","code_region":"75","population":10684,"surface_km2":68.59,"lat":43.1679,"lon":-0.5954,"fibre_pct":95.8},{"code_insee":"64423","nom":"Oraàs","codes_postaux":["64390"],"code_dep":"64","code_region":"75","population":184,"surface_km2":10.59,"lat":43.4353,"lon":-0.9619,"fibre_pct":97.8},{"code_insee":"64424","nom":"Ordiarp","codes_postaux":["64130"],"code_dep":"64","code_region":"75","population":547,"surface_km2":30.89,"lat":43.1932,"lon":-0.9595,"fibre_pct":98.3},{"code_insee":"64425","nom":"Orègue","codes_postaux":["64120"],"code_dep":"64","code_region":"75","population":531,"surface_km2":36.52,"lat":43.4033,"lon":-1.1692,"fibre_pct":99.7},{"code_insee":"64426","nom":"Orin","codes_postaux":["64400"],"code_dep":"64","code_region":"75","population":269,"surface_km2":4.32,"lat":43.2251,"lon":-0.6758,"fibre_pct":100.0},{"code_insee":"64427","nom":"Orion","codes_postaux":["64390"],"code_dep":"64","code_region":"75","population":148,"surface_km2":9.82,"lat":43.4186,"lon":-0.8649,"fibre_pct":100.0},{"code_insee":"64428","nom":"Orriule","codes_postaux":["64390"],"code_dep":"64","code_region":"75","population":140,"surface_km2":6.49,"lat":43.4079,"lon":-0.8503,"fibre_pct":100.0},{"code_insee":"64429","nom":"Orsanco","codes_postaux":["64120"],"code_dep":"64","code_region":"75","population":102,"surface_km2":9.47,"lat":43.2896,"lon":-1.0646,"fibre_pct":100.0},{"code_insee":"64430","nom":"Orthez","codes_postaux":["64300"],"code_dep":"64","code_region":"75","population":10881,"surface_km2":46.39,"lat":43.4945,"lon":-0.7777,"fibre_pct":93.6},{"code_insee":"64431","nom":"Os-Marsillon","codes_postaux":["64150"],"code_dep":"64","code_region":"75","population":547,"surface_km2":5.37,"lat":43.3872,"lon":-0.6138,"fibre_pct":95.7},{"code_insee":"64432","nom":"Ossas-Suhare","codes_postaux":["64470"],"code_dep":"64","code_region":"75","population":91,"surface_km2":7.18,"lat":43.139,"lon":-0.9088,"fibre_pct":96.3},{"code_insee":"64433","nom":"Osse-en-Aspe","codes_postaux":["64490"],"code_dep":"64","code_region":"75","population":330,"surface_km2":43.15,"lat":43.0133,"lon":-0.6689,"fibre_pct":98.0},{"code_insee":"64434","nom":"Ossenx","codes_postaux":["64190"],"code_dep":"64","code_region":"75","population":51,"surface_km2":4.04,"lat":43.3776,"lon":-0.8095,"fibre_pct":100.0},{"code_insee":"64435","nom":"Osserain-Rivareyte","codes_postaux":["64390"],"code_dep":"64","code_region":"75","population":235,"surface_km2":6.55,"lat":43.3713,"lon":-0.9507,"fibre_pct":99.4},{"code_insee":"64436","nom":"Ossès","codes_postaux":["64780"],"code_dep":"64","code_region":"75","population":878,"surface_km2":42.57,"lat":43.2462,"lon":-1.2735,"fibre_pct":97.7},{"code_insee":"64437","nom":"Ostabat-Asme","codes_postaux":["64120"],"code_dep":"64","code_region":"75","population":226,"surface_km2":15.44,"lat":43.2596,"lon":-1.0706,"fibre_pct":100.0},{"code_insee":"64438","nom":"Ouillon","codes_postaux":["64160"],"code_dep":"64","code_region":"75","population":553,"surface_km2":6.41,"lat":43.3281,"lon":-0.2266,"fibre_pct":100.0},{"code_insee":"64439","nom":"Ousse","codes_postaux":["64320"],"code_dep":"64","code_region":"75","population":1672,"surface_km2":4.51,"lat":43.2765,"lon":-0.2674,"fibre_pct":99.2},{"code_insee":"64440","nom":"Ozenx-Montestrucq","codes_postaux":["64300"],"code_dep":"64","code_region":"75","population":372,"surface_km2":16.53,"lat":43.4354,"lon":-0.8088,"fibre_pct":99.2},{"code_insee":"64441","nom":"Pagolle","codes_postaux":["64120"],"code_dep":"64","code_region":"75","population":246,"surface_km2":16.07,"lat":43.228,"lon":-1.0033,"fibre_pct":100.0},{"code_insee":"64442","nom":"Parbayse","codes_postaux":["64360"],"code_dep":"64","code_region":"75","population":316,"surface_km2":6.43,"lat":43.3335,"lon":-0.55,"fibre_pct":100.0},{"code_insee":"64443","nom":"Pardies","codes_postaux":["64150"],"code_dep":"64","code_region":"75","population":930,"surface_km2":5.88,"lat":43.3696,"lon":-0.5889,"fibre_pct":99.0},{"code_insee":"64444","nom":"Pardies-Piétat","codes_postaux":["64800"],"code_dep":"64","code_region":"75","population":434,"surface_km2":7.58,"lat":43.214,"lon":-0.3087,"fibre_pct":98.3},{"code_insee":"64445","nom":"Pau","codes_postaux":["64000"],"code_dep":"64","code_region":"75","population":80441,"surface_km2":31.5,"lat":43.3219,"lon":-0.3435,"fibre_pct":99.6},{"code_insee":"64446","nom":"Peyrelongue-Abos","codes_postaux":["64350"],"code_dep":"64","code_region":"75","population":139,"surface_km2":8.69,"lat":43.4184,"lon":-0.0989,"fibre_pct":97.9},{"code_insee":"64447","nom":"Piets-Plasence-Moustrou","codes_postaux":["64410"],"code_dep":"64","code_region":"75","population":133,"surface_km2":8.37,"lat":43.5303,"lon":-0.502,"fibre_pct":99.1},{"code_insee":"64448","nom":"Poey-de-Lescar","codes_postaux":["64230"],"code_dep":"64","code_region":"75","population":1876,"surface_km2":6.91,"lat":43.3546,"lon":-0.4564,"fibre_pct":100.0},{"code_insee":"64449","nom":"Poey-d'Oloron","codes_postaux":["64400"],"code_dep":"64","code_region":"75","population":163,"surface_km2":4.81,"lat":43.2479,"lon":-0.6621,"fibre_pct":100.0},{"code_insee":"64450","nom":"Pomps","codes_postaux":["64370"],"code_dep":"64","code_region":"75","population":295,"surface_km2":7.77,"lat":43.4864,"lon":-0.5547,"fibre_pct":96.7},{"code_insee":"64451","nom":"Ponson-Debat-Pouts","codes_postaux":["64460"],"code_dep":"64","code_region":"75","population":94,"surface_km2":5.77,"lat":43.3295,"lon":-0.0475,"fibre_pct":22.8},{"code_insee":"64452","nom":"Ponson-Dessus","codes_postaux":["64460"],"code_dep":"64","code_region":"75","population":261,"surface_km2":10.91,"lat":43.3029,"lon":-0.0519,"fibre_pct":2.4},{"code_insee":"64453","nom":"Pontacq","codes_postaux":["64530"],"code_dep":"64","code_region":"75","population":2925,"surface_km2":29.07,"lat":43.2048,"lon":-0.1103,"fibre_pct":92.2},{"code_insee":"64454","nom":"Pontiacq-Viellepinte","codes_postaux":["64460"],"code_dep":"64","code_region":"75","population":170,"surface_km2":7.1,"lat":43.3637,"lon":-0.0561,"fibre_pct":94.4},{"code_insee":"64455","nom":"Portet","codes_postaux":["64330"],"code_dep":"64","code_region":"75","population":161,"surface_km2":7.9,"lat":43.5766,"lon":-0.1856,"fibre_pct":100.0},{"code_insee":"64456","nom":"Pouliacq","codes_postaux":["64410"],"code_dep":"64","code_region":"75","population":49,"surface_km2":3.43,"lat":43.5252,"lon":-0.3574,"fibre_pct":75.9},{"code_insee":"64457","nom":"Poursiugues-Boucoue","codes_postaux":["64410"],"code_dep":"64","code_region":"75","population":183,"surface_km2":9.11,"lat":43.5531,"lon":-0.3751,"fibre_pct":100.0},{"code_insee":"64458","nom":"Préchacq-Josbaig","codes_postaux":["64190"],"code_dep":"64","code_region":"75","population":299,"surface_km2":8.37,"lat":43.2567,"lon":-0.7348,"fibre_pct":100.0},{"code_insee":"64459","nom":"Préchacq-Navarrenx","codes_postaux":["64190"],"code_dep":"64","code_region":"75","population":178,"surface_km2":5.29,"lat":43.2804,"lon":-0.7065,"fibre_pct":100.0},{"code_insee":"64460","nom":"Précilhon","codes_postaux":["64400"],"code_dep":"64","code_region":"75","population":409,"surface_km2":6.38,"lat":43.1935,"lon":-0.572,"fibre_pct":99.5},{"code_insee":"64461","nom":"Puyoô","codes_postaux":["64270"],"code_dep":"64","code_region":"75","population":1077,"surface_km2":9.4,"lat":43.5323,"lon":-0.9039,"fibre_pct":99.9},{"code_insee":"64462","nom":"Ramous","codes_postaux":["64270"],"code_dep":"64","code_region":"75","population":470,"surface_km2":7.65,"lat":43.5252,"lon":-0.8849,"fibre_pct":100.0},{"code_insee":"64463","nom":"Rébénacq","codes_postaux":["64260"],"code_dep":"64","code_region":"75","population":639,"surface_km2":10.6,"lat":43.1571,"lon":-0.3973,"fibre_pct":98.2},{"code_insee":"64464","nom":"Ribarrouy","codes_postaux":["64330"],"code_dep":"64","code_region":"75","population":79,"surface_km2":2.31,"lat":43.5196,"lon":-0.2775,"fibre_pct":100.0},{"code_insee":"64465","nom":"Riupeyrous","codes_postaux":["64160"],"code_dep":"64","code_region":"75","population":240,"surface_km2":4.88,"lat":43.3994,"lon":-0.2298,"fibre_pct":100.0},{"code_insee":"64466","nom":"Rivehaute","codes_postaux":["64190"],"code_dep":"64","code_region":"75","population":271,"surface_km2":8.41,"lat":43.3435,"lon":-0.8611,"fibre_pct":100.0},{"code_insee":"64467","nom":"Rontignon","codes_postaux":["64110"],"code_dep":"64","code_region":"75","population":875,"surface_km2":7.11,"lat":43.2501,"lon":-0.34,"fibre_pct":96.9},{"code_insee":"64468","nom":"Roquiague","codes_postaux":["64130"],"code_dep":"64","code_region":"75","population":121,"surface_km2":10.02,"lat":43.1848,"lon":-0.8416,"fibre_pct":98.0},{"code_insee":"64469","nom":"Saint-Abit","codes_postaux":["64800"],"code_dep":"64","code_region":"75","population":294,"surface_km2":4.25,"lat":43.2048,"lon":-0.3003,"fibre_pct":98.7},{"code_insee":"64470","nom":"Saint-Armou","codes_postaux":["64160"],"code_dep":"64","code_region":"75","population":609,"surface_km2":12.48,"lat":43.4066,"lon":-0.3044,"fibre_pct":99.7},{"code_insee":"64471","nom":"Saint-Boès","codes_postaux":["64300"],"code_dep":"64","code_region":"75","population":376,"surface_km2":9.6,"lat":43.531,"lon":-0.8065,"fibre_pct":98.1},{"code_insee":"64472","nom":"Saint-Castin","codes_postaux":["64160"],"code_dep":"64","code_region":"75","population":862,"surface_km2":7.03,"lat":43.3745,"lon":-0.3098,"fibre_pct":100.0},{"code_insee":"64473","nom":"Sainte-Colome","codes_postaux":["64260"],"code_dep":"64","code_region":"75","population":354,"surface_km2":9.47,"lat":43.1112,"lon":-0.382,"fibre_pct":95.4},{"code_insee":"64474","nom":"Saint-Dos","codes_postaux":["64270"],"code_dep":"64","code_region":"75","population":160,"surface_km2":1.87,"lat":43.4723,"lon":-1.0226,"fibre_pct":96.2},{"code_insee":"64475","nom":"Sainte-Engrâce","codes_postaux":["64560"],"code_dep":"64","code_region":"75","population":169,"surface_km2":73.06,"lat":42.9988,"lon":-0.8264,"fibre_pct":79.0},{"code_insee":"64476","nom":"Saint-Esteben","codes_postaux":["64640"],"code_dep":"64","code_region":"75","population":442,"surface_km2":13.74,"lat":43.3249,"lon":-1.2191,"fibre_pct":91.2},{"code_insee":"64477","nom":"Saint-Étienne-de-Baïgorry","codes_postaux":["64430"],"code_dep":"64","code_region":"75","population":1527,"surface_km2":70.03,"lat":43.1792,"lon":-1.3543,"fibre_pct":97.1},{"code_insee":"64478","nom":"Saint-Faust","codes_postaux":["64110"],"code_dep":"64","code_region":"75","population":738,"surface_km2":13.22,"lat":43.2668,"lon":-0.4467,"fibre_pct":99.3},{"code_insee":"64479","nom":"Saint-Girons-en-Béarn","codes_postaux":["64300"],"code_dep":"64","code_region":"75","population":186,"surface_km2":5.22,"lat":43.5504,"lon":-0.8229,"fibre_pct":100.0},{"code_insee":"64480","nom":"Saint-Gladie-Arrive-Munein","codes_postaux":["64390"],"code_dep":"64","code_region":"75","population":193,"surface_km2":6.59,"lat":43.3696,"lon":-0.9167,"fibre_pct":100.0},{"code_insee":"64481","nom":"Saint-Goin","codes_postaux":["64400"],"code_dep":"64","code_region":"75","population":219,"surface_km2":5.6,"lat":43.2338,"lon":-0.7251,"fibre_pct":100.0},{"code_insee":"64482","nom":"Saint-Jammes","codes_postaux":["64160"],"code_dep":"64","code_region":"75","population":642,"surface_km2":4.11,"lat":43.362,"lon":-0.2532,"fibre_pct":96.4},{"code_insee":"64483","nom":"Saint-Jean-de-Luz","codes_postaux":["64500"],"code_dep":"64","code_region":"75","population":14857,"surface_km2":19.08,"lat":43.3934,"lon":-1.6337,"fibre_pct":89.6},{"code_insee":"64484","nom":"Saint-Jean-le-Vieux","codes_postaux":["64220"],"code_dep":"64","code_region":"75","population":900,"surface_km2":11.64,"lat":43.1733,"lon":-1.2071,"fibre_pct":99.2},{"code_insee":"64485","nom":"Saint-Jean-Pied-de-Port","codes_postaux":["64220"],"code_dep":"64","code_region":"75","population":1479,"surface_km2":2.75,"lat":43.157,"lon":-1.2338,"fibre_pct":96.3},{"code_insee":"64486","nom":"Saint-Jean-Poudge","codes_postaux":["64330"],"code_dep":"64","code_region":"75","population":79,"surface_km2":3.97,"lat":43.5287,"lon":-0.1847,"fibre_pct":100.0},{"code_insee":"64487","nom":"Saint-Just-Ibarre","codes_postaux":["64120"],"code_dep":"64","code_region":"75","population":197,"surface_km2":30.21,"lat":43.1619,"lon":-1.0573,"fibre_pct":100.0},{"code_insee":"64488","nom":"Saint-Laurent-Bretagne","codes_postaux":["64160"],"code_dep":"64","code_region":"75","population":449,"surface_km2":10.66,"lat":43.3805,"lon":-0.2072,"fibre_pct":99.6},{"code_insee":"64489","nom":"Saint-Martin-d'Arberoue","codes_postaux":["64640"],"code_dep":"64","code_region":"75","population":350,"surface_km2":14.81,"lat":43.3431,"lon":-1.1839,"fibre_pct":96.8},{"code_insee":"64490","nom":"Saint-Martin-d'Arrossa","codes_postaux":["64780"],"code_dep":"64","code_region":"75","population":543,"surface_km2":18.44,"lat":43.2312,"lon":-1.3148,"fibre_pct":99.7},{"code_insee":"64491","nom":"Saint-Médard","codes_postaux":["64370"],"code_dep":"64","code_region":"75","population":206,"surface_km2":11.39,"lat":43.5353,"lon":-0.5927,"fibre_pct":100.0},{"code_insee":"64492","nom":"Saint-Michel","codes_postaux":["64220"],"code_dep":"64","code_region":"75","population":290,"surface_km2":29.85,"lat":43.0951,"lon":-1.2381,"fibre_pct":98.1},{"code_insee":"64493","nom":"Saint-Palais","codes_postaux":["64120"],"code_dep":"64","code_region":"75","population":2204,"surface_km2":7.54,"lat":43.3173,"lon":-1.041,"fibre_pct":95.7},{"code_insee":"64494","nom":"Saint-Pé-de-Léren","codes_postaux":["64270"],"code_dep":"64","code_region":"75","population":271,"surface_km2":5.32,"lat":43.4908,"lon":-1.0411,"fibre_pct":98.2},{"code_insee":"64495","nom":"Saint-Pée-sur-Nivelle","codes_postaux":["64310"],"code_dep":"64","code_region":"75","population":7264,"surface_km2":65.54,"lat":43.3469,"lon":-1.5605,"fibre_pct":96.5},{"code_insee":"64496","nom":"Saint-Pierre-d'Irube","codes_postaux":["64990"],"code_dep":"64","code_region":"75","population":5900,"surface_km2":7.82,"lat":43.4628,"lon":-1.4447,"fibre_pct":98.3},{"code_insee":"64498","nom":"Saint-Vincent","codes_postaux":["64800"],"code_dep":"64","code_region":"75","population":402,"surface_km2":16.73,"lat":43.1604,"lon":-0.1588,"fibre_pct":87.3},{"code_insee":"64499","nom":"Salies-de-Béarn","codes_postaux":["64270"],"code_dep":"64","code_region":"75","population":4742,"surface_km2":52.4,"lat":43.4683,"lon":-0.9158,"fibre_pct":93.7},{"code_insee":"64500","nom":"Salles-Mongiscard","codes_postaux":["64300"],"code_dep":"64","code_region":"75","population":315,"surface_km2":5.83,"lat":43.4849,"lon":-0.8416,"fibre_pct":85.2},{"code_insee":"64501","nom":"Sallespisse","codes_postaux":["64300"],"code_dep":"64","code_region":"75","population":591,"surface_km2":15.24,"lat":43.5223,"lon":-0.7163,"fibre_pct":100.0},{"code_insee":"64502","nom":"Sames","codes_postaux":["64520"],"code_dep":"64","code_region":"75","population":709,"surface_km2":13.08,"lat":43.5272,"lon":-1.1668,"fibre_pct":84.6},{"code_insee":"64503","nom":"Samsons-Lion","codes_postaux":["64350"],"code_dep":"64","code_region":"75","population":99,"surface_km2":5.04,"lat":43.433,"lon":-0.1139,"fibre_pct":88.7},{"code_insee":"64504","nom":"Sare","codes_postaux":["64310"],"code_dep":"64","code_region":"75","population":2763,"surface_km2":51.61,"lat":43.2968,"lon":-1.5822,"fibre_pct":94.3},{"code_insee":"64505","nom":"Sarpourenx","codes_postaux":["64300"],"code_dep":"64","code_region":"75","population":285,"surface_km2":3.31,"lat":43.4546,"lon":-0.7126,"fibre_pct":100.0},{"code_insee":"64506","nom":"Sarrance","codes_postaux":["64490"],"code_dep":"64","code_region":"75","population":152,"surface_km2":46.71,"lat":43.0423,"lon":-0.5765,"fibre_pct":0.0},{"code_insee":"64507","nom":"Saubole","codes_postaux":["64420"],"code_dep":"64","code_region":"75","population":156,"surface_km2":5.15,"lat":43.3114,"lon":-0.1071,"fibre_pct":100.0},{"code_insee":"64508","nom":"Saucède","codes_postaux":["64400"],"code_dep":"64","code_region":"75","population":125,"surface_km2":7.12,"lat":43.2629,"lon":-0.6716,"fibre_pct":98.8},{"code_insee":"64509","nom":"Sauguis-Saint-Étienne","codes_postaux":["64470"],"code_dep":"64","code_region":"75","population":172,"surface_km2":8.82,"lat":43.1594,"lon":-0.874,"fibre_pct":100.0},{"code_insee":"64510","nom":"Sault-de-Navailles","codes_postaux":["64300"],"code_dep":"64","code_region":"75","population":976,"surface_km2":22.26,"lat":43.5387,"lon":-0.6705,"fibre_pct":97.9},{"code_insee":"64511","nom":"Sauvagnon","codes_postaux":["64230"],"code_dep":"64","code_region":"75","population":3579,"surface_km2":16.76,"lat":43.3916,"lon":-0.3872,"fibre_pct":97.1},{"code_insee":"64512","nom":"Sauvelade","codes_postaux":["64150"],"code_dep":"64","code_region":"75","population":273,"surface_km2":11.84,"lat":43.393,"lon":-0.7159,"fibre_pct":100.0},{"code_insee":"64513","nom":"Sauveterre-de-Béarn","codes_postaux":["64390"],"code_dep":"64","code_region":"75","population":1375,"surface_km2":14.55,"lat":43.4137,"lon":-0.931,"fibre_pct":98.8},{"code_insee":"64514","nom":"Séby","codes_postaux":["64410"],"code_dep":"64","code_region":"75","population":210,"surface_km2":6.0,"lat":43.4793,"lon":-0.3976,"fibre_pct":100.0},{"code_insee":"64515","nom":"Sedze-Maubecq","codes_postaux":["64160"],"code_dep":"64","code_region":"75","population":225,"surface_km2":7.69,"lat":43.3561,"lon":-0.121,"fibre_pct":96.5},{"code_insee":"64516","nom":"Sedzère","codes_postaux":["64160"],"code_dep":"64","code_region":"75","population":406,"surface_km2":12.7,"lat":43.3429,"lon":-0.1832,"fibre_pct":99.1},{"code_insee":"64517","nom":"Séméacq-Blachon","codes_postaux":["64350"],"code_dep":"64","code_region":"75","population":159,"surface_km2":10.91,"lat":43.5031,"lon":-0.1044,"fibre_pct":100.0},{"code_insee":"64518","nom":"Sendets","codes_postaux":["64320"],"code_dep":"64","code_region":"75","population":1167,"surface_km2":7.84,"lat":43.3037,"lon":-0.2675,"fibre_pct":100.0},{"code_insee":"64519","nom":"Serres-Castet","codes_postaux":["64121"],"code_dep":"64","code_region":"75","population":4418,"surface_km2":13.83,"lat":43.3785,"lon":-0.3648,"fibre_pct":98.8},{"code_insee":"64520","nom":"Serres-Morlaàs","codes_postaux":["64160"],"code_dep":"64","code_region":"75","population":870,"surface_km2":4.2,"lat":43.3224,"lon":-0.2634,"fibre_pct":96.7},{"code_insee":"64521","nom":"Serres-Sainte-Marie","codes_postaux":["64170"],"code_dep":"64","code_region":"75","population":581,"surface_km2":9.69,"lat":43.4176,"lon":-0.5605,"fibre_pct":58.9},{"code_insee":"64522","nom":"Sévignacq-Meyracq","codes_postaux":["64260"],"code_dep":"64","code_region":"75","population":577,"surface_km2":14.91,"lat":43.1401,"lon":-0.3874,"fibre_pct":90.7},{"code_insee":"64523","nom":"Sévignacq","codes_postaux":["64160"],"code_dep":"64","code_region":"75","population":805,"surface_km2":17.43,"lat":43.4536,"lon":-0.2585,"fibre_pct":88.2},{"code_insee":"64524","nom":"Simacourbe","codes_postaux":["64350"],"code_dep":"64","code_region":"75","population":424,"surface_km2":11.12,"lat":43.4455,"lon":-0.165,"fibre_pct":93.2},{"code_insee":"64525","nom":"Siros","codes_postaux":["64230"],"code_dep":"64","code_region":"75","population":848,"surface_km2":2.39,"lat":43.3433,"lon":-0.4916,"fibre_pct":99.2},{"code_insee":"64526","nom":"Soumoulou","codes_postaux":["64420"],"code_dep":"64","code_region":"75","population":1583,"surface_km2":2.82,"lat":43.2621,"lon":-0.1924,"fibre_pct":95.5},{"code_insee":"64527","nom":"Souraïde","codes_postaux":["64250"],"code_dep":"64","code_region":"75","population":1472,"surface_km2":16.96,"lat":43.3431,"lon":-1.4892,"fibre_pct":99.3},{"code_insee":"64528","nom":"Suhescun","codes_postaux":["64780"],"code_dep":"64","code_region":"75","population":165,"surface_km2":11.9,"lat":43.2347,"lon":-1.1957,"fibre_pct":100.0},{"code_insee":"64529","nom":"Sus","codes_postaux":["64190"],"code_dep":"64","code_region":"75","population":371,"surface_km2":11.54,"lat":43.2903,"lon":-0.7797,"fibre_pct":100.0},{"code_insee":"64530","nom":"Susmiou","codes_postaux":["64190"],"code_dep":"64","code_region":"75","population":348,"surface_km2":3.55,"lat":43.3103,"lon":-0.7799,"fibre_pct":100.0},{"code_insee":"64531","nom":"Tabaille-Usquain","codes_postaux":["64190"],"code_dep":"64","code_region":"75","population":47,"surface_km2":4.41,"lat":43.3602,"lon":-0.8914,"fibre_pct":100.0},{"code_insee":"64532","nom":"Tadousse-Ussau","codes_postaux":["64330"],"code_dep":"64","code_region":"75","population":73,"surface_km2":4.72,"lat":43.5461,"lon":-0.1919,"fibre_pct":100.0},{"code_insee":"64533","nom":"Tardets-Sorholus","codes_postaux":["64470"],"code_dep":"64","code_region":"75","population":589,"surface_km2":14.92,"lat":43.1243,"lon":-0.8384,"fibre_pct":98.0},{"code_insee":"64534","nom":"Taron-Sadirac-Viellenave","codes_postaux":["64330"],"code_dep":"64","code_region":"75","population":168,"surface_km2":13.84,"lat":43.5142,"lon":-0.2451,"fibre_pct":100.0},{"code_insee":"64535","nom":"Tarsacq","codes_postaux":["64360"],"code_dep":"64","code_region":"75","population":548,"surface_km2":4.39,"lat":43.3555,"lon":-0.5335,"fibre_pct":61.4},{"code_insee":"64536","nom":"Thèze","codes_postaux":["64450"],"code_dep":"64","code_region":"75","population":898,"surface_km2":7.95,"lat":43.4761,"lon":-0.3451,"fibre_pct":98.5},{"code_insee":"64537","nom":"Trois-Villes","codes_postaux":["64470"],"code_dep":"64","code_region":"75","population":148,"surface_km2":6.45,"lat":43.1402,"lon":-0.8639,"fibre_pct":100.0},{"code_insee":"64538","nom":"Uhart-Cize","codes_postaux":["64220"],"code_dep":"64","code_region":"75","population":816,"surface_km2":11.64,"lat":43.1289,"lon":-1.2537,"fibre_pct":97.4},{"code_insee":"64539","nom":"Uhart-Mixe","codes_postaux":["64120"],"code_dep":"64","code_region":"75","population":213,"surface_km2":11.78,"lat":43.2699,"lon":-1.0167,"fibre_pct":100.0},{"code_insee":"64540","nom":"Urcuit","codes_postaux":["64990"],"code_dep":"64","code_region":"75","population":3047,"surface_km2":13.96,"lat":43.483,"lon":-1.3487,"fibre_pct":98.3},{"code_insee":"64542","nom":"Urdos","codes_postaux":["64490"],"code_dep":"64","code_region":"75","population":71,"surface_km2":36.6,"lat":42.8312,"lon":-0.5331,"fibre_pct":82.1},{"code_insee":"64543","nom":"Urepel","codes_postaux":["64430"],"code_dep":"64","code_region":"75","population":271,"surface_km2":26.34,"lat":43.0617,"lon":-1.4108,"fibre_pct":95.7},{"code_insee":"64544","nom":"Urost","codes_postaux":["64160"],"code_dep":"64","code_region":"75","population":77,"surface_km2":2.33,"lat":43.3395,"lon":-0.1498,"fibre_pct":100.0},{"code_insee":"64545","nom":"Urrugne","codes_postaux":["64122","64700"],"code_dep":"64","code_region":"75","population":10661,"surface_km2":51.61,"lat":43.3507,"lon":-1.7018,"fibre_pct":94.7},{"code_insee":"64546","nom":"Urt","codes_postaux":["64240"],"code_dep":"64","code_region":"75","population":2346,"surface_km2":19.26,"lat":43.4759,"lon":-1.2923,"fibre_pct":96.9},{"code_insee":"64547","nom":"Ustaritz","codes_postaux":["64480"],"code_dep":"64","code_region":"75","population":7897,"surface_km2":32.76,"lat":43.4019,"lon":-1.4704,"fibre_pct":90.8},{"code_insee":"64548","nom":"Uzan","codes_postaux":["64370"],"code_dep":"64","code_region":"75","population":165,"surface_km2":6.28,"lat":43.47,"lon":-0.5027,"fibre_pct":31.0},{"code_insee":"64549","nom":"Uzein","codes_postaux":["64230"],"code_dep":"64","code_region":"75","population":1326,"surface_km2":16.18,"lat":43.396,"lon":-0.4349,"fibre_pct":98.2},{"code_insee":"64550","nom":"Uzos","codes_postaux":["64110"],"code_dep":"64","code_region":"75","population":874,"surface_km2":3.54,"lat":43.2599,"lon":-0.3497,"fibre_pct":99.8},{"code_insee":"64551","nom":"Verdets","codes_postaux":["64400"],"code_dep":"64","code_region":"75","population":300,"surface_km2":5.58,"lat":43.2318,"lon":-0.6431,"fibre_pct":100.0},{"code_insee":"64552","nom":"Vialer","codes_postaux":["64330"],"code_dep":"64","code_region":"75","population":144,"surface_km2":7.34,"lat":43.5101,"lon":-0.1793,"fibre_pct":100.0},{"code_insee":"64554","nom":"Viellenave-d'Arthez","codes_postaux":["64170"],"code_dep":"64","code_region":"75","population":233,"surface_km2":3.92,"lat":43.412,"lon":-0.4757,"fibre_pct":100.0},{"code_insee":"64555","nom":"Viellenave-de-Navarrenx","codes_postaux":["64190"],"code_dep":"64","code_region":"75","population":158,"surface_km2":5.69,"lat":43.3369,"lon":-0.8069,"fibre_pct":98.1},{"code_insee":"64556","nom":"Vielleségure","codes_postaux":["64150"],"code_dep":"64","code_region":"75","population":376,"surface_km2":14.33,"lat":43.3548,"lon":-0.7039,"fibre_pct":97.2},