[{"code_insee":"68001","nom":"Algolsheim","codes_postaux":["68600"],"code_dep":"68","code_region":"44","population":1112,"surface_km2":7.23,"lat":48.0043,"lon":7.5513,"fibre_pct":97.5,"securite":{"taux_pour_mille":4.4,"annee":2024},"socio":{"annee":2021,"revenu_median":26890.0},"vivrescore":93},{"code_insee":"68002","nom":"Altenach","codes_postaux":["68210"],"code_dep":"68","code_region":"44","population":372,"surface_km2":6.2,"lat":47.6005,"lon":7.1077,"fibre_pct":99.5,"securite":{"taux_pour_mille":0.0,"annee":2024},"socio":{"annee":2021,"revenu_median":31860.0},"vivrescore":100},{"code_insee":"68004","nom":"Altkirch","codes_postaux":["68130"],"code_dep":"68","code_region":"44","population":5687,"surface_km2":9.56,"lat":47.6206,"lon":7.2445,"fibre_pct":86.4,"securite":{"taux_pour_mille":40.7,"annee":2024},"socio":{"annee":2021,"revenu_median":23580.0,"taux_pauvrete":15.0},"vivrescore":60},{"code_insee":"68005","nom":"Ammerschwihr","codes_postaux":["68410","68770"],"code_dep":"68","code_region":"44","population":1580,"surface_km2":19.79,"lat":48.1166,"lon":7.2669,"fibre_pct":98.8,"securite":{"taux_pour_mille":4.4,"annee":2024},"socio":{"annee":2021,"revenu_median":27950.0},"vivrescore":93},{"code_insee":"68006","nom":"Bernwiller","codes_postaux":["68210"],"code_dep":"68","code_region":"44","population":1205,"surface_km2":10.62,"lat":47.7025,"lon":7.183,"fibre_pct":98.3,"securite":{"taux_pour_mille":0.0,"annee":2024},"socio":{"annee":2021,"revenu_median":28150.0},"vivrescore":93},{"code_insee":"68007","nom":"Andolsheim","codes_postaux":["68280"],"code_dep":"68","code_region":"44","population":2199,"surface_km2":11.57,"lat":48.0645,"lon":7.4389,"fibre_pct":98.3,"securite":{"taux_pour_mille":5.0,"annee":2024},"socio":{"annee":2021,"revenu_median":28900.0},"vivrescore":93},{"code_insee":"68008","nom":"Appenwihr","codes_postaux":["68280"],"code_dep":"68","code_region":"44","population":586,"surface_km2":7.72,"lat":48.026,"lon":7.4522,"fibre_pct":100.0,"securite":{"taux_pour_mille":0.0,"annee":2024},"socio":{"annee":2021,"revenu_median":24540.0},"vivrescore":87},{"code_insee":"68009","nom":"Artzenheim","codes_postaux":["68320"],"code_dep":"68","code_region":"44","population":857,"surface_km2":9.67,"lat":48.1155,"lon":7.5452,"fibre_pct":85.4,"securite":{"taux_pour_mille":0.0,"annee":2024},"socio":{"annee":2021,"revenu_median":25290.0},"vivrescore":87},{"code_insee":"68010","nom":"Aspach","codes_postaux":["68130"],"code_dep":"68","code_region":"44","population":1138,"surface_km2":4.21,"lat":47.642,"lon":7.2306,"fibre_pct":98.8,"securite":{"taux_pour_mille":0.0,"annee":2024},"socio":{"annee":2021,"revenu_median":27600.0},"vivrescore":93},{"code_insee":"68011","nom":"Aspach-le-Bas","codes_postaux":["68700"],"code_dep":"68","code_region":"44","population":1262,"surface_km2":8.04,"lat":47.7676,"lon":7.1513,"fibre_pct":96.3,"securite":{"taux_pour_mille":6.3,"annee":2024},"socio":{"annee":2021,"revenu_median":28250.0},"vivrescore":87},{"code_insee":"68012","nom":"Aspach-Michelbach","codes_postaux":["68700"],"code_dep":"68","code_region":"44","population":1747,"surface_km2":12.01,"lat":47.7744,"lon":7.1226,"fibre_pct":98.7,"securite":{"taux_pour_mille":4.6,"annee":2024},"socio":{"annee":2021,"revenu_median":28850.0},"vivrescore":93},{"code_insee":"68013","nom":"Attenschwiller","codes_postaux":["68220"],"code_dep":"68","code_region":"44","population":959,"surface_km2":5.13,"lat":47.5675,"lon":7.4687,"fibre_pct":97.6,"securite":{"taux_pour_mille":0.0,"annee":2024},"socio":{"annee":2021,"revenu_median":38110.0},"vivrescore":100},{"code_insee":"68014","nom":"Aubure","codes_postaux":["68150"],"code_dep":"68","code_region":"44","population":353,"surface_km2":4.89,"lat":48.1989,"lon":7.209,"fibre_pct":88.4,"securite":{"taux_pour_mille":0.0,"annee":2024},"socio":{"annee":2021,"revenu_median":24120.0},"vivrescore":80},{"code_insee":"68015","nom":"Baldersheim","codes_postaux":["68390"],"code_dep":"68","code_region":"44","population":2596,"surface_km2":12.77,"lat":47.7968,"lon":7.4063,"fibre_pct":98.9,"securite":{"taux_pour_mille":19.4,"annee":2024},"socio":{"annee":2021,"revenu_median":28480.0},"vivrescore":80},{"code_insee":"68016","nom":"Balgau","codes_postaux":["68740"],"code_dep":"68","code_region":"44","population":947,"surface_km2":9.5,"lat":47.9298,"lon":7.5331,"fibre_pct":98.6,"securite":{"taux_pour_mille":0.0,"annee":2024},"socio":{"annee":2021,"revenu_median":27990.0},"vivrescore":93},{"code_insee":"68017","nom":"Ballersdorf","codes_postaux":["68210"],"code_dep":"68","code_region":"44","population":818,"surface_km2":10.71,"lat":47.6195,"lon":7.1576,"fibre_pct":96.9,"securite":{"taux_pour_mille":0.0,"annee":2024},"socio":{"annee":2021,"revenu_median":27060.0},"vivrescore":93},{"code_insee":"68018","nom":"Balschwiller","codes_postaux":["68210"],"code_dep":"68","code_region":"44","population":729,"surface_km2":9.78,"lat":47.674,"lon":7.1621,"fibre_pct":89.7,"securite":{"taux_pour_mille":0.0,"annee":2024},"socio":{"annee":2021,"revenu_median":26900.0},"vivrescore":87},{"code_insee":"68019","nom":"Baltzenheim","codes_postaux":["68320"],"code_dep":"68","code_region":"44","population":581,"surface_km2":6.48,"lat":48.0973,"lon":7.5487,"fibre_pct":97.8,"securite":{"taux_pour_mille":0.0,"annee":2024},"socio":{"annee":2021,"revenu_median":25780.0},"vivrescore":93},{"code_insee":"68020","nom":"Bantzenheim","codes_postaux":["68490"],"code_dep":"68","code_region":"44","population":1630,"surface_km2":21.18,"lat":47.8226,"lon":7.5032,"fibre_pct":88.9,"securite":{"taux_pour_mille":0.0,"annee":2024},"socio":{"annee":2021,"revenu_median":28030.0},"vivrescore":87},{"code_insee":"68021","nom":"Bartenheim","codes_postaux":["68870"],"code_dep":"68","code_region":"44","population":4211,"surface_km2":12.99,"lat":47.6347,"lon":7.491,"fibre_pct":79.7,"securite":{"taux_pour_mille":29.7,"annee":2024},"socio":{"annee":2021,"revenu_median":34410.0},"vivrescore":67},{"code_insee":"68022","nom":"Battenheim","codes_postaux":["68390"],"code_dep":"68","code_region":"44","population":1560,"surface_km2":16.92,"lat":47.8221,"lon":7.4176,"fibre_pct":92.8,"securite":{"taux_pour_mille":5.8,"annee":2024},"socio":{"annee":2021,"revenu_median":29620.0},"vivrescore":80},{"code_insee":"68023","nom":"Beblenheim","codes_postaux":["68980"],"code_dep":"68","code_region":"44","population":928,"surface_km2":5.6,"lat":48.1619,"lon":7.3393,"fibre_pct":90.6,"securite":{"taux_pour_mille":0.0,"annee":2024},"socio":{"annee":2021,"revenu_median":26180.0},"vivrescore":87},{"code_insee":"68024","nom":"Bellemagny","codes_postaux":["68210"],"code_dep":"68","code_region":"44","population":147,"surface_km2":2.13,"lat":47.6915,"lon":7.058,"fibre_pct":97.1,"securite":{"taux_pour_mille":0.0,"annee":2024},"vivrescore":100},{"code_insee":"68025","nom":"Bendorf","codes_postaux":["68480"],"code_dep":"68","code_region":"44","population":245,"surface_km2":7.42,"lat":47.4847,"lon":7.2812,"fibre_pct":89.2,"securite":{"taux_pour_mille":0.0,"annee":2024},"socio":{"annee":2021,"revenu_median":29800.0},"vivrescore":87},{"code_insee":"68026","nom":"Bennwihr","codes_postaux":["68126","68630"],"code_dep":"68","code_region":"44","population":1326,"surface_km2":6.53,"lat":48.1372,"lon":7.3361,"fibre_pct":98.5,"securite":{"taux_pour_mille":6.0,"annee":2024},"socio":{"annee":2021,"revenu_median":26710.0},"vivrescore":87},{"code_insee":"68027","nom":"Berentzwiller","codes_postaux":["68130"],"code_dep":"68","code_region":"44","population":339,"surface_km2":6.15,"lat":47.5806,"lon":7.3878,"fibre_pct":100.0,"securite":{"taux_pour_mille":0.0,"annee":2024},"socio":{"annee":2021,"revenu_median":35990.0},"vivrescore":100},{"code_insee":"68028","nom":"Bergheim","codes_postaux":["68750"],"code_dep":"68","code_region":"44","population":2069,"surface_km2":19.46,"lat":48.2135,"lon":7.3672,"fibre_pct":95.0,"securite":{"taux_pour_mille":3.4,"annee":2024},"socio":{"annee":2021,"revenu_median":25450.0},"vivrescore":93},{"code_insee":"68029","nom":"Bergholtz","codes_postaux":["68500"],"code_dep":"68","code_region":"44","population":1039,"surface_km2":4.29,"lat":47.9207,"lon":7.2459,"fibre_pct":99.8,"securite":{"taux_pour_mille":0.0,"annee":2024},"socio":{"annee":2021,"revenu_median":26270.0},"vivrescore":93},{"code_insee":"68030","nom":"Bergholtzzell","codes_postaux":["68500"],"code_dep":"68","code_region":"44","population":385,"surface_km2":2.25,"lat":47.9269,"lon":7.224,"fibre_pct":97.9,"securite":{"taux_pour_mille":0.0,"annee":2024},"socio":{"annee":2021,"revenu_median":27910.0},"vivrescore":93},{"code_insee":"68032","nom":"Berrwiller","codes_postaux":["68500"],"code_dep":"68","code_region":"44","population":1294,"surface_km2":7.66,"lat":47.8439,"lon":7.2159,"fibre_pct":94.2,"securite":{"taux_pour_mille":0.0,"annee":2024},"socio":{"annee":2021,"revenu_median":29060.0},"vivrescore":87},{"code_insee":"68033","nom":"Bettendorf","codes_postaux":["68560"],"code_dep":"68","code_region":"44","population":469,"surface_km2":4.72,"lat":47.5793,"lon":7.2838,"fibre_pct":97.6,"securite":{"taux_pour_mille":0.0,"annee":2024},"socio":{"annee":2021,"revenu_median":31200.0},"vivrescore":100},{"code_insee":"68034","nom":"Bettlach","codes_postaux":["68480"],"code_dep":"68","code_region":"44","population":300,"surface_km2":4.17,"lat":47.511,"lon":7.4224,"fibre_pct":98.9,"securite":{"taux_pour_mille":0.0,"annee":2024},"socio":{"annee":2021,"revenu_median":35480.0},"vivrescore":100},{"code_insee":"68035","nom":"Biederthal","codes_postaux":["68480"],"code_dep":"68","code_region":"44","population":331,"surface_km2":4.14,"lat":47.4711,"lon":7.438,"fibre_pct":98.3,"securite":{"taux_pour_mille":0.0,"annee":2024},"socio":{"annee":2021,"revenu_median":37750.0},"vivrescore":100},{"code_insee":"68036","nom":"Biesheim","codes_postaux":["68600"],"code_dep":"68","code_region":"44","population":2499,"surface_km2":16.49,"lat":48.0471,"lon":7.5395,"fibre_pct":99.4,"securite":{"taux_pour_mille":7.1,"annee":2024},"socio":{"annee":2021,"taux_pauvrete":12.0,"revenu_median":25040.0},"vivrescore":85},{"code_insee":"68037","nom":"Biltzheim","codes_postaux":["68127"],"code_dep":"68","code_region":"44","population":510,"surface_km2":7.11,"lat":47.9622,"lon":7.3811,"fibre_pct":98.5,"securite":{"taux_pour_mille":0.0,"annee":2024},"socio":{"annee":2021,"revenu_median":27050.0},"vivrescore":93},{"code_insee":"68038","nom":"Bischwihr","codes_postaux":["68320"],"code_dep":"68","code_region":"44","population":1202,"surface_km2":3.25,"lat":48.0929,"lon":7.4313,"fibre_pct":98.5,"securite":{"taux_pour_mille":0.0,"annee":2024},"socio":{"annee":2021,"revenu_median":27020.0},"vivrescore":93},{"code_insee":"68039","nom":"Bisel","codes_postaux":["68580"],"code_dep":"68","code_region":"44","population":537,"surface_km2":8.11,"lat":47.5381,"lon":7.2224,"fibre_pct":100.0,"securite":{"taux_pour_mille":0.0,"annee":2024},"socio":{"annee":2021,"revenu_median":29880.0},"vivrescore":93},{"code_insee":"68040","nom":"Bitschwiller-lès-Thann","codes_postaux":["68620"],"code_dep":"68","code_region":"44","population":1986,"surface_km2":12.61,"lat":47.8274,"lon":7.0712,"fibre_pct":93.4,"securite":{"taux_pour_mille":12.5,"annee":2024},"socio":{"annee":2021,"revenu_median":22530.0},"vivrescore":73},{"code_insee":"68041","nom":"Blodelsheim","codes_postaux":["68740"],"code_dep":"68","code_region":"44","population":1971,"surface_km2":20.48,"lat":47.8815,"lon":7.5326,"fibre_pct":99.1,"securite":{"taux_pour_mille":5.1,"annee":2024},"socio":{"annee":2021,"revenu_median":27000.0},"vivrescore":87},{"code_insee":"68042","nom":"Blotzheim","codes_postaux":["68730"],"code_dep":"68","code_region":"44","population":5282,"surface_km2":14.98,"lat":47.6051,"lon":7.4906,"fibre_pct":87.0,"securite":{"taux_pour_mille":30.3,"annee":2024},"socio":{"annee":2021,"taux_pauvrete":7.0,"revenu_median":33890.0},"vivrescore":80},{"code_insee":"68043","nom":"Bollwiller","codes_postaux":["68540"],"code_dep":"68","code_region":"44","population":4184,"surface_km2":8.65,"lat":47.8515,"lon":7.2497,"fibre_pct":94.8,"securite":{"taux_pour_mille":21.7,"annee":2024},"socio":{"annee":2021,"revenu_median":23900.0,"taux_pauvrete":9.0},"vivrescore":75},{"code_insee":"68044","nom":"Le Bonhomme","codes_postaux":["68650"],"code_dep":"68","code_region":"44","population":744,"surface_km2":21.98,"lat":48.1621,"lon":7.0991,"fibre_pct":83.2,"securite":{"taux_pour_mille":0.0,"annee":2024},"socio":{"annee":2021,"revenu_median":23460.0},"vivrescore":80},{"code_insee":"68045","nom":"Bourbach-le-Bas","codes_postaux":["68290"],"code_dep":"68","code_region":"44","population":556,"surface_km2":6.05,"lat":47.774,"lon":7.0534,"fibre_pct":93.1,"securite":{"taux_pour_mille":0.0,"annee":2024},"socio":{"annee":2021,"revenu_median":26670.0},"vivrescore":87},{"code_insee":"68046","nom":"Bourbach-le-Haut","codes_postaux":["68290"],"code_dep":"68","code_region":"44","population":408,"surface_km2":6.85,"lat":47.8016,"lon":7.0282,"fibre_pct":100.0,"securite":{"taux_pour_mille":0.0,"annee":2024},"socio":{"annee":2021,"revenu_median":25470.0},"vivrescore":93},{"code_insee":"68049","nom":"Bouxwiller","codes_postaux":["68480"],"code_dep":"68","code_region":"44","population":424,"surface_km2":6.35,"lat":47.5051,"lon":7.3426,"fibre_pct":86.9,"securite":{"taux_pour_mille":0.0,"annee":2024},"socio":{"annee":2021,"revenu_median":36640.0},"vivrescore":93},{"code_insee":"68050","nom":"Bréchaumont","codes_postaux":["68210"],"code_dep":"68","code_region":"44","population":407,"surface_km2":6.5,"lat":47.6637,"lon":7.0585,"fibre_pct":90.7,"securite":{"taux_pour_mille":0.0,"annee":2024},"socio":{"annee":2021,"revenu_median":25480.0},"vivrescore":87},{"code_insee":"68051","nom":"Breitenbach-Haut-Rhin","codes_postaux":["68380"],"code_dep":"68","code_region":"44","population":819,"surface_km2":9.31,"lat":48.0144,"lon":7.1058,"fibre_pct":95.3,"securite":{"taux_pour_mille":0.0,"annee":2024},"socio":{"annee":2021,"revenu_median":23530.0},"vivrescore":87},{"code_insee":"68052","nom":"Bretten","codes_postaux":["68780"],"code_dep":"68","code_region":"44","population":184,"surface_km2":4.22,"lat":47.7061,"lon":7.0635,"fibre_pct":100.0,"securite":{"taux_pour_mille":0.0,"annee":2024},"socio":{"annee":2021,"revenu_median":27320.0},"vivrescore":93},{"code_insee":"68054","nom":"Brinckheim","codes_postaux":["68870"],"code_dep":"68","code_region":"44","population":402,"surface_km2":3.42,"lat":47.6215,"lon":7.4584,"fibre_pct":79.2,"securite":{"taux_pour_mille":0.0,"annee":2024},"socio":{"annee":2021,"revenu_median":39950.0},"vivrescore":87},{"code_insee":"68055","nom":"Bruebach","codes_postaux":["68440"],"code_dep":"68","code_region":"44","population":1042,"surface_km2":7.03,"lat":47.7027,"lon":7.3583,"fibre_pct":98.0,"securite":{"taux_pour_mille":0.0,"annee":2024},"socio":{"annee":2021,"revenu_median":32230.0},"vivrescore":100},{"code_insee":"68056","nom":"Brunstatt-Didenheim","codes_postaux":["68350"],"code_dep":"68","code_region":"44","population":8259,"surface_km2":14.06,"lat":47.7165,"lon":7.3148,"fibre_pct":93.6,"securite":{"taux_pour_mille":26.2,"annee":2024},"socio":{"annee":2021,"revenu_median":28330.0,"taux_pauvrete":9.0},"vivrescore":75},{"code_insee":"68057","nom":"Buethwiller","codes_postaux":["68210"],"code_dep":"68","code_region":"44","population":240,"surface_km2":3.87,"lat":47.6628,"lon":7.141,"fibre_pct":100.0,"securite":{"taux_pour_mille":0.0,"annee":2024},"socio":{"annee":2021,"revenu_median":25520.0},"vivrescore":93},{"code_insee":"68058","nom":"Buhl","codes_postaux":["68530"],"code_dep":"68","code_region":"44","population":3100,"surface_km2":8.76,"lat":47.9259,"lon":7.1799,"fibre_pct":90.7,"securite":{"taux_pour_mille":22.7,"annee":2024},"socio":{"annee":2021,"taux_pauvrete":10.0,"revenu_median":23360.0},"vivrescore":75},{"code_insee":"68059","nom":"Burnhaupt-le-Bas","codes_postaux":["68520"],"code_dep":"68","code_region":"44","population":1969,"surface_km2":11.72,"lat":47.7178,"lon":7.1516,"fibre_pct":97.4,"securite":{"taux_pour_mille":17.2,"annee":2024},"socio":{"annee":2021,"revenu_median":26820.0},"vivrescore":80},{"code_insee":"68060","nom":"Burnhaupt-le-Haut","codes_postaux":["68520"],"code_dep":"68","code_region":"44","population":1793,"surface_km2":12.49,"lat":47.735,"lon":7.1284,"fibre_pct":99.0,"securite":{"taux_pour_mille":5.1,"annee":2024},"socio":{"annee":2021,"revenu_median":26480.0},"vivrescore":87},{"code_insee":"68061","nom":"Buschwiller","codes_postaux":["68220"],"code_dep":"68","code_region":"44","population":1047,"surface_km2":4.09,"lat":47.5563,"lon":7.4976,"fibre_pct":88.1,"securite":{"taux_pour_mille":0.0,"annee":2024},"socio":{"annee":2021,"revenu_median":38960.0},"vivrescore":93},{"code_insee":"68062","nom":"Carspach","codes_postaux":["68130"],"code_dep":"68","code_region":"44","population":2091,"surface_km2":17.17,"lat":47.622,"lon":7.1937,"fibre_pct":81.5,"securite":{"taux_pour_mille":8.2,"annee":2024},"socio":{"annee":2021,"revenu_median":28260.0},"vivrescore":80},{"code_insee":"68063","nom":"Cernay","codes_postaux":["68700"],"code_dep":"68","code_region":"44","population":12057,"surface_km2":18.04,"lat":47.7932,"lon":7.1756,"fibre_pct":87.2,"securite":{"taux_pour_mille":40.1,"annee":2024},"socio":{"annee":2021,"revenu_median":22130.0,"taux_pauvrete":15.0},"vivrescore":60},{"code_insee":"68064","nom":"Chalampé","codes_postaux":["68490"],"code_dep":"68","code_region":"44","population":996,"surface_km2":4.82,"lat":47.8325,"lon":7.5447,"fibre_pct":99.5,"securite":{"taux_pour_mille":7.0,"annee":2024},"socio":{"annee":2021,"revenu_median":27780.0},"vivrescore":87},{"code_insee":"68065","nom":"Chavannes-sur-l'Étang","codes_postaux":["68210"],"code_dep":"68","code_region":"44","population":652,"surface_km2":6.12,"lat":47.637,"lon":7.0335,"fibre_pct":97.9,"securite":{"taux_pour_mille":0.0,"annee":2024},"socio":{"annee":2021,"revenu_median":24330.0},"vivrescore":87},{"code_insee":"68066","nom":"Colmar","codes_postaux":["68000"],"code_dep":"68","code_region":"44","population":66970,"surface_km2":66.5,"lat":48.1115,"lon":7.3924,"fibre_pct":91.5,"securite":{"taux_pour_mille":53.3,"annee":2024},"socio":{"annee":2021,"revenu_median":21120.0,"taux_pauvrete":21.0},"vivrescore":55},{"code_insee":"68067","nom":"Courtavon","codes_postaux":["68480"],"code_dep":"68","code_region":"44","population":343,"surface_km2":9.71,"lat":47.4728,"lon":7.2038,"fibre_pct":99.1,"securite":{"taux_pour_mille":0.0,"annee":2024},"socio":{"annee":2021,"revenu_median":28270.0},"vivrescore":93},{"code_insee":"68068","nom":"Dannemarie","codes_postaux":["68210"],"code_dep":"68","code_region":"44","population":2248,"surface_km2":4.36,"lat":47.6252,"lon":7.1244,"fibre_pct":84.4,"securite":{"taux_pour_mille":35.4,"annee":2024},"socio":{"annee":2021,"revenu_median":23110.0,"taux_pauvrete":13.0},"vivrescore":65},{"code_insee":"68069","nom":"Dessenheim","codes_postaux":["68600"],"code_dep":"68","code_region":"44","population":1442,"surface_km2":19.11,"lat":47.9714,"lon":7.4832,"fibre_pct":95.6,"securite":{"taux_pour_mille":0.0,"annee":2024},"socio":{"annee":2021,"revenu_median":26150.0},"vivrescore":93},{"code_insee":"68071","nom":"Diefmatten","codes_postaux":["68780"],"code_dep":"68","code_region":"44","population":307,"surface_km2":3.16,"lat":47.7069,"lon":7.0994,"fibre_pct":88.7,"securite":{"taux_pour_mille":0.0,"annee":2024},"socio":{"annee":2021,"revenu_median":28740.0},"vivrescore":87},{"code_insee":"68072","nom":"Dietwiller","codes_postaux":["68440"],"code_dep":"68","code_region":"44","population":1385,"surface_km2":11.06,"lat":47.6988,"lon":7.4284,"fibre_pct":91.0,"securite":{"taux_pour_mille":5.7,"annee":2024},"socio":{"annee":2021,"revenu_median":33030.0},"vivrescore":87},{"code_insee":"68073","nom":"Dolleren","codes_postaux":["68290"],"code_dep":"68","code_region":"44","population":449,"surface_km2":8.32,"lat":47.7967,"lon":6.9191,"fibre_pct":91.1,"securite":{"taux_pour_mille":0.0,"annee":2024},"socio":{"annee":2021,"revenu_median":24610.0},"vivrescore":80},{"code_insee":"68074","nom":"Durlinsdorf","codes_postaux":["68480"],"code_dep":"68","code_region":"44","population":498,"surface_km2":7.76,"lat":47.4908,"lon":7.2296,"fibre_pct":98.2,"securite":{"taux_pour_mille":0.0,"annee":2024},"socio":{"annee":2021,"revenu_median":29630.0},"vivrescore":93},{"code_insee":"68075","nom":"Durmenach","codes_postaux":["68480"],"code_dep":"68","code_region":"44","population":836,"surface_km2":5.74,"lat":47.5259,"lon":7.339,"fibre_pct":91.6,"securite":{"taux_pour_mille":0.0,"annee":2024},"socio":{"annee":2021,"revenu_median":28950.0},"vivrescore":87},{"code_insee":"68076","nom":"Durrenentzen","codes_postaux":["68320"],"code_dep":"68","code_region":"44","population":1062,"surface_km2":6.23,"lat":48.093,"lon":7.5071,"fibre_pct":99.4,"securite":{"taux_pour_mille":0.0,"annee":2024},"socio":{"annee":2021,"revenu_median":25550.0},"vivrescore":93},{"code_insee":"68077","nom":"Eglingen","codes_postaux":["68720"],"code_dep":"68","code_region":"44","population":358,"surface_km2":3.74,"lat":47.6577,"lon":7.1817,"fibre_pct":93.6,"securite":{"taux_pour_mille":0.0,"annee":2024},"socio":{"annee":2021,"revenu_median":29330.0},"vivrescore":87},{"code_insee":"68078","nom":"Eguisheim","codes_postaux":["68420"],"code_dep":"68","code_region":"44","population":1729,"surface_km2":14.01,"lat":48.0377,"lon":7.2966,"fibre_pct":98.7,"securite":{"taux_pour_mille":15.0,"annee":2024},"socio":{"annee":2021,"revenu_median":28570.0},"vivrescore":87},{"code_insee":"68079","nom":"Elbach","codes_postaux":["68210"],"code_dep":"68","code_region":"44","population":277,"surface_km2":3.18,"lat":47.642,"lon":7.0703,"fibre_pct":100.0,"securite":{"taux_pour_mille":0.0,"annee":2024},"socio":{"annee":2021,"revenu_median":26810.0},"vivrescore":93},{"code_insee":"68080","nom":"Emlingen","codes_postaux":["68130"],"code_dep":"68","code_region":"44","population":307,"surface_km2":2.44,"lat":47.6259,"lon":7.2911,"fibre_pct":93.9,"securite":{"taux_pour_mille":0.0,"annee":2024},"socio":{"annee":2021,"revenu_median":32860.0},"vivrescore":93},{"code_insee":"68081","nom":"Saint-Bernard","codes_postaux":["68720"],"code_dep":"68","code_region":"44","population":607,"surface_km2":6.06,"lat":47.6661,"lon":7.2061,"fibre_pct":99.4,"securite":{"taux_pour_mille":0.0,"annee":2024},"socio":{"annee":2021,"revenu_median":27400.0},"vivrescore":93},{"code_insee":"68082","nom":"Ensisheim","codes_postaux":["68190"],"code_dep":"68","code_region":"44","population":7306,"surface_km2":36.69,"lat":47.8533,"lon":7.3779,"fibre_pct":87.7,"securite":{"taux_pour_mille":28.1,"annee":2024},"socio":{"annee":2021,"taux_pauvrete":10.0,"revenu_median":23990.0},"vivrescore":70},{"code_insee":"68083","nom":"Eschbach-au-Val","codes_postaux":["68140"],"code_dep":"68","code_region":"44","population":378,"surface_km2":4.83,"lat":48.0215,"lon":7.1467,"fibre_pct":98.3,"securite":{"taux_pour_mille":0.0,"annee":2024},"socio":{"annee":2021,"revenu_median":24300.0},"vivrescore":87},{"code_insee":"68084","nom":"Eschentzwiller","codes_postaux":["68440"],"code_dep":"68","code_region":"44","population":1527,"surface_km2":3.2,"lat":47.7113,"lon":7.3932,"fibre_pct":98.7,"securite":{"taux_pour_mille":6.0,"annee":2024},"socio":{"annee":2021,"revenu_median":34250.0},"vivrescore":93},{"code_insee":"68085","nom":"Eteimbes","codes_postaux":["68210"],"code_dep":"68","code_region":"44","population":405,"surface_km2":4.99,"lat":47.7078,"lon":7.0425,"fibre_pct":98.0,"securite":{"taux_pour_mille":0.0,"annee":2024},"socio":{"annee":2021,"revenu_median":26240.0},"vivrescore":93},{"code_insee":"68086","nom":"Falkwiller","codes_postaux":["68210"],"code_dep":"68","code_region":"44","population":214,"surface_km2":3.56,"lat":47.6789,"lon":7.1267,"fibre_pct":97.4,"securite":{"taux_pour_mille":0.0,"annee":2024},"socio":{"annee":2021,"revenu_median":27270.0},"vivrescore":93},{"code_insee":"68087","nom":"Feldbach","codes_postaux":["68640"],"code_dep":"68","code_region":"44","population":472,"surface_km2":5.05,"lat":47.5358,"lon":7.2534,"fibre_pct":97.1,"securite":{"taux_pour_mille":0.0,"annee":2024},"socio":{"annee":2021,"revenu_median":31430.0},"vivrescore":100},{"code_insee":"68088","nom":"Feldkirch","codes_postaux":["68540"],"code_dep":"68","code_region":"44","population":1047,"surface_km2":4.2,"lat":47.8558,"lon":7.2746,"fibre_pct":100.0,"securite":{"taux_pour_mille":0.0,"annee":2024},"socio":{"annee":2021,"revenu_median":27420.0},"vivrescore":93},{"code_insee":"68089","nom":"Fellering","codes_postaux":["68470"],"code_dep":"68","code_region":"44","population":1569,"surface_km2":21.06,"lat":47.9246,"lon":7.0018,"fibre_pct":97.4,"securite":{"taux_pour_mille":5.0,"annee":2024},"socio":{"annee":2021,"revenu_median":23560.0},"vivrescore":87},{"code_insee":"68090","nom":"Ferrette","codes_postaux":["68480"],"code_dep":"68","code_region":"44","population":864,"surface_km2":1.98,"lat":47.4935,"lon":7.316,"fibre_pct":80.3,"securite":{"taux_pour_mille":0.0,"annee":2024},"socio":{"annee":2021,"revenu_median":25270.0},"vivrescore":87},{"code_insee":"68091","nom":"Fessenheim","codes_postaux":["68740"],"code_dep":"68","code_region":"44","population":2345,"surface_km2":18.58,"lat":47.9094,"lon":7.5305,"fibre_pct":93.5,"securite":{"taux_pour_mille":11.1,"annee":2024},"socio":{"annee":2021,"revenu_median":26870.0},"vivrescore":80},{"code_insee":"68092","nom":"Fislis","codes_postaux":["68480"],"code_dep":"68","code_region":"44","population":396,"surface_km2":7.48,"lat":47.5137,"lon":7.3836,"fibre_pct":98.3,"securite":{"taux_pour_mille":0.0,"annee":2024},"socio":{"annee":2021,"revenu_median":32230.0},"vivrescore":100},{"code_insee":"68093","nom":"Flaxlanden","codes_postaux":["68720"],"code_dep":"68","code_region":"44","population":1370,"surface_km2":4.33,"lat":47.691,"lon":7.3232,"fibre_pct":98.3,"securite":{"taux_pour_mille":0.0,"annee":2024},"socio":{"annee":2021,"revenu_median":31060.0},"vivrescore":100},{"code_insee":"68094","nom":"Folgensbourg","codes_postaux":["68220"],"code_dep":"68","code_region":"44","population":906,"surface_km2":6.81,"lat":47.5387,"lon":7.4435,"fibre_pct":88.7,"securite":{"taux_pour_mille":0.0,"annee":2024},"socio":{"annee":2021,"revenu_median":36700.0},"vivrescore":93},{"code_insee":"68095","nom":"Fortschwihr","codes_postaux":["68320"],"code_dep":"68","code_region":"44","population":1198,"surface_km2":4.78,"lat":48.0822,"lon":7.4508,"fibre_pct":100.0,"securite":{"taux_pour_mille":4.2,"annee":2024},"socio":{"annee":2021,"revenu_median":28260.0},"vivrescore":93},{"code_insee":"68096","nom":"Franken","codes_postaux":["68130"],"code_dep":"68","code_region":"44","population":354,"surface_km2":6.29,"lat":47.5945,"lon":7.3547,"fibre_pct":99.5,"securite":{"taux_pour_mille":0.0,"annee":2024},"socio":{"annee":2021,"revenu_median":36420.0},"vivrescore":100},{"code_insee":"68097","nom":"Fréland","codes_postaux":["68240"],"code_dep":"68","code_region":"44","population":1288,"surface_km2":19.32,"lat":48.1821,"lon":7.1829,"fibre_pct":93.5,"securite":{"taux_pour_mille":4.6,"annee":2024},"socio":{"annee":2021,"revenu_median":24550.0},"vivrescore":80},{"code_insee":"68098","nom":"Friesen","codes_postaux":["68580"],"code_dep":"68","code_region":"44","population":651,"surface_km2":8.42,"lat":47.5597,"lon":7.1497,"fibre_pct":91.7,"securite":{"taux_pour_mille":0.0,"annee":2024},"socio":{"annee":2021,"revenu_median":27880.0},"vivrescore":87},{"code_insee":"68099","nom":"Frœningen","codes_postaux":["68720"],"code_dep":"68","code_region":"44","population":881,"surface_km2":4.47,"lat":47.6972,"lon":7.2589,"fibre_pct":99.4,"securite":{"taux_pour_mille":0.0,"annee":2024},"socio":{"annee":2021,"revenu_median":28010.0},"vivrescore":93},{"code_insee":"68100","nom":"Fulleren","codes_postaux":["68210"],"code_dep":"68","code_region":"44","population":331,"surface_km2":5.31,"lat":47.5917,"lon":7.1621,"fibre_pct":100.0,"securite":{"taux_pour_mille":0.0,"annee":2024},"socio":{"annee":2021,"revenu_median":27450.0},"vivrescore":93},{"code_insee":"68101","nom":"Galfingue","codes_postaux":["68990"],"code_dep":"68","code_region":"44","population":803,"surface_km2":5.36,"lat":47.703,"lon":7.2189,"fibre_pct":91.6,"securite":{"taux_pour_mille":0.0,"annee":2024},"socio":{"annee":2021,"revenu_median":30510.0},"vivrescore":93},{"code_insee":"68102","nom":"Geishouse","codes_postaux":["68690"],"code_dep":"68","code_region":"44","population":424,"surface_km2":7.22,"lat":47.8893,"lon":7.0727,"fibre_pct":96.8,"securite":{"taux_pour_mille":0.0,"annee":2024},"socio":{"annee":2021,"revenu_median":24820.0},"vivrescore":87},{"code_insee":"68103","nom":"Geispitzen","codes_postaux":["68510"],"code_dep":"68","code_region":"44","population":516,"surface_km2":6.04,"lat":47.6759,"lon":7.4377,"fibre_pct":91.7,"securite":{"taux_pour_mille":0.0,"annee":2024},"socio":{"annee":2021,"revenu_median":39910.0},"vivrescore":93},{"code_insee":"68104","nom":"Geiswasser","codes_postaux":["68600"],"code_dep":"68","code_region":"44","population":341,"surface_km2":8.13,"lat":47.9748,"lon":7.6022,"fibre_pct":98.0,"securite":{"taux_pour_mille":0.0,"annee":2024},"socio":{"annee":2021,"revenu_median":26050.0},"vivrescore":93},{"code_insee":"68105","nom":"Gildwiller","codes_postaux":["68210"],"code_dep":"68","code_region":"44","population":261,"surface_km2":5.04,"lat":47.6955,"lon":7.1373,"fibre_pct":88.1,"securite":{"taux_pour_mille":0.0,"annee":2024},"socio":{"annee":2021,"revenu_median":28590.0},"vivrescore":87},{"code_insee":"68106","nom":"Goldbach-Altenbach","codes_postaux":["68760"],"code_dep":"68","code_region":"44","population":261,"surface_km2":9.09,"lat":47.8809,"lon":7.1063,"fibre_pct":99.0,"securite":{"taux_pour_mille":0.0,"annee":2024},"socio":{"annee":2021,"revenu_median":25840.0},"vivrescore":93},{"code_insee":"68107","nom":"Gommersdorf","codes_postaux":["68210"],"code_dep":"68","code_region":"44","population":406,"surface_km2":4.14,"lat":47.642,"lon":7.1328,"fibre_pct":95.3,"securite":{"taux_pour_mille":0.0,"annee":2024},"socio":{"annee":2021,"revenu_median":24930.0},"vivrescore":87},{"code_insee":"68109","nom":"Griesbach-au-Val","codes_postaux":["68140"],"code_dep":"68","code_region":"44","population":678,"surface_km2":4.86,"lat":48.0284,"lon":7.1724,"fibre_pct":98.9,"securite":{"taux_pour_mille":0.0,"annee":2024},"socio":{"annee":2021,"revenu_median":25610.0},"vivrescore":93},{"code_insee":"68110","nom":"Grussenheim","codes_postaux":["68320"],"code_dep":"68","code_region":"44","population":805,"surface_km2":7.56,"lat":48.1465,"lon":7.4921,"fibre_pct":90.7,"securite":{"taux_pour_mille":0.0,"annee":2024},"socio":{"annee":2021,"revenu_median":26400.0},"vivrescore":87},{"code_insee":"68111","nom":"Gueberschwihr","codes_postaux":["68420"],"code_dep":"68","code_region":"44","population":807,"surface_km2":8.94,"lat":48.008,"lon":7.2567,"fibre_pct":94.3,"securite":{"taux_pour_mille":0.0,"annee":2024},"socio":{"annee":2021,"revenu_median":28270.0},"vivrescore":87},{"code_insee":"68112","nom":"Guebwiller","codes_postaux":["68500"],"code_dep":"68","code_region":"44","population":11243,"surface_km2":9.63,"lat":47.9118,"lon":7.2097,"fibre_pct":91.8,"securite":{"taux_pour_mille":48.3,"annee":2024},"socio":{"annee":2021,"revenu_median":21240.0,"taux_pauvrete":18.0},"vivrescore":55},{"code_insee":"68113","nom":"Guémar","codes_postaux":["68970"],"code_dep":"68","code_region":"44","population":1490,"surface_km2":18.17,"lat":48.1955,"lon":7.4212,"fibre_pct":92.0,"securite":{"taux_pour_mille":8.2,"annee":2024},"socio":{"annee":2021,"revenu_median":26170.0},"vivrescore":80},{"code_insee":"68114","nom":"Guevenatten","codes_postaux":["68210"],"code_dep":"68","code_region":"44","population":166,"surface_km2":2.16,"lat":47.6822,"lon":7.0847,"fibre_pct":100.0,"securite":{"taux_pour_mille":0.0,"annee":2024},"socio":{"annee":2021,"revenu_median":27730.0},"vivrescore":93},{"code_insee":"68115","nom":"Guewenheim","codes_postaux":["68116"],"code_dep":"68","code_region":"44","population":1368,"surface_km2":8.56,"lat":47.7485,"lon":7.0964,"fibre_pct":99.1,"securite":{"taux_pour_mille":0.0,"annee":2024},"socio":{"annee":2021,"revenu_median":26300.0},"vivrescore":93},{"code_insee":"68116","nom":"Gundolsheim","codes_postaux":["68250"],"code_dep":"68","code_region":"44","population":735,"surface_km2":8.29,"lat":47.9295,"lon":7.3002,"fibre_pct":99.3,"securite":{"taux_pour_mille":0.0,"annee":2024},"socio":{"annee":2021,"revenu_median":26810.0},"vivrescore":93},{"code_insee":"68117","nom":"Gunsbach","codes_postaux":["68140"],"code_dep":"68","code_region":"44","population":856,"surface_km2":6.15,"lat":48.061,"lon":7.1659,"fibre_pct":91.3,"securite":{"taux_pour_mille":0.0,"annee":2024},"socio":{"annee":2021,"revenu_median":24540.0},"vivrescore":80},{"code_insee":"68118","nom":"Habsheim","codes_postaux":["68440"],"code_dep":"68","code_region":"44","population":5076,"surface_km2":15.65,"lat":47.7271,"lon":7.4333,"fibre_pct":94.7,"securite":{"taux_pour_mille":24.3,"annee":2024},"socio":{"annee":2021,"taux_pauvrete":7.0,"revenu_median":28500.0},"vivrescore":80},{"code_insee":"68119","nom":"Hagenbach","codes_postaux":["68210"],"code_dep":"68","code_region":"44","population":772,"surface_km2":4.84,"lat":47.6471,"lon":7.1656,"fibre_pct":96.3,"securite":{"taux_pour_mille":0.0,"annee":2024},"socio":{"annee":2021,"revenu_median":28320.0},"vivrescore":93},{"code_insee":"68120","nom":"Hagenthal-le-Bas","codes_postaux":["68220"],"code_dep":"68","code_region":"44","population":1418,"surface_km2":6.47,"lat":47.5284,"lon":7.4757,"fibre_pct":94.9,"securite":{"taux_pour_mille":0.0,"annee":2024},"socio":{"annee":2021,"revenu_median":38650.0},"vivrescore":93},{"code_insee":"68121","nom":"Hagenthal-le-Haut","codes_postaux":["68220"],"code_dep":"68","code_region":"44","population":766,"surface_km2":5.04,"lat":47.5195,"lon":7.4565,"fibre_pct":99.4,"securite":{"taux_pour_mille":0.0,"annee":2024},"socio":{"annee":2021,"revenu_median":38870.0},"vivrescore":100},{"code_insee":"68122","nom":"Hartmannswiller","codes_postaux":["68500"],"code_dep":"68","code_region":"44","population":654,"surface_km2":4.77,"lat":47.8612,"lon":7.1969,"fibre_pct":96.7,"securite":{"taux_pour_mille":0.0,"annee":2024},"socio":{"annee":2021,"revenu_median":28090.0},"vivrescore":93},{"code_insee":"68123","nom":"Hattstatt","codes_postaux":["68420"],"code_dep":"68","code_region":"44","population":862,"surface_km2":6.03,"lat":48.0164,"lon":7.2705,"fibre_pct":97.0,"securite":{"taux_pour_mille":0.0,"annee":2024},"socio":{"annee":2021,"revenu_median":27740.0},"vivrescore":93},{"code_insee":"68124","nom":"Hausgauen","codes_postaux":["68130"],"code_dep":"68","code_region":"44","population":369,"surface_km2":5.8,"lat":47.6048,"lon":7.3153,"fibre_pct":87.1,"securite":{"taux_pour_mille":0.0,"annee":2024},"socio":{"annee":2021,"revenu_median":32490.0},"vivrescore":93},{"code_insee":"68125","nom":"Hecken","codes_postaux":["68210"],"code_dep":"68","code_region":"44","population":527,"surface_km2":2.46,"lat":47.6932,"lon":7.1157,"fibre_pct":92.6,"securite":{"taux_pour_mille":0.0,"annee":2024},"socio":{"annee":2021,"revenu_median":28960.0},"vivrescore":87},{"code_insee":"68126","nom":"Hégenheim","codes_postaux":["68220"],"code_dep":"68","code_region":"44","population":3410,"surface_km2":6.95,"lat":47.5607,"lon":7.5275,"fibre_pct":72.7,"securite":{"taux_pour_mille":28.5,"annee":2024},"socio":{"annee":2021,"revenu_median":40800.0},"vivrescore":67},{"code_insee":"68127","nom":"Heidwiller","codes_postaux":["68720"],"code_dep":"68","code_region":"44","population":641,"surface_km2":4.44,"lat":47.6588,"lon":7.2303,"fibre_pct":92.0,"securite":{"taux_pour_mille":0.0,"annee":2024},"socio":{"annee":2021,"revenu_median":28430.0},"vivrescore":87},{"code_insee":"68128","nom":"Heimersdorf","codes_postaux":["68560"],"code_dep":"68","code_region":"44","population":645,"surface_km2":7.61,"lat":47.5625,"lon":7.2354,"fibre_pct":84.8,"securite":{"taux_pour_mille":0.0,"annee":2024},"socio":{"annee":2021,"revenu_median":29260.0},"vivrescore":87},{"code_insee":"68129","nom":"Heimsbrunn","codes_postaux":["68990"],"code_dep":"68","code_region":"44","population":1314,"surface_km2":10.57,"lat":47.7258,"lon":7.2194,"fibre_pct":99.3,"securite":{"taux_pour_mille":0.0,"annee":2024},"socio":{"annee":2021,"revenu_median":30290.0},"vivrescore":100},{"code_insee":"68130","nom":"Heiteren","codes_postaux":["68600"],"code_dep":"68","code_region":"44","population":1069,"surface_km2":22.44,"lat":47.9615,"lon":7.5473,"fibre_pct":88.5,"securite":{"taux_pour_mille":0.0,"annee":2024},"socio":{"annee":2021,"revenu_median":26380.0},"vivrescore":87},{"code_insee":"68131","nom":"Heiwiller","codes_postaux":["68130"],"code_dep":"68","code_region":"44","population":190,"surface_km2":2.06,"lat":47.6247,"lon":7.3231,"fibre_pct":100.0,"securite":{"taux_pour_mille":0.0,"annee":2024},"socio":{"annee":2021,"revenu_median":34910.0},"vivrescore":100},{"code_insee":"68132","nom":"Helfrantzkirch","codes_postaux":["68510"],"code_dep":"68","code_region":"44","population":737,"surface_km2":6.38,"lat":47.6041,"lon":7.4113,"fibre_pct":82.8,"securite":{"taux_pour_mille":0.0,"annee":2024},"socio":{"annee":2021,"revenu_median":36220.0},"vivrescore":93},{"code_insee":"68134","nom":"Herrlisheim-près-Colmar","codes_postaux":["68420"],"code_dep":"68","code_region":"44","population":1911,"surface_km2":7.67,"lat":48.0183,"lon":7.3242,"fibre_pct":97.1,"securite":{"taux_pour_mille":8.9,"annee":2024},"socio":{"annee":2021,"revenu_median":26970.0},"vivrescore":87},{"code_insee":"68135","nom":"Hésingue","codes_postaux":["68220"],"code_dep":"68","code_region":"44","population":2972,"surface_km2":8.99,"lat":47.5809,"lon":7.5141,"fibre_pct":80.0,"securite":{"taux_pour_mille":22.7,"annee":2024},"socio":{"annee":2021,"revenu_median":39120.0},"vivrescore":80},{"code_insee":"68136","nom":"Hettenschlag","codes_postaux":["68600"],"code_dep":"68","code_region":"44","population":357,"surface_km2":7.69,"lat":48.0073,"lon":7.4572,"fibre_pct":100.0,"securite":{"taux_pour_mille":0.0,"annee":2024},"socio":{"annee":2021,"revenu_median":26570.0},"vivrescore":93},{"code_insee":"68137","nom":"Hindlingen","codes_postaux":["68580"],"code_dep":"68","code_region":"44","population":646,"surface_km2":8.07,"lat":47.5687,"lon":7.1449,"fibre_pct":98.3,"securite":{"taux_pour_mille":0.0,"annee":2024},"socio":{"annee":2021,"revenu_median":26240.0},"vivrescore":93},{"code_insee":"68138","nom":"Hirsingue","codes_postaux":["68560"],"code_dep":"68","code_region":"44","population":2122,"surface_km2":12.98,"lat":47.5846,"lon":7.2473,"fibre_pct":85.0,"securite":{"taux_pour_mille":8.0,"annee":2024},"socio":{"annee":2021,"revenu_median":24940.0,"taux_pauvrete":10.0},"vivrescore":80},{"code_insee":"68139","nom":"Hirtzbach","codes_postaux":["68118"],"code_dep":"68","code_region":"44","population":1418,"surface_km2":13.92,"lat":47.5891,"lon":7.2104,"fibre_pct":96.2,"securite":{"taux_pour_mille":6.3,"annee":2024},"socio":{"annee":2021,"revenu_median":27760.0},"vivrescore":87},{"code_insee":"68140","nom":"Hirtzfelden","codes_postaux":["68740"],"code_dep":"68","code_region":"44","population":1259,"surface_km2":22.08,"lat":47.9093,"lon":7.4481,"fibre_pct":97.1,"securite":{"taux_pour_mille":0.0,"annee":2024},"socio":{"annee":2021,"revenu_median":27350.0},"vivrescore":93},{"code_insee":"68141","nom":"Hochstatt","codes_postaux":["68720"],"code_dep":"68","code_region":"44","population":2173,"surface_km2":8.49,"lat":47.7093,"lon":7.2655,"fibre_pct":94.8,"securite":{"taux_pour_mille":11.5,"annee":2024},"socio":{"annee":2021,"revenu_median":29610.0},"vivrescore":80},{"code_insee":"68142","nom":"Hohrod","codes_postaux":["68140"],"code_dep":"68","code_region":"44","population":349,"surface_km2":5.49,"lat":48.0621,"lon":7.1332,"fibre_pct":92.6,"securite":{"taux_pour_mille":0.0,"annee":2024},"socio":{"annee":2021,"revenu_median":23720.0},"vivrescore":80},{"code_insee":"68143","nom":"Porte du Ried","codes_postaux":["68320"],"code_dep":"68","code_region":"44","population":1971,"surface_km2":9.45,"lat":48.1212,"lon":7.4269,"fibre_pct":97.5,"securite":{"taux_pour_mille":5.7,"annee":2024},"socio":{"annee":2021,"revenu_median":27910.0},"vivrescore":87},{"code_insee":"68144","nom":"Hombourg","codes_postaux":["68490"],"code_dep":"68","code_region":"44","population":1358,"surface_km2":15.34,"lat":47.7567,"lon":7.4918,"fibre_pct":99.0,"securite":{"taux_pour_mille":4.4,"annee":2024},"socio":{"annee":2021,"revenu_median":30210.0},"vivrescore":100},{"code_insee":"68145","nom":"Horbourg-Wihr","codes_postaux":["68180"],"code_dep":"68","code_region":"44","population":6199,"surface_km2":9.44,"lat":48.0827,"lon":7.407,"fibre_pct":96.2,"securite":{"taux_pour_mille":24.3,"annee":2024},"socio":{"annee":2021,"taux_pauvrete":7.0,"revenu_median":25580.0},"vivrescore":85},{"code_insee":"68146","nom":"Houssen","codes_postaux":["68125"],"code_dep":"68","code_region":"44","population":2323,"surface_km2":6.74,"lat":48.135,"lon":7.3721,"fibre_pct":96.3,"securite":{"taux_pour_mille":24.6,"annee":2024},"socio":{"annee":2021,"revenu_median":25790.0},"vivrescore":80},{"code_insee":"68147","nom":"Hunawihr","codes_postaux":["68150"],"code_dep":"68","code_region":"44","population":555,"surface_km2":4.74,"lat":48.1827,"lon":7.2996,"fibre_pct":94.9,"securite":{"taux_pour_mille":0.0,"annee":2024},"socio":{"annee":2021,"revenu_median":28850.0},"vivrescore":87},{"code_insee":"68148","nom":"Hundsbach","codes_postaux":["68130"],"code_dep":"68","code_region":"44","population":357,"surface_km2":4.07,"lat":47.5985,"lon":7.3356,"fibre_pct":98.6,"securite":{"taux_pour_mille":0.0,"annee":2024},"socio":{"annee":2021,"revenu_median":33290.0},"vivrescore":100},{"code_insee":"68149","nom":"Huningue","codes_postaux":["68330"],"code_dep":"68","code_region":"44","population":7487,"surface_km2":2.85,"lat":47.5882,"lon":7.5798,"fibre_pct":78.7,"securite":{"taux_pour_mille":43.5,"annee":2024},"socio":{"annee":2021,"revenu_median":25540.0,"taux_pauvrete":18.0},"vivrescore":55},{"code_insee":"68150","nom":"Husseren-les-Châteaux","codes_postaux":["68420"],"code_dep":"68","code_region":"44","population":502,"surface_km2":1.25,"lat":48.0354,"lon":7.2757,"fibre_pct":99.7,"securite":{"taux_pour_mille":0.0,"annee":2024},"socio":{"annee":2021,"revenu_median":30790.0},"vivrescore":100},{"code_insee":"68151","nom":"Husseren-Wesserling","codes_postaux":["68470"],"code_dep":"68","code_region":"44","population":1022,"surface_km2":5.34,"lat":47.877,"lon":6.9847,"fibre_pct":93.0,"securite":{"taux_pour_mille":0.0,"annee":2024},"socio":{"annee":2021,"revenu_median":22460.0},"vivrescore":80},{"code_insee":"68152","nom":"Illfurth","codes_postaux":["68720"],"code_dep":"68","code_region":"44","population":2445,"surface_km2":9.19,"lat":47.6776,"lon":7.2711,"fibre_pct":97.6,"securite":{"taux_pour_mille":13.6,"annee":2024},"socio":{"annee":2021,"revenu_median":27340.0},"vivrescore":87},{"code_insee":"68153","nom":"Illhaeusern","codes_postaux":["68970"],"code_dep":"68","code_region":"44","population":717,"surface_km2":10.53,"lat":48.1784,"lon":7.444,"fibre_pct":98.0,"securite":{"taux_pour_mille":0.0,"annee":2024},"socio":{"annee":2021,"revenu_median":28010.0},"vivrescore":93},{"code_insee":"68154","nom":"Illzach","codes_postaux":["68110"],"code_dep":"68","code_region":"44","population":14923,"surface_km2":7.46,"lat":47.776,"lon":7.3622,"fibre_pct":94.1,"securite":{"taux_pour_mille":41.3,"annee":2024},"socio":{"annee":2021,"taux_pauvrete":20.0,"revenu_median":20570.0},"vivrescore":55},{"code_insee":"68155","nom":"Ingersheim","codes_postaux":["68040"],"code_dep":"68","code_region":"44","population":4774,"surface_km2":7.44,"lat":48.102,"lon":7.3087,"fibre_pct":91.5,"securite":{"taux_pour_mille":18.3,"annee":2024},"socio":{"annee":2021,"revenu_median":23430.0,"taux_pauvrete":13.0},"vivrescore":70},{"code_insee":"68156","nom":"Issenheim","codes_postaux":["68500"],"code_dep":"68","code_region":"44","population":3502,"surface_km2":8.13,"lat":47.9043,"lon":7.2555,"fibre_pct":78.8,"securite":{"taux_pour_mille":12.2,"annee":2024},"socio":{"annee":2021,"revenu_median":24540.0,"taux_pauvrete":8.0},"vivrescore":75},{"code_insee":"68157","nom":"Jebsheim","codes_postaux":["68320"],"code_dep":"68","code_region":"44","population":1360,"surface_km2":14.8,"lat":48.1251,"lon":7.4822,"fibre_pct":96.2,"securite":{"taux_pour_mille":0.0,"annee":2024},"socio":{"annee":2021,"revenu_median":26410.0},"vivrescore":93},{"code_insee":"68158","nom":"Jettingen","codes_postaux":["68130"],"code_dep":"68","code_region":"44","population":522,"surface_km2":6.33,"lat":47.5927,"lon":7.3843,"fibre_pct":99.1,"securite":{"taux_pour_mille":0.0,"annee":2024},"socio":{"annee":2021,"revenu_median":36320.0},"vivrescore":100},{"code_insee":"68159","nom":"Jungholtz","codes_postaux":["68500"],"code_dep":"68","code_region":"44","population":897,"surface_km2":3.98,"lat":47.8886,"lon":7.1823,"fibre_pct":96.5,"securite":{"taux_pour_mille":0.0,"annee":2024},"socio":{"annee":2021,"revenu_median":27500.0},"vivrescore":93},{"code_insee":"68160","nom":"Kappelen","codes_postaux":["68510"],"code_dep":"68","code_region":"44","population":573,"surface_km2":5.16,"lat":47.615,"lon":7.4425,"fibre_pct":97.9,"securite":{"taux_pour_mille":0.0,"annee":2024},"socio":{"annee":2021,"revenu_median":40150.0},"vivrescore":100},{"code_insee":"68161","nom":"Katzenthal","codes_postaux":["68230"],"code_dep":"68","code_region":"44","population":506,"surface_km2":3.44,"lat":48.1052,"lon":7.2778,"fibre_pct":91.4,"securite":{"taux_pour_mille":0.0,"annee":2024},"socio":{"annee":2021,"revenu_median":29690.0},"vivrescore":87},{"code_insee":"68162","nom":"Kaysersberg Vignoble","codes_postaux":["68240"],"code_dep":"68","code_region":"44","population":4383,"surface_km2":35.44,"lat":48.1547,"lon":7.276,"fibre_pct":96.9,"securite":{"taux_pour_mille":30.7,"annee":2024},"socio":{"annee":2021,"revenu_median":25560.0,"taux_pauvrete":9.0},"vivrescore":80},{"code_insee":"68163","nom":"Kembs","codes_postaux":["68680"],"code_dep":"68","code_region":"44","population":5834,"surface_km2":16.5,"lat":47.6742,"lon":7.4977,"fibre_pct":91.4,"securite":{"taux_pour_mille":20.4,"annee":2024},"socio":{"annee":2021,"taux_pauvrete":6.0,"revenu_median":32540.0},"vivrescore":85},{"code_insee":"68165","nom":"Kiffis","codes_postaux":["68480"],"code_dep":"68","code_region":"44","population":238,"surface_km2":6.59,"lat":47.4424,"lon":7.3582,"fibre_pct":96.8,"securite":{"taux_pour_mille":0.0,"annee":2024},"socio":{"annee":2021,"revenu_median":35510.0},"vivrescore":100},{"code_insee":"68166","nom":"Kingersheim","codes_postaux":["68260"],"code_dep":"68","code_region":"44","population":13354,"surface_km2":6.68,"lat":47.7888,"lon":7.3117,"fibre_pct":95.6,"securite":{"taux_pour_mille":35.9,"annee":2024},"socio":{"annee":2021,"taux_pauvrete":13.0,"revenu_median":23170.0},"vivrescore":70},{"code_insee":"68167","nom":"Kirchberg","codes_postaux":["68290"],"code_dep":"68","code_region":"44","population":717,"surface_km2":6.74,"lat":47.7876,"lon":6.9395,"fibre_pct":96.7,"securite":{"taux_pour_mille":0.0,"annee":2024},"socio":{"annee":2021,"revenu_median":23260.0},"vivrescore":87},{"code_insee":"68168","nom":"Knœringue","codes_postaux":["68220"],"code_dep":"68","code_region":"44","population":381,"surface_km2":4.76,"lat":47.5648,"lon":7.4001,"fibre_pct":89.9,"securite":{"taux_pour_mille":0.0,"annee":2024},"socio":{"annee":2021,"revenu_median":36390.0},"vivrescore":93},{"code_insee":"68169","nom":"Kœstlach","codes_postaux":["68480"],"code_dep":"68","code_region":"44","population":505,"surface_km2":8.18,"lat":47.5094,"lon":7.2671,"fibre_pct":98.2,"securite":{"taux_pour_mille":0.0,"annee":2024},"socio":{"annee":2021,"revenu_median":31730.0},"vivrescore":100},{"code_insee":"68170","nom":"Kœtzingue","codes_postaux":["68510"],"code_dep":"68","code_region":"44","population":585,"surface_km2":5.16,"lat":47.6474,"lon":7.3909,"fibre_pct":93.9,"securite":{"taux_pour_mille":0.0,"annee":2024},"socio":{"annee":2021,"revenu_median":33210.0},"vivrescore":93},{"code_insee":"68171","nom":"Kruth","codes_postaux":["68820"],"code_dep":"68","code_region":"44","population":856,"surface_km2":22.04,"lat":47.9502,"lon":6.9622,"fibre_pct":84.9,"securite":{"taux_pour_mille":0.0,"annee":2024},"socio":{"annee":2021,"revenu_median":23690.0},"vivrescore":80},{"code_insee":"68172","nom":"Kunheim","codes_postaux":["68320"],"code_dep":"68","code_region":"44","population":1822,"surface_km2":11.77,"lat":48.0776,"lon":7.5444,"fibre_pct":93.9,"securite":{"taux_pour_mille":5.4,"annee":2024},"socio":{"annee":2021,"revenu_median":25910.0},"vivrescore":80},{"code_insee":"68173","nom":"Labaroche","codes_postaux":["68910"],"code_dep":"68","code_region":"44","population":2231,"surface_km2":13.54,"lat":48.1113,"lon":7.1916,"fibre_pct":97.6,"securite":{"taux_pour_mille":3.7,"annee":2024},"socio":{"annee":2021,"revenu_median":27610.0},"vivrescore":93},{"code_insee":"68174","nom":"Landser","codes_postaux":["68440"],"code_dep":"68","code_region":"44","population":1633,"surface_km2":3.04,"lat":47.6877,"lon":7.3852,"fibre_pct":94.6,"securite":{"taux_pour_mille":8.5,"annee":2024},"socio":{"annee":2021,"revenu_median":27860.0},"vivrescore":80},{"code_insee":"68175","nom":"Lapoutroie","codes_postaux":["68650"],"code_dep":"68","code_region":"44","population":1881,"surface_km2":21.26,"lat":48.1648,"lon":7.1632,"fibre_pct":92.0,"securite":{"taux_pour_mille":8.5,"annee":2024},"socio":{"annee":2021,"revenu_median":23450.0},"vivrescore":73},{"code_insee":"68176","nom":"Largitzen","codes_postaux":["68580"],"code_dep":"68","code_region":"44","population":352,"surface_km2":5.65,"lat":47.5623,"lon":7.1933,"fibre_pct":97.8,"securite":{"taux_pour_mille":0.0,"annee":2024},"socio":{"annee":2021,"revenu_median":30210.0},"vivrescore":100},{"code_insee":"68177","nom":"Lautenbach","codes_postaux":["68610"],"code_dep":"68","code_region":"44","population":1544,"surface_km2":13.3,"lat":47.9548,"lon":7.1696,"fibre_pct":94.2,"securite":{"taux_pour_mille":7.9,"annee":2024},"socio":{"annee":2021,"revenu_median":25140.0},"vivrescore":80},{"code_insee":"68178","nom":"Lautenbachzell","codes_postaux":["68610"],"code_dep":"68","code_region":"44","population":942,"surface_km2":23.33,"lat":47.9235,"lon":7.1049,"fibre_pct":94.6,"securite":{"taux_pour_mille":0.0,"annee":2024},"socio":{"annee":2021,"revenu_median":25040.0},"vivrescore":87},{"code_insee":"68179","nom":"Lauw","codes_postaux":["68290"],"code_dep":"68","code_region":"44","population":887,"surface_km2":4.55,"lat":47.7629,"lon":7.0181,"fibre_pct":98.5,"securite":{"taux_pour_mille":0.0,"annee":2024},"socio":{"annee":2021,"revenu_median":24060.0},"vivrescore":87},{"code_insee":"68180","nom":"Leimbach","codes_postaux":["68800"],"code_dep":"68","code_region":"44","population":928,"surface_km2":3.57,"lat":47.7937,"lon":7.0959,"fibre_pct":99.6,"securite":{"taux_pour_mille":0.0,"annee":2024},"socio":{"annee":2021,"revenu_median":27200.0},"vivrescore":93},{"code_insee":"68181","nom":"Levoncourt","codes_postaux":["68480"],"code_dep":"68","code_region":"44","population":250,"surface_km2":5.25,"lat":47.4466,"lon":7.1922,"fibre_pct":100.0,"securite":{"taux_pour_mille":0.0,"annee":2024},"socio":{"annee":2021,"revenu_median":27870.0},"vivrescore":93},{"code_insee":"68182","nom":"Leymen","codes_postaux":["68220"],"code_dep":"68","code_region":"44","population":1271,"surface_km2":11.62,"lat":47.5015,"lon":7.4829,"fibre_pct":97.7,"securite":{"taux_pour_mille":4.0,"annee":2024},"socio":{"annee":2021,"revenu_median":43890.0},"vivrescore":100},{"code_insee":"68183","nom":"Liebenswiller","codes_postaux":["68220"],"code_dep":"68","code_region":"44","population":191,"surface_km2":3.89,"lat":47.4998,"lon":7.4506,"fibre_pct":99.2,"securite":{"taux_pour_mille":0.0,"annee":2024},"socio":{"annee":2021,"revenu_median":38930.0},"vivrescore":100},{"code_insee":"68184","nom":"Liebsdorf","codes_postaux":["68480"],"code_dep":"68","code_region":"44","population":286,"surface_km2":4.26,"lat":47.4813,"lon":7.2238,"fibre_pct":100.0,"securite":{"taux_pour_mille":0.0,"annee":2024},"socio":{"annee":2021,"revenu_median":31390.0},"vivrescore":100},{"code_insee":"68185","nom":"Lièpvre","codes_postaux":["68660"],"code_dep":"68","code_region":"44","population":1632,"surface_km2":12.53,"lat":48.2633,"lon":7.2874,"fibre_pct":0.0,"securite":{"taux_pour_mille":15.8,"annee":2024},"socio":{"annee":2021,"revenu_median":23180.0},"vivrescore":47},{"code_insee":"68186","nom":"Ligsdorf","codes_postaux":["68480"],"code_dep":"68","code_region":"44","population":317,"surface_km2":9.97,"lat":47.4686,"lon":7.2986,"fibre_pct":94.0,"securite":{"taux_pour_mille":0.0,"annee":2024},"socio":{"annee":2021,"revenu_median":32700.0},"vivrescore":93},{"code_insee":"68187","nom":"Linsdorf","codes_postaux":["68480"],"code_dep":"68","code_region":"44","population":334,"surface_km2":3.41,"lat":47.5145,"lon":7.4068,"fibre_pct":100.0,"securite":{"taux_pour_mille":0.0,"annee":2024},"socio":{"annee":2021,"revenu_median":38220.0},"vivrescore":100},{"code_insee":"68188","nom":"Linthal","codes_postaux":["68610"],"code_dep":"68","code_region":"44","population":586,"surface_km2":20.97,"lat":47.9566,"lon":7.0857,"fibre_pct":58.7,"securite":{"taux_pour_mille":0.0,"annee":2024},"socio":{"annee":2021,"revenu_median":23740.0},"vivrescore":67},{"code_insee":"68189","nom":"Logelheim","codes_postaux":["68280"],"code_dep":"68","code_region":"44","population":950,"surface_km2":4.35,"lat":48.0221,"lon":7.419,"fibre_pct":99.6,"securite":{"taux_pour_mille":0.0,"annee":2024},"socio":{"annee":2021,"revenu_median":29610.0},"vivrescore":93},{"code_insee":"68190","nom":"Lucelle","codes_postaux":["68480"],"code_dep":"68","code_region":"44","population":29,"surface_km2":10.32,"lat":47.4367,"lon":7.2803,"fibre_pct":94.4,"securite":{"taux_pour_mille":0.0,"annee":2024},"vivrescore":90},{"code_insee":"68191","nom":"Luemschwiller","codes_postaux":["68720"],"code_dep":"68","code_region":"44","population":746,"surface_km2":7.31,"lat":47.6548,"lon":7.299,"fibre_pct":93.0,"securite":{"taux_pour_mille":0.0,"annee":2024},"socio":{"annee":2021,"revenu_median":27900.0},"vivrescore":87},{"code_insee":"68192","nom":"Valdieu-Lutran","codes_postaux":["68210"],"code_dep":"68","code_region":"44","population":421,"surface_km2":5.16,"lat":47.6275,"lon":7.0557,"fibre_pct":81.2,"securite":{"taux_pour_mille":0.0,"annee":2024},"socio":{"annee":2021,"revenu_median":24400.0},"vivrescore":80},{"code_insee":"68193","nom":"Luttenbach-près-Munster","codes_postaux":["68140"],"code_dep":"68","code_region":"44","population":756,"surface_km2":7.87,"lat":48.0117,"lon":7.1206,"fibre_pct":97.2,"securite":{"taux_pour_mille":0.0,"annee":2024},"socio":{"annee":2021,"revenu_median":23550.0},"vivrescore":87},{"code_insee":"68194","nom":"Lutter","codes_postaux":["68480"],"code_dep":"68","code_region":"44","population":291,"surface_km2":8.57,"lat":47.4594,"lon":7.3677,"fibre_pct":98.4,"securite":{"taux_pour_mille":0.0,"annee":2024},"socio":{"annee":2021,"revenu_median":33030.0},"vivrescore":100},{"code_insee":"68195","nom":"Lutterbach","codes_postaux":["68460"],"code_dep":"68","code_region":"44","population":6851,"surface_km2":8.54,"lat":47.7596,"lon":7.2682,"fibre_pct":93.6,"securite":{"taux_pour_mille":46.3,"annee":2024},"socio":{"annee":2021,"revenu_median":23660.0,"taux_pauvrete":15.0},"vivrescore":60},{"code_insee":"68196","nom":"Magny","codes_postaux":["68210"],"code_dep":"68","code_region":"44","population":286,"surface_km2":4.28,"lat":47.6068,"lon":7.0486,"fibre_pct":98.8,"securite":{"taux_pour_mille":0.0,"annee":2024},"socio":{"annee":2021,"revenu_median":24570.0},"vivrescore":87},{"code_insee":"68197","nom":"Magstatt-le-Bas","codes_postaux":["68510"],"code_dep":"68","code_region":"44","population":517,"surface_km2":3.34,"lat":47.6371,"lon":7.4119,"fibre_pct":92.1,"securite":{"taux_pour_mille":0.0,"annee":2024},"socio":{"annee":2021,"revenu_median":36090.0},"vivrescore":93},{"code_insee":"68198","nom":"Magstatt-le-Haut","codes_postaux":["68510"],"code_dep":"68","code_region":"44","population":315,"surface_km2":3.94,"lat":47.6262,"lon":7.3946,"fibre_pct":97.8,"securite":{"taux_pour_mille":0.0,"annee":2024},"socio":{"annee":2021,"revenu_median":37710.0},"vivrescore":100},{"code_insee":"68199","nom":"Malmerspach","codes_postaux":["68550"],"code_dep":"68","code_region":"44","population":475,"surface_km2":2.67,"lat":47.8591,"lon":7.0259,"fibre_pct":80.6,"securite":{"taux_pour_mille":0.0,"annee":2024},"socio":{"annee":2021,"revenu_median":21770.0},"vivrescore":80},{"code_insee":"68200","nom":"Manspach","codes_postaux":["68210"],"code_dep":"68","code_region":"44","population":544,"surface_km2":5.34,"lat":47.6116,"lon":7.0936,"fibre_pct":99.7,"securite":{"taux_pour_mille":0.0,"annee":2024},"socio":{"annee":2021,"revenu_median":25310.0},"vivrescore":93},{"code_insee":"68201","nom":"Masevaux-Niederbruck","codes_postaux":["68290"],"code_dep":"68","code_region":"44","population":3594,"surface_km2":26.96,"lat":47.7819,"lon":6.9764,"fibre_pct":95.9,"securite":{"taux_pour_mille":22.1,"annee":2024},"socio":{"annee":2021,"revenu_median":22640.0,"taux_pauvrete":13.0},"vivrescore":75},{"code_insee":"68202","nom":"Mertzen","codes_postaux":["68210"],"code_dep":"68","code_region":"44","population":200,"surface_km2":2.02,"lat":47.5872,"lon":7.1268,"fibre_pct":100.0,"securite":{"taux_pour_mille":0.0,"annee":2024},"socio":{"annee":2021,"revenu_median":26090.0},"vivrescore":93},{"code_insee":"68203","nom":"Merxheim","codes_postaux":["68500"],"code_dep":"68","code_region":"44","population":1396,"surface_km2":9.02,"lat":47.9086,"lon":7.3042,"fibre_pct":98.5,"securite":{"taux_pour_mille":0.0,"annee":2024},"socio":{"annee":2021,"revenu_median":26760.0},"vivrescore":93},{"code_insee":"68204","nom":"Metzeral","codes_postaux":["68380"],"code_dep":"68","code_region":"44","population":1058,"surface_km2":30.71,"lat":47.9924,"lon":7.0334,"fibre_pct":92.5,"securite":{"taux_pour_mille":0.0,"annee":2024},"socio":{"annee":2021,"revenu_median":23650.0},"vivrescore":80},{"code_insee":"68205","nom":"Meyenheim","codes_postaux":["68890"],"code_dep":"68","code_region":"44","population":2015,"surface_km2":12.9,"lat":47.9161,"lon":7.3746,"fibre_pct":98.8,"securite":{"taux_pour_mille":6.9,"annee":2024},"socio":{"annee":2021,"revenu_median":28240.0},"vivrescore":87},{"code_insee":"68207","nom":"Michelbach-le-Bas","codes_postaux":["68730"],"code_dep":"68","code_region":"44","population":722,"surface_km2":5.03,"lat":47.5927,"lon":7.4635,"fibre_pct":94.8,"securite":{"taux_pour_mille":0.0,"annee":2024},"socio":{"annee":2021,"revenu_median":38750.0},"vivrescore":93},{"code_insee":"68208","nom":"Michelbach-le-Haut","codes_postaux":["68220"],"code_dep":"68","code_region":"44","population":636,"surface_km2":7.41,"lat":47.5627,"lon":7.4374,"fibre_pct":97.8,"securite":{"taux_pour_mille":0.0,"annee":2024},"socio":{"annee":2021,"revenu_median":37770.0},"vivrescore":100},{"code_insee":"68209","nom":"Mittelwihr","codes_postaux":["68630"],"code_dep":"68","code_region":"44","population":853,"surface_km2":2.39,"lat":48.1503,"lon":7.3143,"fibre_pct":95.2,"securite":{"taux_pour_mille":0.0,"annee":2024},"socio":{"annee":2021,"revenu_median":26560.0},"vivrescore":93},{"code_insee":"68210","nom":"Mittlach","codes_postaux":["68380"],"code_dep":"68","code_region":"44","population":339,"surface_km2":11.26,"lat":47.9946,"lon":7.0213,"fibre_pct":97.5,"securite":{"taux_pour_mille":0.0,"annee":2024},"socio":{"annee":2021,"revenu_median":23080.0},"vivrescore":87},{"code_insee":"68211","nom":"Mitzach","codes_postaux":["68470"],"code_dep":"68","code_region":"44","population":374,"surface_km2":6.36,"lat":47.8608,"lon":6.9975,"fibre_pct":98.7,"securite":{"taux_pour_mille":0.0,"annee":2024},"socio":{"annee":2021,"revenu_median":25470.0},"vivrescore":93},{"code_insee":"68212","nom":"Mœrnach","codes_postaux":["68480"],"code_dep":"68","code_region":"44","population":518,"surface_km2":6.78,"lat":47.5093,"lon":7.246,"fibre_pct":99.4,"securite":{"taux_pour_mille":0.0,"annee":2024},"socio":{"annee":2021,"revenu_median":31160.0},"vivrescore":100},{"code_insee":"68213","nom":"Mollau","codes_postaux":["68470"],"code_dep":"68","code_region":"44","population":331,"surface_km2":8.75,"lat":47.8605,"lon":6.9624,"fibre_pct":98.3,"securite":{"taux_pour_mille":0.0,"annee":2024},"socio":{"annee":2021,"revenu_median":24500.0},"vivrescore":87},{"code_insee":"68214","nom":"Montreux-Jeune","codes_postaux":["68210"],"code_dep":"68","code_region":"44","population":368,"surface_km2":3.37,"lat":47.6033,"lon":7.0221,"fibre_pct":100.0,"securite":{"taux_pour_mille":0.0,"annee":2024},"socio":{"annee":2021,"revenu_median":25980.0},"vivrescore":93},{"code_insee":"68215","nom":"Montreux-Vieux","codes_postaux":["68210"],"code_dep":"68","code_region":"44","population":928,"surface_km2":4.18,"lat":47.62,"lon":7.0242,"fibre_pct":95.7,"securite":{"taux_pour_mille":0.0,"annee":2024},"socio":{"annee":2021,"revenu_median":24340.0},"vivrescore":87},{"code_insee":"68216","nom":"Mooslargue","codes_postaux":["68580"],"code_dep":"68","code_region":"44","population":401,"surface_km2":5.61,"lat":47.511,"lon":7.2151,"fibre_pct":80.4,"securite":{"taux_pour_mille":0.0,"annee":2024},"socio":{"annee":2021,"revenu_median":30090.0},"vivrescore":93},{"code_insee":"68217","nom":"Moosch","codes_postaux":["68690"],"code_dep":"68","code_region":"44","population":1595,"surface_km2":15.33,"lat":47.8483,"lon":7.0301,"fibre_pct":96.8,"securite":{"taux_pour_mille":0.0,"annee":2024},"socio":{"annee":2021,"revenu_median":23280.0},"vivrescore":87},{"code_insee":"68218","nom":"Morschwiller-le-Bas","codes_postaux":["68790"],"code_dep":"68","code_region":"44","population":3694,"surface_km2":7.52,"lat":47.7334,"lon":7.2645,"fibre_pct":95.9,"securite":{"taux_pour_mille":24.0,"annee":2024},"socio":{"annee":2021,"taux_pauvrete":9.0,"revenu_median":27010.0},"vivrescore":85},{"code_insee":"68219","nom":"Le Haut Soultzbach","codes_postaux":["68780"],"code_dep":"68","code_region":"44","population":879,"surface_km2":11.73,"lat":47.7323,"lon":7.0493,"fibre_pct":99.5,"securite":{"taux_pour_mille":0.0,"annee":2024},"socio":{"annee":2021,"revenu_median":27440.0},"vivrescore":93},{"code_insee":"68221","nom":"Muespach","codes_postaux":["68640"],"code_dep":"68","code_region":"44","population":942,"surface_km2":11.38,"lat":47.5508,"lon":7.3723,"fibre_pct":99.5,"securite":{"taux_pour_mille":0.0,"annee":2024},"socio":{"annee":2021,"revenu_median":37610.0},"vivrescore":100},{"code_insee":"68222","nom":"Muespach-le-Haut","codes_postaux":["68640"],"code_dep":"68","code_region":"44","population":1178,"surface_km2":6.88,"lat":47.5412,"lon":7.4091,"fibre_pct":95.2,"securite":{"taux_pour_mille":0.0,"annee":2024},"socio":{"annee":2021,"revenu_median":36400.0},"vivrescore":100},{"code_insee":"68223","nom":"Muhlbach-sur-Munster","codes_postaux":["68380"],"code_dep":"68","code_region":"44","population":818,"surface_km2":7.84,"lat":48.025,"lon":7.0651,"fibre_pct":97.5,"securite":{"taux_pour_mille":0.0,"annee":2024},"socio":{"annee":2021,"revenu_median":23820.0},"vivrescore":87},{"code_insee":"68224","nom":"Mulhouse","codes_postaux":["68100","68200"],"code_dep":"68","code_region":"44","population":104978,"surface_km2":22.4,"lat":47.7526,"lon":7.3255,"fibre_pct":91.4,"securite":{"taux_pour_mille":73.8,"annee":2024},"socio":{"annee":2021,"taux_pauvrete":36.0,"revenu_median":16620.0},"vivrescore":40},{"code_insee":"68225","nom":"Munchhouse","codes_postaux":["68740"],"code_dep":"68","code_region":"44","population":1518,"surface_km2":24.08,"lat":47.8548,"lon":7.4467,"fibre_pct":94.7,"securite":{"taux_pour_mille":0.0,"annee":2024},"socio":{"annee":2021,"revenu_median":27690.0},"vivrescore":87},{"code_insee":"68226","nom":"Munster","codes_postaux":["68140"],"code_dep":"68","code_region":"44","population":4738,"surface_km2":8.8,"lat":48.0463,"lon":7.1328,"fibre_pct":96.3,"securite":{"taux_pour_mille":23.6,"annee":2024},"socio":{"annee":2021,"taux_pauvrete":13.0,"revenu_median":21740.0},"vivrescore":75},{"code_insee":"68227","nom":"Muntzenheim","codes_postaux":["68320"],"code_dep":"68","code_region":"44","population":1288,"surface_km2":6.48,"lat":48.0995,"lon":7.4668,"fibre_pct":83.5,"securite":{"taux_pour_mille":0.0,"annee":2024},"socio":{"annee":2021,"revenu_median":26350.0},"vivrescore":87},{"code_insee":"68228","nom":"Munwiller","codes_postaux":["68250"],"code_dep":"68","code_region":"44","population":461,"surface_km2":6.67,"lat":47.9357,"lon":7.3508,"fibre_pct":99.6,"securite":{"taux_pour_mille":0.0,"annee":2024},"socio":{"annee":2021,"revenu_median":27070.0},"vivrescore":93},{"code_insee":"68229","nom":"Murbach","codes_postaux":["68530"],"code_dep":"68","code_region":"44","population":164,"surface_km2":6.4,"lat":47.9163,"lon":7.1323,"fibre_pct":90.9,"securite":{"taux_pour_mille":0.0,"annee":2024},"socio":{"annee":2021,"revenu_median":30380.0},"vivrescore":93},{"code_insee":"68230","nom":"Nambsheim","codes_postaux":["68740"],"code_dep":"68","code_region":"44","population":576,"surface_km2":10.08,"lat":47.9419,"lon":7.563,"fibre_pct":76.8,"securite":{"taux_pour_mille":0.0,"annee":2024},"socio":{"annee":2021,"revenu_median":26770.0},"vivrescore":80},{"code_insee":"68231","nom":"Neuf-Brisach","codes_postaux":["68600"],"code_dep":"68","code_region":"44","population":1895,"surface_km2":1.27,"lat":48.0176,"lon":7.5277,"fibre_pct":96.4,"securite":{"taux_pour_mille":23.1,"annee":2024},"socio":{"annee":2021,"revenu_median":21340.0},"vivrescore":73},{"code_insee":"68232","nom":"Neuwiller","codes_postaux":["68220"],"code_dep":"68","code_region":"44","population":525,"surface_km2":3.79,"lat":47.5248,"lon":7.5133,"fibre_pct":97.3,"securite":{"taux_pour_mille":0.0,"annee":2024},"socio":{"annee":2021,"revenu_median":44800.0},"vivrescore":100},{"code_insee":"68234","nom":"Niederentzen","codes_postaux":["68127"],"code_dep":"68","code_region":"44","population":857,"surface_km2":8.8,"lat":47.9458,"lon":7.3919,"fibre_pct":85.7,"securite":{"taux_pour_mille":0.0,"annee":2024},"socio":{"annee":2021,"revenu_median":27620.0},"vivrescore":87},{"code_insee":"68235","nom":"Niederhergheim","codes_postaux":["68127"],"code_dep":"68","code_region":"44","population":1176,"surface_km2":12.4,"lat":47.9955,"lon":7.3948,"fibre_pct":99.8,"securite":{"taux_pour_mille":0.0,"annee":2024},"socio":{"annee":2021,"revenu_median":27670.0},"vivrescore":93},{"code_insee":"68237","nom":"Niedermorschwihr","codes_postaux":["68230"],"code_dep":"68","code_region":"44","population":537,"surface_km2":3.38,"lat":48.1015,"lon":7.2582,"fibre_pct":97.3,"securite":{"taux_pour_mille":0.0,"annee":2024},"socio":{"annee":2021,"revenu_median":30360.0},"vivrescore":100},{"code_insee":"68238","nom":"Niffer","codes_postaux":["68680"],"code_dep":"68","code_region":"44","population":985,"surface_km2":8.72,"lat":47.7138,"lon":7.5013,"fibre_pct":93.4,"securite":{"taux_pour_mille":0.0,"annee":2024},"socio":{"annee":2021,"revenu_median":34630.0},"vivrescore":93},{"code_insee":"68239","nom":"Oberbruck","codes_postaux":["68290"],"code_dep":"68","code_region":"44","population":380,"surface_km2":4.25,"lat":47.8187,"lon":6.9254,"fibre_pct":98.3,"securite":{"taux_pour_mille":0.0,"annee":2024},"socio":{"annee":2021,"revenu_median":21730.0},"vivrescore":87},{"code_insee":"68240","nom":"Illtal","codes_postaux":["68960"],"code_dep":"68","code_region":"44","population":1203,"surface_km2":11.99,"lat":47.5627,"lon":7.3015,"fibre_pct":92.2,"securite":{"taux_pour_mille":4.1,"annee":2024},"socio":{"annee":2021,"revenu_median":31100.0},"vivrescore":93},{"code_insee":"68241","nom":"Oberentzen","codes_postaux":["68127"],"code_dep":"68","code_region":"44","population":723,"surface_km2":8.91,"lat":47.9426,"lon":7.3805,"fibre_pct":100.0,"securite":{"taux_pour_mille":0.0,"annee":2024},"socio":{"annee":2021,"revenu_median":26740.0},"vivrescore":93},{"code_insee":"68242","nom":"Oberhergheim","codes_postaux":["68127"],"code_dep":"68","code_region":"44","population":1315,"surface_km2":19.91,"lat":47.9681,"lon":7.3924,"fibre_pct":87.6,"securite":{"taux_pour_mille":0.0,"annee":2024},"socio":{"annee":2021,"revenu_median":25290.0},"vivrescore":87},{"code_insee":"68243","nom":"Oberlarg","codes_postaux":["68480"],"code_dep":"68","code_region":"44","population":143,"surface_km2":8.22,"lat":47.4534,"lon":7.2292,"fibre_pct":97.4,"securite":{"taux_pour_mille":0.0,"annee":2024},"socio":{"annee":2021,"revenu_median":30540.0},"vivrescore":100},{"code_insee":"68244","nom":"Obermorschwihr","codes_postaux":["68420"],"code_dep":"68","code_region":"44","population":420,"surface_km2":1.59,"lat":48.0218,"lon":7.2899,"fibre_pct":96.3,"securite":{"taux_pour_mille":0.0,"annee":2024},"socio":{"annee":2021,"revenu_median":28270.0},"vivrescore":93},{"code_insee":"68245","nom":"Obermorschwiller","codes_postaux":["68130"],"code_dep":"68","code_region":"44","population":409,"surface_km2":6.08,"lat":47.6421,"lon":7.3179,"fibre_pct":100.0,"securite":{"taux_pour_mille":0.0,"annee":2024},"socio":{"annee":2021,"revenu_median":32720.0},"vivrescore":100},{"code_insee":"68246","nom":"Obersaasheim","codes_postaux":["68600"],"code_dep":"68","code_region":"44","population":1060,"surface_km2":12.91,"lat":47.9837,"lon":7.5553,"fibre_pct":99.5,"securite":{"taux_pour_mille":0.0,"annee":2024},"socio":{"annee":2021,"revenu_median":26510.0},"vivrescore":93},{"code_insee":"68247","nom":"Oderen","codes_postaux":["68830"],"code_dep":"68","code_region":"44","population":1215,"surface_km2":19.21,"lat":47.9335,"lon":6.99,"fibre_pct":85.1,"securite":{"taux_pour_mille":0.0,"annee":2024},"socio":{"annee":2021,"revenu_median":22540.0},"vivrescore":80},{"code_insee":"68248","nom":"Oltingue","codes_postaux":["68480"],"code_dep":"68","code_region":"44","population":695,"surface_km2":13.37,"lat":47.4898,"lon":7.4001,"fibre_pct":99.4,"securite":{"taux_pour_mille":0.0,"annee":2024},"socio":{"annee":2021,"revenu_median":35400.0},"vivrescore":100},{"code_insee":"68249","nom":"Orbey","codes_postaux":["68370"],"code_dep":"68","code_region":"44","population":3429,"surface_km2":45.82,"lat":48.1158,"lon":7.1341,"fibre_pct":93.1,"securite":{"taux_pour_mille":12.2,"annee":2024},"socio":{"annee":2021,"revenu_median":24070.0,"taux_pauvrete":10.0},"vivrescore":80},{"code_insee":"68250","nom":"Orschwihr","codes_postaux":["68500"],"code_dep":"68","code_region":"44","population":1010,"surface_km2":7.05,"lat":47.9381,"lon":7.2332,"fibre_pct":95.2,"securite":{"taux_pour_mille":0.0,"annee":2024},"socio":{"annee":2021,"revenu_median":27530.0},"vivrescore":93},{"code_insee":"68251","nom":"Osenbach","codes_postaux":["68570"],"code_dep":"68","code_region":"44","population":810,"surface_km2":5.74,"lat":47.9925,"lon":7.2162,"fibre_pct":95.7,"securite":{"taux_pour_mille":0.0,"annee":2024},"socio":{"annee":2021,"revenu_median":29160.0},"vivrescore":93},{"code_insee":"68252","nom":"Ostheim","codes_postaux":["68150"],"code_dep":"68","code_region":"44","population":1651,"surface_km2":8.18,"lat":48.153,"lon":7.3785,"fibre_pct":96.8,"securite":{"taux_pour_mille":0.0,"annee":2024},"socio":{"annee":2021,"revenu_median":25070.0},"vivrescore":93},{"code_insee":"68253","nom":"Ottmarsheim","codes_postaux":["68490"],"code_dep":"68","code_region":"44","population":2054,"surface_km2":25.65,"lat":47.7856,"lon":7.493,"fibre_pct":85.2,"securite":{"taux_pour_mille":39.5,"annee":2024},"socio":{"annee":2021,"revenu_median":26410.0},"vivrescore":67},{"code_insee":"68254","nom":"Petit-Landau","codes_postaux":["68490"],"code_dep":"68","code_region":"44","population":822,"surface_km2":17.49,"lat":47.7348,"lon":7.5023,"fibre_pct":87.2,"securite":{"taux_pour_mille":0.0,"annee":2024},"socio":{"annee":2021,"revenu_median":31570.0},"vivrescore":93},{"code_insee":"68255","nom":"Pfaffenheim","codes_postaux":["68250"],"code_dep":"68","code_region":"44","population":1373,"surface_km2":14.72,"lat":47.9975,"lon":7.2482,"fibre_pct":96.8,"securite":{"taux_pour_mille":5.2,"annee":2024},"socio":{"annee":2021,"revenu_median":26540.0},"vivrescore":87},{"code_insee":"68256","nom":"Pfastatt","codes_postaux":["68120"],"code_dep":"68","code_region":"44","population":10314,"surface_km2":5.23,"lat":47.7679,"lon":7.2881,"fibre_pct":95.8,"securite":{"taux_pour_mille":22.2,"annee":2024},"socio":{"annee":2021,"taux_pauvrete":14.0,"revenu_median":23270.0},"vivrescore":75},{"code_insee":"68257","nom":"Pfetterhouse","codes_postaux":["68480"],"code_dep":"68","code_region":"44","population":987,"surface_km2":14.27,"lat":47.5089,"lon":7.1669,"fibre_pct":95.4,"securite":{"taux_pour_mille":0.0,"annee":2024},"socio":{"annee":2021,"revenu_median":28630.0},"vivrescore":93},{"code_insee":"68258","nom":"Pulversheim","codes_postaux":["68840"],"code_dep":"68","code_region":"44","population":3069,"surface_km2":8.53,"lat":47.8408,"lon":7.3016,"fibre_pct":96.4,"securite":{"taux_pour_mille":10.7,"annee":2024},"socio":{"annee":2021,"revenu_median":25750.0,"taux_pauvrete":7.0},"vivrescore":90},{"code_insee":"68259","nom":"Raedersdorf","codes_postaux":["68480"],"code_dep":"68","code_region":"44","population":481,"surface_km2":7.34,"lat":47.4736,"lon":7.3525,"fibre_pct":94.7,"securite":{"taux_pour_mille":0.0,"annee":2024},"socio":{"annee":2021,"revenu_median":33070.0},"vivrescore":93},{"code_insee":"68260","nom":"Raedersheim","codes_postaux":["68190"],"code_dep":"68","code_region":"44","population":1173,"surface_km2":5.71,"lat":47.8841,"lon":7.2775,"fibre_pct":96.6,"securite":{"taux_pour_mille":0.0,"annee":2024},"socio":{"annee":2021,"revenu_median":27780.0},"vivrescore":93},{"code_insee":"68261","nom":"Rammersmatt","codes_postaux":["68800"],"code_dep":"68","code_region":"44","population":219,"surface_km2":5.02,"lat":47.793,"lon":7.0597,"fibre_pct":98.6,"securite":{"taux_pour_mille":0.0,"annee":2024},"socio":{"annee":2021,"revenu_median":31060.0},"vivrescore":100},{"code_insee":"68262","nom":"Ranspach","codes_postaux":["68470"],"code_dep":"68","code_region":"44","population":769,"surface_km2":11.3,"lat":47.9017,"lon":7.0263,"fibre_pct":93.4,"securite":{"taux_pour_mille":0.0,"annee":2024},"socio":{"annee":2021,"revenu_median":22920.0},"vivrescore":80},{"code_insee":"68263","nom":"Ranspach-le-Bas","codes_postaux":["68730"],"code_dep":"68","code_region":"44","population":640,"surface_km2":4.54,"lat":47.5885,"lon":7.4479,"fibre_pct":85.1,"securite":{"taux_pour_mille":0.0,"annee":2024},"socio":{"annee":2021,"revenu_median":36050.0},"vivrescore":93},{"code_insee":"68264","nom":"Ranspach-le-Haut","codes_postaux":["68220"],"code_dep":"68","code_region":"44","population":627,"surface_km2":4.41,"lat":47.5809,"lon":7.4208,"fibre_pct":86.9,"securite":{"taux_pour_mille":0.0,"annee":2024},"socio":{"annee":2021,"revenu_median":39650.0},"vivrescore":93},{"code_insee":"68265","nom":"Rantzwiller","codes_postaux":["68510"],"code_dep":"68","code_region":"44","population":802,"surface_km2":5.24,"lat":47.6483,"lon":7.3706,"fibre_pct":93.8,"securite":{"taux_pour_mille":0.0,"annee":2024},"socio":{"annee":2021,"revenu_median":36430.0},"vivrescore":93},{"code_insee":"68266","nom":"Réguisheim","codes_postaux":["68890"],"code_dep":"68","code_region":"44","population":2011,"surface_km2":23.78,"lat":47.8922,"lon":7.37,"fibre_pct":91.4,"securite":{"taux_pour_mille":8.3,"annee":2024},"socio":{"annee":2021,"revenu_median":26020.0},"vivrescore":80},{"code_insee":"68267","nom":"Reiningue","codes_postaux":["68950"],"code_dep":"68","code_region":"44","population":1894,"surface_km2":18.55,"lat":47.7548,"lon":7.2202,"fibre_pct":95.9,"securite":{"taux_pour_mille":8.3,"annee":2024},"socio":{"annee":2021,"revenu_median":27250.0},"vivrescore":87},{"code_insee":"68268","nom":"Retzwiller","codes_postaux":["68210"],"code_dep":"68","code_region":"44","population":689,"surface_km2":4.13,"lat":47.6288,"lon":7.0889,"fibre_pct":92.2,"securite":{"taux_pour_mille":0.0,"annee":2024},"socio":{"annee":2021,"revenu_median":25130.0},"vivrescore":87},{"code_insee":"68269","nom":"Ribeauvillé","codes_postaux":["68150"],"code_dep":"68","code_region":"44","population":4685,"surface_km2":32.18,"lat":48.2056,"lon":7.2942,"fibre_pct":82.5,"securite":{"taux_pour_mille":27.9,"annee":2024},"socio":{"annee":2021,"taux_pauvrete":13.0,"revenu_median":24150.0},"vivrescore":65},{"code_insee":"68270","nom":"Richwiller","codes_postaux":["68120"],"code_dep":"68","code_region":"44","population":3905,"surface_km2":5.55,"lat":47.7843,"lon":7.2812,"fibre_pct":97.0,"securite":{"taux_pour_mille":16.1,"annee":2024},"socio":{"annee":2021,"revenu_median":25850.0,"taux_pauvrete":7.0},"vivrescore":85},{"code_insee":"68271","nom":"Riedisheim","codes_postaux":["68400"],"code_dep":"68","code_region":"44","population":12200,"surface_km2":6.91,"lat":47.7393,"lon":7.3636,"fibre_pct":96.4,"securite":{"taux_pour_mille":26.4,"annee":2024},"socio":{"annee":2021,"revenu_median":25720.0,"taux_pauvrete":12.0},"vivrescore":75},{"code_insee":"68273","nom":"Riespach","codes_postaux":["68640"],"code_dep":"68","code_region":"44","population":653,"surface_km2":7.58,"lat":47.5371,"lon":7.29,"fibre_pct":94.5,"securite":{"taux_pour_mille":0.0,"annee":2024},"socio":{"annee":2021,"revenu_median":31500.0},"vivrescore":93},{"code_insee":"68274","nom":"Rimbach-près-Guebwiller","codes_postaux":["68500"],"code_dep":"68","code_region":"44","population":216,"surface_km2":4.82,"lat":47.902,"lon":7.1533,"fibre_pct":98.1,"securite":{"taux_pour_mille":75.8,"annee":2024},"socio":{"annee":2021,"revenu_median":25340.0},"vivrescore":67},{"code_insee":"68275","nom":"Rimbach-près-Masevaux","codes_postaux":["68290"],"code_dep":"68","code_region":"44","population":430,"surface_km2":16.51,"lat":47.8339,"lon":6.9433,"fibre_pct":98.0,"securite":{"taux_pour_mille":0.0,"annee":2024},"socio":{"annee":2021,"revenu_median":24120.0},"vivrescore":87},{"code_insee":"68276","nom":"Rimbachzell","codes_postaux":["68500"],"code_dep":"68","code_region":"44","population":188,"surface_km2":1.74,"lat":47.8977,"lon":7.1743,"fibre_pct":98.5,"securite":{"taux_pour_mille":0.0,"annee":2024},"socio":{"annee":2021,"revenu_median":24950.0},"vivrescore":87},{"code_insee":"68277","nom":"Riquewihr","codes_postaux":["68340"],"code_dep":"68","code_region":"44","population":999,"surface_km2":17.02,"lat":48.1793,"lon":7.2689,"fibre_pct":87.7,"securite":{"taux_pour_mille":35.9,"annee":2024},"socio":{"annee":2021,"revenu_median":24150.0},"vivrescore":60},{"code_insee":"68278","nom":"Rixheim","codes_postaux":["68170"],"code_dep":"68","code_region":"44","population":14380,"surface_km2":19.65,"lat":47.7445,"lon":7.4063,"fibre_pct":97.0,"securite":{"taux_pour_mille":32.2,"annee":2024},"socio":{"annee":2021,"taux_pauvrete":10.0,"revenu_median":26150.0},"vivrescore":80},{"code_insee":"68279","nom":"Roderen","codes_postaux":["68800"],"code_dep":"68","code_region":"44","population":902,"surface_km2":7.62,"lat":47.7818,"lon":7.0894,"fibre_pct":99.8,"securite":{"taux_pour_mille":0.0,"annee":2024},"socio":{"annee":2021,"revenu_median":27540.0},"vivrescore":93},{"code_insee":"68280","nom":"Rodern","codes_postaux":["68590"],"code_dep":"68","code_region":"44","population":401,"surface_km2":6.93,"lat":48.2408,"lon":7.31,"fibre_pct":97.5,"securite":{"taux_pour_mille":0.0,"annee":2024},"socio":{"annee":2021,"revenu_median":27030.0},"vivrescore":93},{"code_insee":"68281","nom":"Roggenhouse","codes_postaux":["68740"],"code_dep":"68","code_region":"44","population":458,"surface_km2":6.61,"lat":47.8817,"lon":7.4721,"fibre_pct":98.1,"securite":{"taux_pour_mille":0.0,"annee":2024},"socio":{"annee":2021,"revenu_median":28030.0},"vivrescore":93},{"code_insee":"68282","nom":"Romagny","codes_postaux":["68210"],"code_dep":"68","code_region":"44","population":273,"surface_km2":2.9,"lat":47.6091,"lon":7.0642,"fibre_pct":98.4,"securite":{"taux_pour_mille":0.0,"annee":2024},"socio":{"annee":2021,"revenu_median":28810.0},"vivrescore":93},{"code_insee":"68283","nom":"Rombach-le-Franc","codes_postaux":["68660"],"code_dep":"68","code_region":"44","population":775,"surface_km2":17.83,"lat":48.2926,"lon":7.2424,"fibre_pct":0.0,"securite":{"taux_pour_mille":0.0,"annee":2024},"socio":{"annee":2021,"revenu_median":22500.0},"vivrescore":60},{"code_insee":"68284","nom":"Roppentzwiller","codes_postaux":["68480"],"code_dep":"68","code_region":"44","population":666,"surface_km2":4.06,"lat":47.5357,"lon":7.3304,"fibre_pct":95.8,"securite":{"taux_pour_mille":0.0,"annee":2024},"socio":{"annee":2021,"revenu_median":28370.0},"vivrescore":93},{"code_insee":"68285","nom":"Rorschwihr","codes_postaux":["68590"],"code_dep":"68","code_region":"44","population":370,"surface_km2":2.46,"lat":48.2192,"lon":7.366,"fibre_pct":96.6,"securite":{"taux_pour_mille":0.0,"annee":2024},"socio":{"annee":2021,"revenu_median":27000.0},"vivrescore":93},{"code_insee":"68286","nom":"Rosenau","codes_postaux":["68128"],"code_dep":"68","code_region":"44","population":2396,"surface_km2":6.33,"lat":47.6404,"lon":7.5433,"fibre_pct":98.4,"securite":{"taux_pour_mille":7.5,"annee":2024},"socio":{"annee":2021,"revenu_median":34970.0},"vivrescore":93},{"code_insee":"68287","nom":"Rouffach","codes_postaux":["68250"],"code_dep":"68","code_region":"44","population":4238,"surface_km2":40.03,"lat":47.9688,"lon":7.2773,"fibre_pct":93.9,"securite":{"taux_pour_mille":32.7,"annee":2024},"socio":{"annee":2021,"revenu_median":25160.0,"taux_pauvrete":8.0},"vivrescore":75},{"code_insee":"68288","nom":"Ruederbach","codes_postaux":["68560"],"code_dep":"68","code_region":"44","population":385,"surface_km2":4.46,"lat":47.5575,"lon":7.257,"fibre_pct":94.2,"securite":{"taux_pour_mille":0.0,"annee":2024},"socio":{"annee":2021,"revenu_median":32840.0},"vivrescore":93},{"code_insee":"68289","nom":"Ruelisheim","codes_postaux":["68270"],"code_dep":"68","code_region":"44","population":2519,"surface_km2":7.22,"lat":47.82,"lon":7.3454,"fibre_pct":97.1,"securite":{"taux_pour_mille":8.4,"annee":2024},"socio":{"annee":2021,"revenu_median":27820.0},"vivrescore":87},{"code_insee":"68290","nom":"Rustenhart","codes_postaux":["68740"],"code_dep":"68","code_region":"44","population":1001,"surface_km2":12.15,"lat":47.9402,"lon":7.4806,"fibre_pct":92.9,"securite":{"taux_pour_mille":9.3,"annee":2024},"socio":{"annee":2021,"revenu_median":27710.0},"vivrescore":80},{"code_insee":"68291","nom":"Rumersheim-le-Haut","codes_postaux":["68740"],"code_dep":"68","code_region":"44","population":1068,"surface_km2":16.71,"lat":47.8538,"lon":7.5166,"fibre_pct":98.3,"securite":{"taux_pour_mille":0.0,"annee":2024},"socio":{"annee":2021,"revenu_median":27960.0},"vivrescore":93},{"code_insee":"68292","nom":"Saint-Amarin","codes_postaux":["68550"],"code_dep":"68","code_region":"44","population":2173,"surface_km2":11.63,"lat":47.8877,"lon":7.0459,"fibre_pct":91.2,"securite":{"taux_pour_mille":11.0,"annee":2024},"socio":{"annee":2021,"revenu_median":22300.0,"taux_pauvrete":12.0},"vivrescore":75},{"code_insee":"68293","nom":"Saint-Cosme","codes_postaux":["68210"],"code_dep":"68","code_region":"44","population":75,"surface_km2":2.8,"lat":47.6805,"lon":7.0549,"fibre_pct":100.0,"securite":{"taux_pour_mille":0.0,"annee":2024},"vivrescore":100},{"code_insee":"68294","nom":"Sainte-Croix-aux-Mines","codes_postaux":["68160"],"code_dep":"68","code_region":"44","population":1742,"surface_km2":27.99,"lat":48.2646,"lon":7.2072,"fibre_pct":0.0,"securite":{"taux_pour_mille":9.1,"annee":2024},"socio":{"annee":2021,"revenu_median":22220.0},"vivrescore":53},{"code_insee":"68295","nom":"Sainte-Croix-en-Plaine","codes_postaux":["68127"],"code_dep":"68","code_region":"44","population":3004,"surface_km2":25.82,"lat":48.0092,"lon":7.405,"fibre_pct":95.2,"securite":{"taux_pour_mille":11.6,"annee":2024},"socio":{"annee":2021,"revenu_median":27450.0},"vivrescore":87},{"code_insee":"68296","nom":"Saint-Hippolyte","codes_postaux":["68590"],"code_dep":"68","code_region":"44","population":927,"surface_km2":17.78,"lat":48.2382,"lon":7.3468,"fibre_pct":96.1,"securite":{"taux_pour_mille":0.0,"annee":2024},"socio":{"annee":2021,"revenu_median":26080.0},"vivrescore":93},{"code_insee":"68297","nom":"Saint-Louis","codes_postaux":["68300"],"code_dep":"68","code_region":"44","population":22805,"surface_km2":17.17,"lat":47.5986,"lon":7.543,"fibre_pct":90.5,"securite":{"taux_pour_mille":56.3,"annee":2024},"socio":{"annee":2021,"revenu_median":24530.0,"taux_pauvrete":20.0},"vivrescore":55},{"code_insee":"68298","nom":"Sainte-Marie-aux-Mines","codes_postaux":["68160"],"code_dep":"68","code_region":"44","population":4851,"surface_km2":45.12,"lat":48.2294,"lon":7.1683,"fibre_pct":0.1,"securite":{"taux_pour_mille":26.1,"annee":2024},"socio":{"annee":2021,"taux_pauvrete":21.0,"revenu_median":20300.0},"vivrescore":45},{"code_insee":"68299","nom":"Saint-Ulrich","codes_postaux":["68210"],"code_dep":"68","code_region":"44","population":299,"surface_km2":3.88,"lat":47.589,"lon":7.1137,"fibre_pct":98.8,"securite":{"taux_pour_mille":0.0,"annee":2024},"socio":{"annee":2021,"revenu_median":24980.0},"vivrescore":87},{"code_insee":"68300","nom":"Sausheim","codes_postaux":["68390"],"code_dep":"68","code_region":"44","population":5666,"surface_km2":16.89,"lat":47.7841,"lon":7.4041,"fibre_pct":94.1,"securite":{"taux_pour_mille":30.2,"annee":2024},"socio":{"annee":2021,"revenu_median":26220.0,"taux_pauvrete":10.0},"vivrescore":75},{"code_insee":"68301","nom":"Schlierbach","codes_postaux":["68440"],"code_dep":"68","code_region":"44","population":1299,"surface_km2":11.89,"lat":47.6841,"lon":7.4313,"fibre_pct":86.8,"securite":{"taux_pour_mille":4.7,"annee":2024},"socio":{"annee":2021,"revenu_median":36230.0},"vivrescore":93},{"code_insee":"68302","nom":"Schweighouse-Thann","codes_postaux":["68520"],"code_dep":"68","code_region":"44","population":748,"surface_km2":10.8,"lat":47.7539,"lon":7.1776,"fibre_pct":99.5,"securite":{"taux_pour_mille":0.0,"annee":2024},"socio":{"annee":2021,"revenu_median":28480.0},"vivrescore":93},{"code_insee":"68303","nom":"Schwoben","codes_postaux":["68130"],"code_dep":"68","code_region":"44","population":229,"surface_km2":2.4,"lat":47.6074,"lon":7.3009,"fibre_pct":97.2,"securite":{"taux_pour_mille":0.0,"annee":2024},"socio":{"annee":2021,"revenu_median":33050.0},"vivrescore":100},{"code_insee":"68304","nom":"Sentheim","codes_postaux":["68780"],"code_dep":"68","code_region":"44","population":1528,"surface_km2":6.19,"lat":47.755,"lon":7.0505,"fibre_pct":98.1,"securite":{"taux_pour_mille":0.0,"annee":2024},"socio":{"annee":2021,"revenu_median":26220.0},"vivrescore":93},{"code_insee":"68305","nom":"Seppois-le-Bas","codes_postaux":["68580"],"code_dep":"68","code_region":"44","population":1443,"surface_km2":6.73,"lat":47.5378,"lon":7.1676,"fibre_pct":99.6,"securite":{"taux_pour_mille":20.3,"annee":2024},"socio":{"annee":2021,"revenu_median":26260.0},"vivrescore":80},{"code_insee":"68306","nom":"Seppois-le-Haut","codes_postaux":["68580"],"code_dep":"68","code_region":"44","population":505,"surface_km2":6.25,"lat":47.5327,"lon":7.1851,"fibre_pct":97.7,"securite":{"taux_pour_mille":0.0,"annee":2024},"socio":{"annee":2021,"revenu_median":27610.0},"vivrescore":93},{"code_insee":"68307","nom":"Sewen","codes_postaux":["68290"],"code_dep":"68","code_region":"44","population":480,"surface_km2":21.43,"lat":47.8061,"lon":6.881,"fibre_pct":93.5,"securite":{"taux_pour_mille":0.0,"annee":2024},"socio":{"annee":2021,"revenu_median":21910.0},"vivrescore":80},{"code_insee":"68308","nom":"Sickert","codes_postaux":["68290"],"code_dep":"68","code_region":"44","population":333,"surface_km2":5.13,"lat":47.7921,"lon":6.99,"fibre_pct":97.3,"securite":{"taux_pour_mille":0.0,"annee":2024},"socio":{"annee":2021,"revenu_median":26820.0},"vivrescore":93},{"code_insee":"68309","nom":"Sierentz","codes_postaux":["68510"],"code_dep":"68","code_region":"44","population":4409,"surface_km2":13.22,"lat":47.6639,"lon":7.467,"fibre_pct":90.2,"securite":{"taux_pour_mille":33.8,"annee":2024},"socio":{"annee":2021,"taux_pauvrete":6.0,"revenu_median":34140.0},"vivrescore":80},{"code_insee":"68311","nom":"Sondernach","codes_postaux":["68380"],"code_dep":"68","code_region":"44","population":590,"surface_km2":24.84,"lat":47.978,"lon":7.0816,"fibre_pct":87.1,"securite":{"taux_pour_mille":0.0,"annee":2024},"socio":{"annee":2021,"revenu_median":22960.0},"vivrescore":80},{"code_insee":"68312","nom":"Sondersdorf","codes_postaux":["68480"],"code_dep":"68","code_region":"44","population":319,"surface_km2":8.47,"lat":47.4726,"lon":7.3358,"fibre_pct":93.6,"securite":{"taux_pour_mille":0.0,"annee":2024},"socio":{"annee":2021,"revenu_median":29720.0},"vivrescore":87},{"code_insee":"68313","nom":"Soppe-le-Bas","codes_postaux":["68780"],"code_dep":"68","code_region":"44","population":774,"surface_km2":5.69,"lat":47.7198,"lon":7.092,"fibre_pct":93.6,"securite":{"taux_pour_mille":0.0,"annee":2024},"socio":{"annee":2021,"revenu_median":27350.0},"vivrescore":87},{"code_insee":"68315","nom":"Soultz-Haut-Rhin","codes_postaux":["68360"],"code_dep":"68","code_region":"44","population":7012,"surface_km2":29.66,"lat":47.8835,"lon":7.181,"fibre_pct":90.6,"securite":{"taux_pour_mille":25.4,"annee":2024},"socio":{"annee":2021,"taux_pauvrete":12.0,"revenu_median":24370.0},"vivrescore":65},{"code_insee":"68316","nom":"Soultzbach-les-Bains","codes_postaux":["68230"],"code_dep":"68","code_region":"44","population":731,"surface_km2":7.03,"lat":48.0286,"lon":7.2034,"fibre_pct":95.8,"securite":{"taux_pour_mille":0.0,"annee":2024},"socio":{"annee":2021,"revenu_median":26330.0},"vivrescore":93},{"code_insee":"68317","nom":"Soultzeren","codes_postaux":["68140"],"code_dep":"68","code_region":"44","population":1183,"surface_km2":18.36,"lat":48.0828,"lon":7.0924,"fibre_pct":93.2,"securite":{"taux_pour_mille":0.0,"annee":2024},"socio":{"annee":2021,"revenu_median":23680.0},"vivrescore":80},{"code_insee":"68318","nom":"Soultzmatt","codes_postaux":["68570"],"code_dep":"68","code_region":"44","population":2487,"surface_km2":20.13,"lat":47.979,"lon":7.2153,"fibre_pct":90.6,"securite":{"taux_pour_mille":8.9,"annee":2024},"socio":{"annee":2021,"revenu_median":26540.0},"vivrescore":80},{"code_insee":"68320","nom":"Spechbach","codes_postaux":["68720"],"code_dep":"68","code_region":"44","population":1418,"surface_km2":8.06,"lat":47.6768,"lon":7.223,"fibre_pct":98.2,"securite":{"taux_pour_mille":0.0,"annee":2024},"socio":{"annee":2021,"revenu_median":27910.0},"vivrescore":93},{"code_insee":"68321","nom":"Staffelfelden","codes_postaux":["68850"],"code_dep":"68","code_region":"44","population":4072,"surface_km2":7.41,"lat":47.829,"lon":7.2524,"fibre_pct":97.7,"securite":{"taux_pour_mille":14.7,"annee":2024},"socio":{"annee":2021,"taux_pauvrete":10.0,"revenu_median":23650.0},"vivrescore":85},{"code_insee":"68322","nom":"Steinbach","codes_postaux":["68700"],"code_dep":"68","code_region":"44","population":1379,"surface_km2":6.1,"lat":47.8245,"lon":7.1397,"fibre_pct":98.7,"securite":{"taux_pour_mille":6.6,"annee":2024},"socio":{"annee":2021,"revenu_median":28110.0},"vivrescore":87},{"code_insee":"68323","nom":"Steinbrunn-le-Bas","codes_postaux":["68440"],"code_dep":"68","code_region":"44","population":848,"surface_km2":8.58,"lat":47.6762,"lon":7.3617,"fibre_pct":96.8,"securite":{"taux_pour_mille":0.0,"annee":2024},"socio":{"annee":2021,"revenu_median":34590.0},"vivrescore":100},{"code_insee":"68324","nom":"Steinbrunn-le-Haut","codes_postaux":["68440"],"code_dep":"68","code_region":"44","population":693,"surface_km2":9.25,"lat":47.6596,"lon":7.3436,"fibre_pct":96.6,"securite":{"taux_pour_mille":0.0,"annee":2024},"socio":{"annee":2021,"revenu_median":32910.0},"vivrescore":100},{"code_insee":"68325","nom":"Steinsoultz","codes_postaux":["68640"],"code_dep":"68","code_region":"44","population":743,"surface_km2":4.06,"lat":47.559,"lon":7.346,"fibre_pct":98.0,"securite":{"taux_pour_mille":0.0,"annee":2024},"socio":{"annee":2021,"revenu_median":32780.0},"vivrescore":100},{"code_insee":"68326","nom":"Sternenberg","codes_postaux":["68780"],"code_dep":"68","code_region":"44","population":142,"surface_km2":3.41,"lat":47.6958,"lon":7.0929,"fibre_pct":100.0,"securite":{"taux_pour_mille":0.0,"annee":2024},"socio":{"annee":2021,"revenu_median":29410.0},"vivrescore":93},{"code_insee":"68327","nom":"Stetten","codes_postaux":["68510"],"code_dep":"68","code_region":"44","population":334,"surface_km2":4.34,"lat":47.6237,"lon":7.4173,"fibre_pct":82.5,"securite":{"taux_pour_mille":0.0,"annee":2024},"socio":{"annee":2021,"revenu_median":37810.0},"vivrescore":93},{"code_insee":"68328","nom":"Storckensohn","codes_postaux":["68470"],"code_dep":"68","code_region":"44","population":184,"surface_km2":5.1,"lat":47.8661,"lon":6.9436,"fibre_pct":95.0,"securite":{"taux_pour_mille":0.0,"annee":2024},"socio":{"annee":2021,"revenu_median":24370.0},"vivrescore":87},{"code_insee":"68329","nom":"Stosswihr","codes_postaux":["68140"],"code_dep":"68","code_region":"44","population":1323,"surface_km2":26.29,"lat":48.0583,"lon":7.0641,"fibre_pct":90.0,"securite":{"taux_pour_mille":0.0,"annee":2024},"socio":{"annee":2021,"revenu_median":23850.0},"vivrescore":80},{"code_insee":"68330","nom":"Strueth","codes_postaux":["68580"],"code_dep":"68","code_region":"44","population":360,"surface_km2":4.35,"lat":47.5732,"lon":7.1147,"fibre_pct":100.0,"securite":{"taux_pour_mille":0.0,"annee":2024},"socio":{"annee":2021,"revenu_median":25840.0},"vivrescore":93},{"code_insee":"68331","nom":"Sundhoffen","codes_postaux":["68280"],"code_dep":"68","code_region":"44","population":1993,"surface_km2":12.79,"lat":48.045,"lon":7.4218,"fibre_pct":78.5,"securite":{"taux_pour_mille":10.7,"annee":2024},"socio":{"annee":2021,"revenu_median":27020.0},"vivrescore":73},{"code_insee":"68332","nom":"Tagolsheim","codes_postaux":["68720"],"code_dep":"68","code_region":"44","population":991,"surface_km2":3.21,"lat":47.6558,"lon":7.2629,"fibre_pct":96.1,"securite":{"taux_pour_mille":0.0,"annee":2024},"socio":{"annee":2021,"revenu_median":27650.0},"vivrescore":93},{"code_insee":"68333","nom":"Tagsdorf","codes_postaux":["68130"],"code_dep":"68","code_region":"44","population":325,"surface_km2":2.52,"lat":47.6206,"lon":7.2999,"fibre_pct":89.6,"securite":{"taux_pour_mille":0.0,"annee":2024},"socio":{"annee":2021,"revenu_median":33420.0},"vivrescore":93},{"code_insee":"68334","nom":"Thann","codes_postaux":["68800"],"code_dep":"68","code_region":"44","population":7762,"surface_km2":12.48,"lat":47.8163,"lon":7.0867,"fibre_pct":85.2,"securite":{"taux_pour_mille":35.5,"annee":2024},"socio":{"annee":2021,"revenu_median":22050.0,"taux_pauvrete":17.0},"vivrescore":60},{"code_insee":"68335","nom":"Thannenkirch","codes_postaux":["68590"],"code_dep":"68","code_region":"44","population":451,"surface_km2":4.62,"lat":48.2321,"lon":7.2936,"fibre_pct":93.7,"securite":{"taux_pour_mille":0.0,"annee":2024},"socio":{"annee":2021,"revenu_median":25640.0},"vivrescore":87},{"code_insee":"68336","nom":"Traubach-le-Bas","codes_postaux":["68210"],"code_dep":"68","code_region":"44","population":484,"surface_km2":6.77,"lat":47.6568,"lon":7.0892,"fibre_pct":90.6,"securite":{"taux_pour_mille":0.0,"annee":2024},"socio":{"annee":2021,"revenu_median":26400.0},"vivrescore":87},{"code_insee":"68337","nom":"Traubach-le-Haut","codes_postaux":["68210"],"code_dep":"68","code_region":"44","population":647,"surface_km2":6.87,"lat":47.6712,"lon":7.0936,"fibre_pct":93.5,"securite":{"taux_pour_mille":0.0,"annee":2024},"socio":{"annee":2021,"revenu_median":26820.0},"vivrescore":87},{"code_insee":"68338","nom":"Turckheim","codes_postaux":["68230"],"code_dep":"68","code_region":"44","population":4139,"surface_km2":16.42,"lat":48.0865,"lon":7.2501,"fibre_pct":92.4,"securite":{"taux_pour_mille":28.3,"annee":2024},"socio":{"annee":2021,"revenu_median":25610.0,"taux_pauvrete":9.0},"vivrescore":75},{"code_insee":"68340","nom":"Ueberstrass","codes_postaux":["68580"],"code_dep":"68","code_region":"44","population":333,"surface_km2":5.11,"lat":47.545,"lon":7.1544,"fibre_pct":97.3,"securite":{"taux_pour_mille":0.0,"annee":2024},"socio":{"annee":2021,"revenu_median":27690.0},"vivrescore":93},{"code_insee":"68341","nom":"Uffheim","codes_postaux":["68510"],"code_dep":"68","code_region":"44","population":1142,"surface_km2":4.35,"lat":47.646,"lon":7.4372,"fibre_pct":99.7,"securite":{"taux_pour_mille":0.0,"annee":2024},"socio":{"annee":2021,"revenu_median":38920.0},"vivrescore":100},{"code_insee":"68342","nom":"Uffholtz","codes_postaux":["68700"],"code_dep":"68","code_region":"44","population":1614,"surface_km2":11.89,"lat":47.8298,"lon":7.1687,"fibre_pct":98.2,"securite":{"taux_pour_mille":11.0,"annee":2024},"socio":{"annee":2021,"revenu_median":26290.0},"vivrescore":87},{"code_insee":"68343","nom":"Ungersheim","codes_postaux":["68190"],"code_dep":"68","code_region":"44","population":2449,"surface_km2":13.58,"lat":47.8705,"lon":7.3013,"fibre_pct":94.8,"securite":{"taux_pour_mille":17.6,"annee":2024},"socio":{"annee":2021,"revenu_median":27410.0},"vivrescore":73},{"code_insee":"68344","nom":"Urbès","codes_postaux":["68121"],"code_dep":"68","code_region":"44","population":427,"surface_km2":12.68,"lat":47.8779,"lon":6.9356,"fibre_pct":96.6,"securite":{"taux_pour_mille":0.0,"annee":2024},"socio":{"annee":2021,"revenu_median":22840.0},"vivrescore":87},{"code_insee":"68345","nom":"Urschenheim","codes_postaux":["68320"],"code_dep":"68","code_region":"44","population":808,"surface_km2":6.4,"lat":48.0808,"lon":7.4925,"fibre_pct":92.8,"securite":{"taux_pour_mille":0.0,"annee":2024},"socio":{"annee":2021,"revenu_median":26400.0},"vivrescore":87},{"code_insee":"68347","nom":"Vieux-Ferrette","codes_postaux":["68480"],"code_dep":"68","code_region":"44","population":640,"surface_km2":6.62,"lat":47.5095,"lon":7.3054,"fibre_pct":87.7,"securite":{"taux_pour_mille":0.0,"annee":2024},"socio":{"annee":2021,"revenu_median":32790.0},"vivrescore":93},{"code_insee":"68348","nom":"Vieux-Thann","codes_postaux":["68800"],"code_dep":"68","code_region":"44","population":2866,"surface_km2":5.09,"lat":47.8069,"lon":7.13,"fibre_pct":99.0,"securite":{"taux_pour_mille":16.0,"annee":2024},"socio":{"annee":2021,"taux_pauvrete":14.0,"revenu_median":21900.0},"vivrescore":75},{"code_insee":"68349","nom":"Village-Neuf","codes_postaux":["68128"],"code_dep":"68","code_region":"44","population":4709,"surface_km2":6.82,"lat":47.6118,"lon":7.5693,"fibre_pct":96.5,"securite":{"taux_pour_mille":22.5,"annee":2024},"socio":{"annee":2021,"taux_pauvrete":7.0,"revenu_median":37170.0},"vivrescore":90},{"code_insee":"68350","nom":"Vœgtlinshoffen","codes_postaux":["68420"],"code_dep":"68","code_region":"44","population":479,"surface_km2":3.97,"lat":48.0258,"lon":7.2636,"fibre_pct":99.7,"securite":{"taux_pour_mille":0.0,"annee":2024},"socio":{"annee":2021,"revenu_median":29160.0},"vivrescore":93},{"code_insee":"68351","nom":"Vogelgrun","codes_postaux":["68600"],"code_dep":"68","code_region":"44","population":628,"surface_km2":4.98,"lat":48.0119,"lon":7.5865,"fibre_pct":99.7,"securite":{"taux_pour_mille":0.0,"annee":2024},"socio":{"annee":2021,"revenu_median":26600.0},"vivrescore":93},{"code_insee":"68352","nom":"Volgelsheim","codes_postaux":["68600"],"code_dep":"68","code_region":"44","population":2720,"surface_km2":8.73,"lat":48.0252,"lon":7.5443,"fibre_pct":96.0,"securite":{"taux_pour_mille":15.8,"annee":2024},"socio":{"annee":2021,"revenu_median":23130.0,"taux_pauvrete":11.0},"vivrescore":75},{"code_insee":"68353","nom":"Wahlbach","codes_postaux":["68130"],"code_dep":"68","code_region":"44","population":508,"surface_km2":6.29,"lat":47.6303,"lon":7.3458,"fibre_pct":98.6,"securite":{"taux_pour_mille":0.0,"annee":2024},"socio":{"annee":2021,"revenu_median":35070.0},"vivrescore":100},{"code_insee":"68354","nom":"Walbach","codes_postaux":["68230"],"code_dep":"68","code_region":"44","population":936,"surface_km2":5.54,"lat":48.0696,"lon":7.2074,"fibre_pct":99.4,"securite":{"taux_pour_mille":0.0,"annee":2024},"socio":{"annee":2021,"revenu_median":29180.0},"vivrescore":93},