[{"code_insee":"76001","nom":"Allouville-Bellefosse","codes_postaux":["76190"],"code_dep":"76","code_region":"28","population":1153,"surface_km2":15.0,"lat":49.5956,"lon":0.6636,"fibre_pct":100.0,"securite":{"taux_pour_mille":0.0,"annee":2024},"socio":{"annee":2021,"revenu_median":24640.0},"vivrescore":87},{"code_insee":"76002","nom":"Alvimare","codes_postaux":["76640"],"code_dep":"76","code_region":"28","population":584,"surface_km2":6.68,"lat":49.6066,"lon":0.6306,"fibre_pct":100.0,"securite":{"taux_pour_mille":0.0,"annee":2024},"socio":{"annee":2021,"revenu_median":22790.0},"vivrescore":87},{"code_insee":"76004","nom":"Ambrumesnil","codes_postaux":["76550"],"code_dep":"76","code_region":"28","population":520,"surface_km2":5.26,"lat":49.8591,"lon":0.983,"fibre_pct":100.0,"securite":{"taux_pour_mille":0.0,"annee":2024},"socio":{"annee":2021,"revenu_median":24110.0},"vivrescore":87},{"code_insee":"76005","nom":"Amfreville-la-Mi-Voie","codes_postaux":["76920"],"code_dep":"76","code_region":"28","population":3265,"surface_km2":3.96,"lat":49.4053,"lon":1.1275,"fibre_pct":97.9,"securite":{"taux_pour_mille":22.3,"annee":2024},"socio":{"annee":2021,"revenu_median":22480.0,"taux_pauvrete":18.0},"vivrescore":73},{"code_insee":"76006","nom":"Amfreville-les-Champs","codes_postaux":["76560"],"code_dep":"76","code_region":"28","population":188,"surface_km2":4.54,"lat":49.698,"lon":0.8269,"fibre_pct":100.0,"securite":{"taux_pour_mille":0.0,"annee":2024},"socio":{"annee":2021,"revenu_median":22740.0},"vivrescore":87},{"code_insee":"76007","nom":"Anceaumeville","codes_postaux":["76710"],"code_dep":"76","code_region":"28","population":708,"surface_km2":4.68,"lat":49.5692,"lon":1.0621,"fibre_pct":100.0,"securite":{"taux_pour_mille":0.0,"annee":2024},"socio":{"annee":2021,"revenu_median":25620.0},"vivrescore":93},{"code_insee":"76008","nom":"Ancourt","codes_postaux":["76370"],"code_dep":"76","code_region":"28","population":618,"surface_km2":12.39,"lat":49.911,"lon":1.1835,"fibre_pct":82.8,"securite":{"taux_pour_mille":0.0,"annee":2024},"socio":{"annee":2021,"revenu_median":25220.0},"vivrescore":87},{"code_insee":"76009","nom":"Ancourteville-sur-Héricourt","codes_postaux":["76560"],"code_dep":"76","code_region":"28","population":354,"surface_km2":3.54,"lat":49.6914,"lon":0.6613,"fibre_pct":100.0,"securite":{"taux_pour_mille":0.0,"annee":2024},"socio":{"annee":2021,"revenu_median":22540.0},"vivrescore":87},{"code_insee":"76010","nom":"Ancretiéville-Saint-Victor","codes_postaux":["76760"],"code_dep":"76","code_region":"28","population":382,"surface_km2":11.65,"lat":49.6555,"lon":0.9681,"fibre_pct":100.0,"securite":{"taux_pour_mille":0.0,"annee":2024},"socio":{"annee":2021,"revenu_median":24340.0},"vivrescore":87},{"code_insee":"76011","nom":"Ancretteville-sur-Mer","codes_postaux":["76540"],"code_dep":"76","code_region":"28","population":143,"surface_km2":3.16,"lat":49.7891,"lon":0.5037,"fibre_pct":100.0,"securite":{"taux_pour_mille":0.0,"annee":2024},"socio":{"annee":2021,"revenu_median":23160.0},"vivrescore":87},{"code_insee":"76012","nom":"Angerville-Bailleul","codes_postaux":["76110"],"code_dep":"76","code_region":"28","population":196,"surface_km2":4.56,"lat":49.6681,"lon":0.4527,"fibre_pct":98.5,"securite":{"taux_pour_mille":0.0,"annee":2024},"socio":{"annee":2021,"revenu_median":24200.0},"vivrescore":87},{"code_insee":"76013","nom":"Angerville-la-Martel","codes_postaux":["76540"],"code_dep":"76","code_region":"28","population":1079,"surface_km2":10.17,"lat":49.7672,"lon":0.5037,"fibre_pct":100.0,"securite":{"taux_pour_mille":0.0,"annee":2024},"socio":{"annee":2021,"revenu_median":23290.0},"vivrescore":87},{"code_insee":"76014","nom":"Angerville-l'Orcher","codes_postaux":["76280"],"code_dep":"76","code_region":"28","population":1395,"surface_km2":9.88,"lat":49.5847,"lon":0.2951,"fibre_pct":99.9,"securite":{"taux_pour_mille":0.0,"annee":2024},"socio":{"annee":2021,"revenu_median":26010.0},"vivrescore":93},{"code_insee":"76015","nom":"Angiens","codes_postaux":["76740"],"code_dep":"76","code_region":"28","population":513,"surface_km2":6.95,"lat":49.8336,"lon":0.8021,"fibre_pct":100.0,"securite":{"taux_pour_mille":0.0,"annee":2024},"socio":{"annee":2021,"revenu_median":23560.0},"vivrescore":87},{"code_insee":"76016","nom":"Anglesqueville-la-Bras-Long","codes_postaux":["76740"],"code_dep":"76","code_region":"28","population":134,"surface_km2":3.57,"lat":49.7797,"lon":0.7827,"fibre_pct":100.0,"securite":{"taux_pour_mille":0.0,"annee":2024},"socio":{"annee":2021,"revenu_median":25320.0},"vivrescore":93},{"code_insee":"76017","nom":"Anglesqueville-l'Esneval","codes_postaux":["76280"],"code_dep":"76","code_region":"28","population":678,"surface_km2":4.28,"lat":49.6318,"lon":0.2346,"fibre_pct":100.0,"securite":{"taux_pour_mille":0.0,"annee":2024},"socio":{"annee":2021,"revenu_median":25690.0},"vivrescore":93},{"code_insee":"76018","nom":"Val-de-Saâne","codes_postaux":["76890"],"code_dep":"76","code_region":"28","population":1454,"surface_km2":13.69,"lat":49.7066,"lon":0.9613,"fibre_pct":100.0,"securite":{"taux_pour_mille":0.0,"annee":2024},"socio":{"annee":2021,"revenu_median":22650.0},"vivrescore":87},{"code_insee":"76019","nom":"Anneville-sur-Scie","codes_postaux":["76590"],"code_dep":"76","code_region":"28","population":405,"surface_km2":5.48,"lat":49.8394,"lon":1.0935,"fibre_pct":96.5,"securite":{"taux_pour_mille":0.0,"annee":2024},"socio":{"annee":2021,"revenu_median":23880.0},"vivrescore":87},{"code_insee":"76020","nom":"Anneville-Ambourville","codes_postaux":["76480"],"code_dep":"76","code_region":"28","population":1153,"surface_km2":20.51,"lat":49.4518,"lon":0.896,"fibre_pct":83.4,"securite":{"taux_pour_mille":6.0,"annee":2024},"socio":{"annee":2021,"revenu_median":23630.0},"vivrescore":73},{"code_insee":"76021","nom":"Annouville-Vilmesnil","codes_postaux":["76110"],"code_dep":"76","code_region":"28","population":447,"surface_km2":5.84,"lat":49.6789,"lon":0.4335,"fibre_pct":100.0,"securite":{"taux_pour_mille":0.0,"annee":2024},"socio":{"annee":2021,"revenu_median":24160.0},"vivrescore":87},{"code_insee":"76022","nom":"Anquetierville","codes_postaux":["76490"],"code_dep":"76","code_region":"28","population":329,"surface_km2":4.17,"lat":49.5369,"lon":0.6356,"fibre_pct":100.0,"securite":{"taux_pour_mille":0.0,"annee":2024},"socio":{"annee":2021,"revenu_median":25820.0},"vivrescore":93},{"code_insee":"76023","nom":"Anvéville","codes_postaux":["76560"],"code_dep":"76","code_region":"28","population":291,"surface_km2":4.26,"lat":49.7003,"lon":0.751,"fibre_pct":100.0,"securite":{"taux_pour_mille":0.0,"annee":2024},"socio":{"annee":2021,"revenu_median":22930.0},"vivrescore":87},{"code_insee":"76024","nom":"Ardouval","codes_postaux":["76680"],"code_dep":"76","code_region":"28","population":158,"surface_km2":10.39,"lat":49.7397,"lon":1.2729,"fibre_pct":100.0,"securite":{"taux_pour_mille":0.0,"annee":2024},"socio":{"annee":2021,"revenu_median":24410.0},"vivrescore":87},{"code_insee":"76025","nom":"Argueil","codes_postaux":["76780"],"code_dep":"76","code_region":"28","population":349,"surface_km2":6.95,"lat":49.548,"lon":1.5331,"fibre_pct":100.0,"securite":{"taux_pour_mille":0.0,"annee":2024},"socio":{"annee":2021,"revenu_median":20060.0},"vivrescore":87},{"code_insee":"76026","nom":"Arques-la-Bataille","codes_postaux":["76880"],"code_dep":"76","code_region":"28","population":2412,"surface_km2":14.76,"lat":49.8789,"lon":1.1539,"fibre_pct":88.2,"securite":{"taux_pour_mille":20.1,"annee":2024},"socio":{"annee":2021,"taux_pauvrete":15.0,"revenu_median":20840.0},"vivrescore":67},{"code_insee":"76028","nom":"Aubéguimont","codes_postaux":["76390"],"code_dep":"76","code_region":"28","population":186,"surface_km2":4.88,"lat":49.8097,"lon":1.6816,"fibre_pct":97.9,"securite":{"taux_pour_mille":0.0,"annee":2024},"socio":{"annee":2021,"revenu_median":18000.0},"vivrescore":80},{"code_insee":"76029","nom":"Aubermesnil-aux-Érables","codes_postaux":["76340"],"code_dep":"76","code_region":"28","population":195,"surface_km2":8.41,"lat":49.81,"lon":1.569,"fibre_pct":97.3,"securite":{"taux_pour_mille":0.0,"annee":2024},"socio":{"annee":2021,"revenu_median":21080.0},"vivrescore":87},{"code_insee":"76030","nom":"Aubermesnil-Beaumais","codes_postaux":["76550"],"code_dep":"76","code_region":"28","population":520,"surface_km2":4.97,"lat":49.8493,"lon":1.1208,"fibre_pct":92.7,"securite":{"taux_pour_mille":0.0,"annee":2024},"socio":{"annee":2021,"revenu_median":22390.0},"vivrescore":80},{"code_insee":"76032","nom":"Auberville-la-Manuel","codes_postaux":["76450"],"code_dep":"76","code_region":"28","population":138,"surface_km2":3.03,"lat":49.8288,"lon":0.5835,"fibre_pct":100.0,"securite":{"taux_pour_mille":0.0,"annee":2024},"socio":{"annee":2021,"revenu_median":22980.0},"vivrescore":87},{"code_insee":"76033","nom":"Auberville-la-Renault","codes_postaux":["76110"],"code_dep":"76","code_region":"28","population":449,"surface_km2":4.99,"lat":49.6868,"lon":0.3797,"fibre_pct":99.5,"securite":{"taux_pour_mille":0.0,"annee":2024},"socio":{"annee":2021,"revenu_median":23530.0},"vivrescore":87},{"code_insee":"76034","nom":"Val-de-Scie","codes_postaux":["76720","76850"],"code_dep":"76","code_region":"28","population":2530,"surface_km2":22.04,"lat":49.7147,"lon":1.1339,"fibre_pct":99.9,"securite":{"taux_pour_mille":11.8,"annee":2024},"socio":{"annee":2021,"taux_pauvrete":14.0,"revenu_median":21440.0},"vivrescore":80},{"code_insee":"76035","nom":"Aumale","codes_postaux":["76390"],"code_dep":"76","code_region":"28","population":1996,"surface_km2":9.0,"lat":49.7725,"lon":1.7555,"fibre_pct":99.8,"securite":{"taux_pour_mille":32.2,"annee":2024},"socio":{"annee":2021,"revenu_median":20100.0},"vivrescore":67},{"code_insee":"76036","nom":"Auppegard","codes_postaux":["76730"],"code_dep":"76","code_region":"28","population":695,"surface_km2":7.33,"lat":49.8323,"lon":1.0279,"fibre_pct":100.0,"securite":{"taux_pour_mille":0.0,"annee":2024},"socio":{"annee":2021,"revenu_median":23640.0},"vivrescore":87},{"code_insee":"76038","nom":"Authieux-Ratiéville","codes_postaux":["76690"],"code_dep":"76","code_region":"28","population":401,"surface_km2":5.24,"lat":49.5972,"lon":1.1471,"fibre_pct":100.0,"securite":{"taux_pour_mille":0.0,"annee":2024},"socio":{"annee":2021,"revenu_median":25840.0},"vivrescore":93},{"code_insee":"76039","nom":"Les Authieux-sur-le-Port-Saint-Ouen","codes_postaux":["76520"],"code_dep":"76","code_region":"28","population":1190,"surface_km2":4.53,"lat":49.3398,"lon":1.1314,"fibre_pct":96.8,"securite":{"taux_pour_mille":9.1,"annee":2024},"socio":{"annee":2021,"revenu_median":31250.0},"vivrescore":93},{"code_insee":"76040","nom":"Autigny","codes_postaux":["76740"],"code_dep":"76","code_region":"28","population":321,"surface_km2":4.07,"lat":49.7963,"lon":0.854,"fibre_pct":100.0,"securite":{"taux_pour_mille":0.0,"annee":2024},"socio":{"annee":2021,"revenu_median":22900.0},"vivrescore":87},{"code_insee":"76041","nom":"Les Hauts-de-Caux","codes_postaux":["76190"],"code_dep":"76","code_region":"28","population":1331,"surface_km2":11.72,"lat":49.656,"lon":0.7542,"fibre_pct":100.0,"securite":{"taux_pour_mille":4.5,"annee":2024},"socio":{"annee":2021,"revenu_median":24050.0},"vivrescore":87},{"code_insee":"76042","nom":"Auvilliers","codes_postaux":["76270"],"code_dep":"76","code_region":"28","population":101,"surface_km2":4.85,"lat":49.7572,"lon":1.5739,"fibre_pct":96.4,"securite":{"taux_pour_mille":0.0,"annee":2024},"socio":{"annee":2021,"revenu_median":23340.0},"vivrescore":87},{"code_insee":"76043","nom":"Auzebosc","codes_postaux":["76190"],"code_dep":"76","code_region":"28","population":1116,"surface_km2":4.75,"lat":49.6013,"lon":0.7331,"fibre_pct":100.0,"securite":{"taux_pour_mille":0.0,"annee":2024},"socio":{"annee":2021,"revenu_median":24950.0},"vivrescore":87},{"code_insee":"76045","nom":"Auzouville-l'Esneval","codes_postaux":["76760"],"code_dep":"76","code_region":"28","population":361,"surface_km2":5.67,"lat":49.6315,"lon":0.8862,"fibre_pct":97.1,"securite":{"taux_pour_mille":0.0,"annee":2024},"socio":{"annee":2021,"revenu_median":23770.0},"vivrescore":87},{"code_insee":"76046","nom":"Auzouville-sur-Ry","codes_postaux":["76116"],"code_dep":"76","code_region":"28","population":683,"surface_km2":7.92,"lat":49.4387,"lon":1.3071,"fibre_pct":99.7,"securite":{"taux_pour_mille":0.0,"annee":2024},"socio":{"annee":2021,"revenu_median":24050.0},"vivrescore":87},{"code_insee":"76047","nom":"Auzouville-sur-Saâne","codes_postaux":["76730"],"code_dep":"76","code_region":"28","population":144,"surface_km2":3.11,"lat":49.7422,"lon":0.9314,"fibre_pct":100.0,"securite":{"taux_pour_mille":0.0,"annee":2024},"socio":{"annee":2021,"revenu_median":19860.0},"vivrescore":80},{"code_insee":"76048","nom":"Avesnes-en-Bray","codes_postaux":["76220"],"code_dep":"76","code_region":"28","population":280,"surface_km2":11.87,"lat":49.4737,"lon":1.6749,"fibre_pct":100.0,"securite":{"taux_pour_mille":0.0,"annee":2024},"socio":{"annee":2021,"revenu_median":22990.0},"vivrescore":87},{"code_insee":"76049","nom":"Avesnes-en-Val","codes_postaux":["76630"],"code_dep":"76","code_region":"28","population":261,"surface_km2":16.61,"lat":49.9157,"lon":1.4052,"fibre_pct":98.9,"securite":{"taux_pour_mille":0.0,"annee":2024},"socio":{"annee":2021,"revenu_median":19680.0},"vivrescore":80},{"code_insee":"76050","nom":"Avremesnil","codes_postaux":["76730"],"code_dep":"76","code_region":"28","population":994,"surface_km2":5.44,"lat":49.8503,"lon":0.9336,"fibre_pct":100.0,"securite":{"taux_pour_mille":0.0,"annee":2024},"socio":{"annee":2021,"revenu_median":23000.0},"vivrescore":87},{"code_insee":"76051","nom":"Bacqueville-en-Caux","codes_postaux":["76730"],"code_dep":"76","code_region":"28","population":1914,"surface_km2":12.13,"lat":49.7932,"lon":1.0055,"fibre_pct":99.7,"securite":{"taux_pour_mille":13.2,"annee":2024},"socio":{"annee":2021,"revenu_median":21160.0},"vivrescore":80},{"code_insee":"76052","nom":"Bailleul-Neuville","codes_postaux":["76660"],"code_dep":"76","code_region":"28","population":220,"surface_km2":13.16,"lat":49.8082,"lon":1.4282,"fibre_pct":91.8,"securite":{"taux_pour_mille":0.0,"annee":2024},"socio":{"annee":2021,"revenu_median":21870.0},"vivrescore":80},{"code_insee":"76053","nom":"Baillolet","codes_postaux":["76660"],"code_dep":"76","code_region":"28","population":116,"surface_km2":8.73,"lat":49.7903,"lon":1.4322,"fibre_pct":99.7,"securite":{"taux_pour_mille":0.0,"annee":2024},"socio":{"annee":2021,"revenu_median":23170.0},"vivrescore":87},{"code_insee":"76054","nom":"Bailly-en-Rivière","codes_postaux":["76630"],"code_dep":"76","code_region":"28","population":510,"surface_km2":20.37,"lat":49.9061,"lon":1.3534,"fibre_pct":100.0,"securite":{"taux_pour_mille":0.0,"annee":2024},"socio":{"annee":2021,"revenu_median":21360.0},"vivrescore":87},{"code_insee":"76055","nom":"Baons-le-Comte","codes_postaux":["76190"],"code_dep":"76","code_region":"28","population":337,"surface_km2":5.38,"lat":49.6403,"lon":0.7594,"fibre_pct":100.0,"securite":{"taux_pour_mille":0.0,"annee":2024},"socio":{"annee":2021,"revenu_median":26110.0},"vivrescore":93},{"code_insee":"76056","nom":"Bardouville","codes_postaux":["76480"],"code_dep":"76","code_region":"28","population":597,"surface_km2":8.46,"lat":49.4293,"lon":0.9223,"fibre_pct":98.7,"securite":{"taux_pour_mille":0.0,"annee":2024},"socio":{"annee":2021,"revenu_median":23750.0},"vivrescore":87},{"code_insee":"76057","nom":"Barentin","codes_postaux":["76360"],"code_dep":"76","code_region":"28","population":12022,"surface_km2":12.72,"lat":49.5431,"lon":0.9549,"fibre_pct":99.0,"securite":{"taux_pour_mille":45.3,"annee":2024},"socio":{"annee":2021,"revenu_median":21650.0,"taux_pauvrete":15.0},"vivrescore":60},{"code_insee":"76058","nom":"Baromesnil","codes_postaux":["76260"],"code_dep":"76","code_region":"28","population":218,"surface_km2":8.04,"lat":49.9846,"lon":1.411,"fibre_pct":100.0,"securite":{"taux_pour_mille":0.0,"annee":2024},"socio":{"annee":2021,"revenu_median":22110.0},"vivrescore":87},{"code_insee":"76059","nom":"Bazinval","codes_postaux":["76340"],"code_dep":"76","code_region":"28","population":403,"surface_km2":7.14,"lat":49.9481,"lon":1.5457,"fibre_pct":100.0,"securite":{"taux_pour_mille":0.0,"annee":2024},"socio":{"annee":2021,"revenu_median":21190.0},"vivrescore":87},{"code_insee":"76060","nom":"Beaubec-la-Rosière","codes_postaux":["76440"],"code_dep":"76","code_region":"28","population":457,"surface_km2":13.02,"lat":49.6471,"lon":1.5098,"fibre_pct":100.0,"securite":{"taux_pour_mille":0.0,"annee":2024},"socio":{"annee":2021,"revenu_median":21510.0},"vivrescore":87},{"code_insee":"76062","nom":"Beaumont-le-Hareng","codes_postaux":["76850"],"code_dep":"76","code_region":"28","population":256,"surface_km2":5.71,"lat":49.6652,"lon":1.2196,"fibre_pct":100.0,"securite":{"taux_pour_mille":0.0,"annee":2024},"socio":{"annee":2021,"revenu_median":23300.0},"vivrescore":87},{"code_insee":"76063","nom":"Beauval-en-Caux","codes_postaux":["76890"],"code_dep":"76","code_region":"28","population":464,"surface_km2":15.26,"lat":49.7374,"lon":1.0275,"fibre_pct":100.0,"securite":{"taux_pour_mille":0.0,"annee":2024},"socio":{"annee":2021,"revenu_median":25500.0},"vivrescore":93},{"code_insee":"76064","nom":"Beaurepaire","codes_postaux":["76280"],"code_dep":"76","code_region":"28","population":490,"surface_km2":2.88,"lat":49.6599,"lon":0.2136,"fibre_pct":99.5,"securite":{"taux_pour_mille":0.0,"annee":2024},"socio":{"annee":2021,"revenu_median":27950.0},"vivrescore":93},{"code_insee":"76065","nom":"Beaussault","codes_postaux":["76870"],"code_dep":"76","code_region":"28","population":410,"surface_km2":18.46,"lat":49.6873,"lon":1.5701,"fibre_pct":100.0,"securite":{"taux_pour_mille":0.0,"annee":2024},"socio":{"annee":2021,"revenu_median":20190.0},"vivrescore":87},{"code_insee":"76066","nom":"Beautot","codes_postaux":["76890"],"code_dep":"76","code_region":"28","population":156,"surface_km2":3.5,"lat":49.6348,"lon":1.048,"fibre_pct":96.8,"securite":{"taux_pour_mille":0.0,"annee":2024},"socio":{"annee":2021,"revenu_median":23110.0},"vivrescore":87},{"code_insee":"76067","nom":"Beauvoir-en-Lyons","codes_postaux":["76220"],"code_dep":"76","code_region":"28","population":663,"surface_km2":33.66,"lat":49.487,"lon":1.5852,"fibre_pct":100.0,"securite":{"taux_pour_mille":0.0,"annee":2024},"socio":{"annee":2021,"revenu_median":22070.0},"vivrescore":87},{"code_insee":"76068","nom":"Bec-de-Mortagne","codes_postaux":["76110"],"code_dep":"76","code_region":"28","population":703,"surface_km2":12.07,"lat":49.7039,"lon":0.4507,"fibre_pct":97.9,"securite":{"taux_pour_mille":0.0,"annee":2024},"socio":{"annee":2021,"revenu_median":23800.0},"vivrescore":87},{"code_insee":"76069","nom":"Belbeuf","codes_postaux":["76240"],"code_dep":"76","code_region":"28","population":2264,"surface_km2":6.53,"lat":49.382,"lon":1.1415,"fibre_pct":99.3,"securite":{"taux_pour_mille":32.3,"annee":2024},"socio":{"annee":2021,"revenu_median":30040.0},"vivrescore":80},{"code_insee":"76070","nom":"Bellencombre","codes_postaux":["76680"],"code_dep":"76","code_region":"28","population":564,"surface_km2":12.84,"lat":49.7183,"lon":1.2361,"fibre_pct":100.0,"securite":{"taux_pour_mille":0.0,"annee":2024},"socio":{"annee":2021,"revenu_median":21430.0},"vivrescore":87},{"code_insee":"76071","nom":"Bellengreville","codes_postaux":["76630"],"code_dep":"76","code_region":"28","population":467,"surface_km2":7.59,"lat":49.9091,"lon":1.2294,"fibre_pct":100.0,"securite":{"taux_pour_mille":0.0,"annee":2024},"socio":{"annee":2021,"revenu_median":21890.0},"vivrescore":87},{"code_insee":"76072","nom":"Belleville-en-Caux","codes_postaux":["76890"],"code_dep":"76","code_region":"28","population":738,"surface_km2":4.49,"lat":49.7048,"lon":0.9861,"fibre_pct":99.7,"securite":{"taux_pour_mille":0.0,"annee":2024},"socio":{"annee":2021,"revenu_median":24010.0},"vivrescore":87},{"code_insee":"76074","nom":"La Bellière","codes_postaux":["76440"],"code_dep":"76","code_region":"28","population":50,"surface_km2":4.55,"lat":49.6062,"lon":1.6014,"fibre_pct":100.0,"securite":{"taux_pour_mille":0.0,"annee":2024},"vivrescore":100},{"code_insee":"76075","nom":"Belmesnil","codes_postaux":["76590"],"code_dep":"76","code_region":"28","population":440,"surface_km2":3.1,"lat":49.7671,"lon":1.0473,"fibre_pct":100.0,"securite":{"taux_pour_mille":0.0,"annee":2024},"socio":{"annee":2021,"revenu_median":23970.0},"vivrescore":87},{"code_insee":"76076","nom":"Bénarville","codes_postaux":["76110"],"code_dep":"76","code_region":"28","population":260,"surface_km2":4.42,"lat":49.6726,"lon":0.4881,"fibre_pct":93.0,"securite":{"taux_pour_mille":0.0,"annee":2024},"socio":{"annee":2021,"revenu_median":22510.0},"vivrescore":80},{"code_insee":"76077","nom":"Bénesville","codes_postaux":["76560"],"code_dep":"76","code_region":"28","population":158,"surface_km2":5.49,"lat":49.7536,"lon":0.8277,"fibre_pct":98.0,"securite":{"taux_pour_mille":0.0,"annee":2024},"socio":{"annee":2021,"revenu_median":22630.0},"vivrescore":87},{"code_insee":"76079","nom":"Bénouville","codes_postaux":["76790"],"code_dep":"76","code_region":"28","population":168,"surface_km2":2.94,"lat":49.7197,"lon":0.2452,"fibre_pct":100.0,"securite":{"taux_pour_mille":0.0,"annee":2024},"socio":{"annee":2021,"revenu_median":23900.0},"vivrescore":87},{"code_insee":"76082","nom":"Bernières","codes_postaux":["76210"],"code_dep":"76","code_region":"28","population":639,"surface_km2":6.67,"lat":49.6227,"lon":0.4756,"fibre_pct":99.6,"securite":{"taux_pour_mille":0.0,"annee":2024},"socio":{"annee":2021,"revenu_median":25160.0},"vivrescore":93},{"code_insee":"76083","nom":"Bertheauville","codes_postaux":["76450"],"code_dep":"76","code_region":"28","population":103,"surface_km2":2.4,"lat":49.7553,"lon":0.5915,"fibre_pct":100.0,"securite":{"taux_pour_mille":0.0,"annee":2024},"socio":{"annee":2021,"revenu_median":21270.0},"vivrescore":87},{"code_insee":"76084","nom":"Bertreville","codes_postaux":["76450"],"code_dep":"76","code_region":"28","population":121,"surface_km2":3.24,"lat":49.7664,"lon":0.5784,"fibre_pct":100.0,"securite":{"taux_pour_mille":0.0,"annee":2024},"socio":{"annee":2021,"revenu_median":22090.0},"vivrescore":87},{"code_insee":"76085","nom":"Bertreville-Saint-Ouen","codes_postaux":["76590"],"code_dep":"76","code_region":"28","population":347,"surface_km2":6.67,"lat":49.8128,"lon":1.042,"fibre_pct":94.9,"securite":{"taux_pour_mille":0.0,"annee":2024},"socio":{"annee":2021,"revenu_median":25720.0},"vivrescore":87},{"code_insee":"76086","nom":"Bertrimont","codes_postaux":["76890"],"code_dep":"76","code_region":"28","population":227,"surface_km2":4.77,"lat":49.6702,"lon":0.9976,"fibre_pct":100.0,"securite":{"taux_pour_mille":0.0,"annee":2024},"socio":{"annee":2021,"revenu_median":22380.0},"vivrescore":87},{"code_insee":"76087","nom":"Berville-en-Caux","codes_postaux":["76560"],"code_dep":"76","code_region":"28","population":698,"surface_km2":6.78,"lat":49.713,"lon":0.8378,"fibre_pct":100.0,"securite":{"taux_pour_mille":0.0,"annee":2024},"socio":{"annee":2021,"revenu_median":22780.0},"vivrescore":87},{"code_insee":"76088","nom":"Berville-sur-Seine","codes_postaux":["76480"],"code_dep":"76","code_region":"28","population":528,"surface_km2":7.0,"lat":49.4728,"lon":0.8952,"fibre_pct":93.8,"securite":{"taux_pour_mille":0.0,"annee":2024},"socio":{"annee":2021,"revenu_median":22190.0},"vivrescore":80},{"code_insee":"76090","nom":"Beuzeville-la-Grenier","codes_postaux":["76210"],"code_dep":"76","code_region":"28","population":1197,"surface_km2":6.25,"lat":49.5934,"lon":0.4203,"fibre_pct":100.0,"securite":{"taux_pour_mille":0.0,"annee":2024},"socio":{"annee":2021,"revenu_median":24330.0},"vivrescore":87},{"code_insee":"76091","nom":"Beuzeville-la-Guérard","codes_postaux":["76450"],"code_dep":"76","code_region":"28","population":237,"surface_km2":6.45,"lat":49.7089,"lon":0.6121,"fibre_pct":95.9,"securite":{"taux_pour_mille":0.0,"annee":2024},"socio":{"annee":2021,"revenu_median":22640.0},"vivrescore":87},{"code_insee":"76092","nom":"Beuzevillette","codes_postaux":["76210"],"code_dep":"76","code_region":"28","population":606,"surface_km2":5.67,"lat":49.5734,"lon":0.5501,"fibre_pct":100.0,"securite":{"taux_pour_mille":0.0,"annee":2024},"socio":{"annee":2021,"revenu_median":24650.0},"vivrescore":87},{"code_insee":"76093","nom":"Bézancourt","codes_postaux":["76220"],"code_dep":"76","code_region":"28","population":358,"surface_km2":17.68,"lat":49.4342,"lon":1.6113,"fibre_pct":100.0,"securite":{"taux_pour_mille":0.0,"annee":2024},"socio":{"annee":2021,"revenu_median":22650.0},"vivrescore":87},{"code_insee":"76094","nom":"Bierville","codes_postaux":["76750"],"code_dep":"76","code_region":"28","population":315,"surface_km2":2.14,"lat":49.5369,"lon":1.275,"fibre_pct":95.8,"securite":{"taux_pour_mille":0.0,"annee":2024},"socio":{"annee":2021,"revenu_median":25510.0},"vivrescore":93},{"code_insee":"76095","nom":"Bihorel","codes_postaux":["76420"],"code_dep":"76","code_region":"28","population":8316,"surface_km2":2.51,"lat":49.4634,"lon":1.1288,"fibre_pct":97.9,"securite":{"taux_pour_mille":56.6,"annee":2024},"socio":{"annee":2021,"revenu_median":25600.0,"taux_pauvrete":12.0},"vivrescore":67},{"code_insee":"76096","nom":"Biville-la-Baignarde","codes_postaux":["76890"],"code_dep":"76","code_region":"28","population":661,"surface_km2":6.93,"lat":49.7223,"lon":1.047,"fibre_pct":100.0,"securite":{"taux_pour_mille":0.0,"annee":2024},"socio":{"annee":2021,"revenu_median":23080.0},"vivrescore":87},{"code_insee":"76097","nom":"Biville-la-Rivière","codes_postaux":["76730"],"code_dep":"76","code_region":"28","population":103,"surface_km2":2.24,"lat":49.776,"lon":0.918,"fibre_pct":100.0,"securite":{"taux_pour_mille":0.0,"annee":2024},"socio":{"annee":2021,"revenu_median":21130.0},"vivrescore":87},{"code_insee":"76099","nom":"Blacqueville","codes_postaux":["76190"],"code_dep":"76","code_region":"28","population":660,"surface_km2":9.95,"lat":49.5599,"lon":0.8457,"fibre_pct":98.0,"securite":{"taux_pour_mille":0.0,"annee":2024},"socio":{"annee":2021,"revenu_median":25470.0},"vivrescore":93},{"code_insee":"76100","nom":"Blainville-Crevon","codes_postaux":["76116"],"code_dep":"76","code_region":"28","population":1226,"surface_km2":14.76,"lat":49.5071,"lon":1.293,"fibre_pct":100.0,"securite":{"taux_pour_mille":0.0,"annee":2024},"socio":{"annee":2021,"revenu_median":26450.0},"vivrescore":93},{"code_insee":"76101","nom":"Blangy-sur-Bresle","codes_postaux":["76340"],"code_dep":"76","code_region":"28","population":2819,"surface_km2":17.43,"lat":49.9163,"lon":1.6316,"fibre_pct":99.5,"securite":{"taux_pour_mille":47.8,"annee":2024},"socio":{"annee":2021,"revenu_median":19680.0,"taux_pauvrete":19.0},"vivrescore":53},{"code_insee":"76103","nom":"Bonsecours","codes_postaux":["76240"],"code_dep":"76","code_region":"28","population":6442,"surface_km2":3.75,"lat":49.4251,"lon":1.1353,"fibre_pct":96.3,"securite":{"taux_pour_mille":47.3,"annee":2024},"socio":{"annee":2021,"taux_pauvrete":10.0,"revenu_median":26900.0},"vivrescore":67},{"code_insee":"76104","nom":"Blosseville","codes_postaux":["76460"],"code_dep":"76","code_region":"28","population":260,"surface_km2":7.06,"lat":49.8536,"lon":0.8047,"fibre_pct":100.0,"securite":{"taux_pour_mille":0.0,"annee":2024},"socio":{"annee":2021,"revenu_median":22460.0},"vivrescore":87},{"code_insee":"76105","nom":"Le Bocasse","codes_postaux":["76690"],"code_dep":"76","code_region":"28","population":654,"surface_km2":8.62,"lat":49.6101,"lon":1.0722,"fibre_pct":100.0,"securite":{"taux_pour_mille":0.0,"annee":2024},"socio":{"annee":2021,"revenu_median":25090.0},"vivrescore":93},{"code_insee":"76106","nom":"Bois-d'Ennebourg","codes_postaux":["76160"],"code_dep":"76","code_region":"28","population":583,"surface_km2":7.09,"lat":49.4259,"lon":1.2575,"fibre_pct":97.2,"securite":{"taux_pour_mille":0.0,"annee":2024},"socio":{"annee":2021,"revenu_median":27600.0},"vivrescore":93},{"code_insee":"76107","nom":"Bois-Guilbert","codes_postaux":["76750"],"code_dep":"76","code_region":"28","population":289,"surface_km2":8.1,"lat":49.5389,"lon":1.4155,"fibre_pct":100.0,"securite":{"taux_pour_mille":0.0,"annee":2024},"socio":{"annee":2021,"revenu_median":21940.0},"vivrescore":87},{"code_insee":"76108","nom":"Bois-Guillaume","codes_postaux":["76230"],"code_dep":"76","code_region":"28","population":14539,"surface_km2":8.86,"lat":49.4729,"lon":1.1194,"fibre_pct":95.2,"securite":{"taux_pour_mille":51.6,"annee":2024},"socio":{"annee":2021,"taux_pauvrete":6.0,"revenu_median":32370.0},"vivrescore":73},{"code_insee":"76109","nom":"Bois-Héroult","codes_postaux":["76750"],"code_dep":"76","code_region":"28","population":167,"surface_km2":6.48,"lat":49.5691,"lon":1.4093,"fibre_pct":100.0,"securite":{"taux_pour_mille":0.0,"annee":2024},"socio":{"annee":2021,"revenu_median":23690.0},"vivrescore":87},{"code_insee":"76110","nom":"Bois-Himont","codes_postaux":["76190"],"code_dep":"76","code_region":"28","population":436,"surface_km2":5.85,"lat":49.58,"lon":0.686,"fibre_pct":100.0,"securite":{"taux_pour_mille":0.0,"annee":2024},"socio":{"annee":2021,"revenu_median":23180.0},"vivrescore":87},{"code_insee":"76111","nom":"Bois-l'Évêque","codes_postaux":["76160"],"code_dep":"76","code_region":"28","population":641,"surface_km2":7.33,"lat":49.4543,"lon":1.2525,"fibre_pct":100.0,"securite":{"taux_pour_mille":0.0,"annee":2024},"socio":{"annee":2021,"revenu_median":26120.0},"vivrescore":93},{"code_insee":"76112","nom":"Le Bois-Robert","codes_postaux":["76590"],"code_dep":"76","code_region":"28","population":388,"surface_km2":5.01,"lat":49.8395,"lon":1.1469,"fibre_pct":100.0,"securite":{"taux_pour_mille":0.0,"annee":2024},"socio":{"annee":2021,"revenu_median":23840.0},"vivrescore":87},{"code_insee":"76113","nom":"Boissay","codes_postaux":["76750"],"code_dep":"76","code_region":"28","population":429,"surface_km2":6.67,"lat":49.5191,"lon":1.3602,"fibre_pct":100.0,"securite":{"taux_pour_mille":0.0,"annee":2024},"socio":{"annee":2021,"revenu_median":24060.0},"vivrescore":87},{"code_insee":"76114","nom":"Bolbec","codes_postaux":["76210"],"code_dep":"76","code_region":"28","population":11590,"surface_km2":12.29,"lat":49.5755,"lon":0.483,"fibre_pct":98.6,"securite":{"taux_pour_mille":42.3,"annee":2024},"socio":{"annee":2021,"taux_pauvrete":23.0,"revenu_median":18770.0},"vivrescore":53},{"code_insee":"76115","nom":"Bolleville","codes_postaux":["76210"],"code_dep":"76","code_region":"28","population":596,"surface_km2":9.86,"lat":49.6065,"lon":0.5662,"fibre_pct":100.0,"securite":{"taux_pour_mille":0.0,"annee":2024},"socio":{"annee":2021,"revenu_median":23470.0},"vivrescore":87},{"code_insee":"76116","nom":"Boos","codes_postaux":["76520"],"code_dep":"76","code_region":"28","population":3975,"surface_km2":14.11,"lat":49.3762,"lon":1.2047,"fibre_pct":95.0,"securite":{"taux_pour_mille":12.8,"annee":2024},"socio":{"annee":2021,"revenu_median":25620.0,"taux_pauvrete":5.0},"vivrescore":87},{"code_insee":"76117","nom":"Bordeaux-Saint-Clair","codes_postaux":["76790"],"code_dep":"76","code_region":"28","population":658,"surface_km2":10.21,"lat":49.6953,"lon":0.2445,"fibre_pct":100.0,"securite":{"taux_pour_mille":0.0,"annee":2024},"socio":{"annee":2021,"revenu_median":23890.0},"vivrescore":87},{"code_insee":"76118","nom":"Bornambusc","codes_postaux":["76110"],"code_dep":"76","code_region":"28","population":245,"surface_km2":4.14,"lat":49.6251,"lon":0.3532,"fibre_pct":98.4,"securite":{"taux_pour_mille":0.0,"annee":2024},"socio":{"annee":2021,"revenu_median":26220.0},"vivrescore":93},{"code_insee":"76119","nom":"Bosc-Bérenger","codes_postaux":["76680"],"code_dep":"76","code_region":"28","population":194,"surface_km2":3.44,"lat":49.6359,"lon":1.2532,"fibre_pct":100.0,"securite":{"taux_pour_mille":0.0,"annee":2024},"socio":{"annee":2021,"revenu_median":22960.0},"vivrescore":87},{"code_insee":"76120","nom":"Bosc-Bordel","codes_postaux":["76750"],"code_dep":"76","code_region":"28","population":455,"surface_km2":11.98,"lat":49.6075,"lon":1.4121,"fibre_pct":100.0,"securite":{"taux_pour_mille":0.0,"annee":2024},"socio":{"annee":2021,"revenu_median":23270.0},"vivrescore":87},{"code_insee":"76121","nom":"Bosc-Édeline","codes_postaux":["76750"],"code_dep":"76","code_region":"28","population":357,"surface_km2":6.25,"lat":49.5751,"lon":1.429,"fibre_pct":100.0,"securite":{"taux_pour_mille":0.0,"annee":2024},"socio":{"annee":2021,"revenu_median":23800.0},"vivrescore":87},{"code_insee":"76122","nom":"Callengeville","codes_postaux":["76270"],"code_dep":"76","code_region":"28","population":499,"surface_km2":17.19,"lat":49.8283,"lon":1.5214,"fibre_pct":99.6,"securite":{"taux_pour_mille":20.0,"annee":2024},"socio":{"annee":2021,"revenu_median":21610.0},"vivrescore":73},{"code_insee":"76123","nom":"Bosc-Guérard-Saint-Adrien","codes_postaux":["76710"],"code_dep":"76","code_region":"28","population":1101,"surface_km2":10.4,"lat":49.5412,"lon":1.1232,"fibre_pct":100.0,"securite":{"taux_pour_mille":0.0,"annee":2024},"socio":{"annee":2021,"revenu_median":29050.0},"vivrescore":93},{"code_insee":"76124","nom":"Bosc-Hyons","codes_postaux":["76220"],"code_dep":"76","code_region":"28","population":414,"surface_km2":5.64,"lat":49.4516,"lon":1.6491,"fibre_pct":100.0,"securite":{"taux_pour_mille":0.0,"annee":2024},"socio":{"annee":2021,"revenu_median":22930.0},"vivrescore":87},{"code_insee":"76125","nom":"Bosc-le-Hard","codes_postaux":["76850"],"code_dep":"76","code_region":"28","population":1611,"surface_km2":10.58,"lat":49.6217,"lon":1.187,"fibre_pct":99.9,"securite":{"taux_pour_mille":0.0,"annee":2024},"socio":{"annee":2021,"revenu_median":21800.0},"vivrescore":87},{"code_insee":"76126","nom":"Bosc-Mesnil","codes_postaux":["76680"],"code_dep":"76","code_region":"28","population":318,"surface_km2":9.35,"lat":49.6688,"lon":1.3458,"fibre_pct":94.4,"securite":{"taux_pour_mille":63.8,"annee":2024},"socio":{"annee":2021,"revenu_median":22160.0},"vivrescore":53},{"code_insee":"76128","nom":"Bosville","codes_postaux":["76450"],"code_dep":"76","code_region":"28","population":584,"surface_km2":8.75,"lat":49.7603,"lon":0.681,"fibre_pct":100.0,"securite":{"taux_pour_mille":0.0,"annee":2024},"socio":{"annee":2021,"revenu_median":22380.0},"vivrescore":87},{"code_insee":"76129","nom":"Boudeville","codes_postaux":["76560"],"code_dep":"76","code_region":"28","population":217,"surface_km2":4.67,"lat":49.7204,"lon":0.8728,"fibre_pct":100.0,"securite":{"taux_pour_mille":0.0,"annee":2024},"socio":{"annee":2021,"revenu_median":22640.0},"vivrescore":87},{"code_insee":"76130","nom":"Bouelles","codes_postaux":["76270"],"code_dep":"76","code_region":"28","population":260,"surface_km2":7.96,"lat":49.7216,"lon":1.4968,"fibre_pct":93.5,"securite":{"taux_pour_mille":0.0,"annee":2024},"socio":{"annee":2021,"revenu_median":23130.0},"vivrescore":80},{"code_insee":"76131","nom":"La Bouille","codes_postaux":["76530"],"code_dep":"76","code_region":"28","population":706,"surface_km2":1.25,"lat":49.3513,"lon":0.9342,"fibre_pct":93.1,"securite":{"taux_pour_mille":0.0,"annee":2024},"socio":{"annee":2021,"revenu_median":23950.0},"vivrescore":80},{"code_insee":"76132","nom":"Bourdainville","codes_postaux":["76760"],"code_dep":"76","code_region":"28","population":479,"surface_km2":5.34,"lat":49.6751,"lon":0.9385,"fibre_pct":100.0,"securite":{"taux_pour_mille":0.0,"annee":2024},"socio":{"annee":2021,"revenu_median":23480.0},"vivrescore":87},{"code_insee":"76133","nom":"Le Bourg-Dun","codes_postaux":["76740"],"code_dep":"76","code_region":"28","population":422,"surface_km2":14.71,"lat":49.871,"lon":0.8864,"fibre_pct":100.0,"securite":{"taux_pour_mille":0.0,"annee":2024},"socio":{"annee":2021,"revenu_median":23030.0},"vivrescore":87},{"code_insee":"76134","nom":"Bourville","codes_postaux":["76740"],"code_dep":"76","code_region":"28","population":276,"surface_km2":6.63,"lat":49.7955,"lon":0.8222,"fibre_pct":99.8,"securite":{"taux_pour_mille":0.0,"annee":2024},"socio":{"annee":2021,"revenu_median":19970.0},"vivrescore":80},{"code_insee":"76135","nom":"Bouville","codes_postaux":["76360"],"code_dep":"76","code_region":"28","population":1039,"surface_km2":12.52,"lat":49.5599,"lon":0.8943,"fibre_pct":100.0,"securite":{"taux_pour_mille":0.0,"annee":2024},"socio":{"annee":2021,"revenu_median":25380.0},"vivrescore":93},{"code_insee":"76136","nom":"Brachy","codes_postaux":["76730"],"code_dep":"76","code_region":"28","population":663,"surface_km2":11.09,"lat":49.8168,"lon":0.9487,"fibre_pct":100.0,"securite":{"taux_pour_mille":0.0,"annee":2024},"socio":{"annee":2021,"revenu_median":21380.0},"vivrescore":87},{"code_insee":"76138","nom":"Bracquetuit","codes_postaux":["76850"],"code_dep":"76","code_region":"28","population":333,"surface_km2":8.44,"lat":49.665,"lon":1.171,"fibre_pct":100.0,"securite":{"taux_pour_mille":0.0,"annee":2024},"socio":{"annee":2021,"revenu_median":23800.0},"vivrescore":87},{"code_insee":"76139","nom":"Bradiancourt","codes_postaux":["76680"],"code_dep":"76","code_region":"28","population":221,"surface_km2":4.1,"lat":49.6592,"lon":1.386,"fibre_pct":100.0,"securite":{"taux_pour_mille":0.0,"annee":2024},"socio":{"annee":2021,"revenu_median":21450.0},"vivrescore":87},{"code_insee":"76140","nom":"Brametot","codes_postaux":["76740"],"code_dep":"76","code_region":"28","population":199,"surface_km2":3.23,"lat":49.7811,"lon":0.8715,"fibre_pct":100.0,"securite":{"taux_pour_mille":0.0,"annee":2024},"socio":{"annee":2021,"revenu_median":18120.0},"vivrescore":80},{"code_insee":"76141","nom":"Bréauté","codes_postaux":["76110"],"code_dep":"76","code_region":"28","population":1329,"surface_km2":13.9,"lat":49.6252,"lon":0.402,"fibre_pct":93.2,"securite":{"taux_pour_mille":51.4,"annee":2024},"socio":{"annee":2021,"revenu_median":23500.0},"vivrescore":53},{"code_insee":"76142","nom":"Brémontier-Merval","codes_postaux":["76220"],"code_dep":"76","code_region":"28","population":425,"surface_km2":17.19,"lat":49.5141,"lon":1.6195,"fibre_pct":100.0,"securite":{"taux_pour_mille":0.0,"annee":2024},"socio":{"annee":2021,"revenu_median":24240.0},"vivrescore":87},{"code_insee":"76143","nom":"Bretteville-du-Grand-Caux","codes_postaux":["76110"],"code_dep":"76","code_region":"28","population":1405,"surface_km2":11.41,"lat":49.6636,"lon":0.3878,"fibre_pct":99.9,"securite":{"taux_pour_mille":0.0,"annee":2024},"socio":{"annee":2021,"revenu_median":25250.0},"vivrescore":93},{"code_insee":"76144","nom":"Bretteville-Saint-Laurent","codes_postaux":["76560"],"code_dep":"76","code_region":"28","population":163,"surface_km2":4.03,"lat":49.7682,"lon":0.8667,"fibre_pct":94.3,"securite":{"taux_pour_mille":0.0,"annee":2024},"socio":{"annee":2021,"revenu_median":23630.0},"vivrescore":80},{"code_insee":"76146","nom":"Buchy","codes_postaux":["76750"],"code_dep":"76","code_region":"28","population":2815,"surface_km2":26.35,"lat":49.5859,"lon":1.3394,"fibre_pct":99.2,"securite":{"taux_pour_mille":34.4,"annee":2024},"socio":{"annee":2021,"taux_pauvrete":9.0,"revenu_median":23440.0},"vivrescore":67},{"code_insee":"76147","nom":"Bully","codes_postaux":["76270"],"code_dep":"76","code_region":"28","population":863,"surface_km2":19.6,"lat":49.7183,"lon":1.3582,"fibre_pct":97.1,"securite":{"taux_pour_mille":0.0,"annee":2024},"socio":{"annee":2021,"revenu_median":23500.0},"vivrescore":87},{"code_insee":"76148","nom":"Bures-en-Bray","codes_postaux":["76660"],"code_dep":"76","code_region":"28","population":302,"surface_km2":10.9,"lat":49.7777,"lon":1.3356,"fibre_pct":100.0,"securite":{"taux_pour_mille":0.0,"annee":2024},"socio":{"annee":2021,"revenu_median":21380.0},"vivrescore":87},{"code_insee":"76149","nom":"Butot","codes_postaux":["76890"],"code_dep":"76","code_region":"28","population":280,"surface_km2":5.51,"lat":49.6123,"lon":1.024,"fibre_pct":100.0,"securite":{"taux_pour_mille":0.0,"annee":2024},"socio":{"annee":2021,"revenu_median":25210.0},"vivrescore":93},{"code_insee":"76151","nom":"Cailleville","codes_postaux":["76460"],"code_dep":"76","code_region":"28","population":244,"surface_km2":5.06,"lat":49.8368,"lon":0.7358,"fibre_pct":100.0,"securite":{"taux_pour_mille":0.0,"annee":2024},"socio":{"annee":2021,"revenu_median":24240.0},"vivrescore":87},{"code_insee":"76152","nom":"Cailly","codes_postaux":["76690"],"code_dep":"76","code_region":"28","population":731,"surface_km2":5.51,"lat":49.5869,"lon":1.2299,"fibre_pct":100.0,"securite":{"taux_pour_mille":0.0,"annee":2024},"socio":{"annee":2021,"revenu_median":24210.0},"vivrescore":87},{"code_insee":"76153","nom":"Calleville-les-Deux-Églises","codes_postaux":["76890"],"code_dep":"76","code_region":"28","population":328,"surface_km2":5.62,"lat":49.7026,"lon":1.02,"fibre_pct":100.0,"securite":{"taux_pour_mille":0.0,"annee":2024},"socio":{"annee":2021,"revenu_median":22320.0},"vivrescore":87},{"code_insee":"76154","nom":"Campneuseville","codes_postaux":["76340"],"code_dep":"76","code_region":"28","population":440,"surface_km2":12.43,"lat":49.8629,"lon":1.6608,"fibre_pct":98.3,"securite":{"taux_pour_mille":0.0,"annee":2024},"socio":{"annee":2021,"revenu_median":22150.0},"vivrescore":87},{"code_insee":"76155","nom":"Canehan","codes_postaux":["76260"],"code_dep":"76","code_region":"28","population":378,"surface_km2":6.21,"lat":49.9788,"lon":1.3434,"fibre_pct":100.0,"securite":{"taux_pour_mille":0.0,"annee":2024},"socio":{"annee":2021,"revenu_median":22070.0},"vivrescore":87},{"code_insee":"76156","nom":"Canouville","codes_postaux":["76450"],"code_dep":"76","code_region":"28","population":344,"surface_km2":4.5,"lat":49.808,"lon":0.5945,"fibre_pct":100.0,"securite":{"taux_pour_mille":0.0,"annee":2024},"socio":{"annee":2021,"revenu_median":21940.0},"vivrescore":87},{"code_insee":"76157","nom":"Canteleu","codes_postaux":["76380"],"code_dep":"76","code_region":"28","population":14402,"surface_km2":17.61,"lat":49.4323,"lon":1.0173,"fibre_pct":99.9,"securite":{"taux_pour_mille":57.7,"annee":2024},"socio":{"annee":2021,"taux_pauvrete":29.0,"revenu_median":18480.0},"vivrescore":53},{"code_insee":"76158","nom":"Canville-les-Deux-Églises","codes_postaux":["76560"],"code_dep":"76","code_region":"28","population":305,"surface_km2":5.82,"lat":49.7729,"lon":0.8354,"fibre_pct":100.0,"securite":{"taux_pour_mille":0.0,"annee":2024},"socio":{"annee":2021,"revenu_median":21500.0},"vivrescore":87},{"code_insee":"76159","nom":"Cany-Barville","codes_postaux":["76450"],"code_dep":"76","code_region":"28","population":2909,"surface_km2":13.58,"lat":49.78,"lon":0.6314,"fibre_pct":99.9,"securite":{"taux_pour_mille":28.3,"annee":2024},"socio":{"annee":2021,"revenu_median":20520.0,"taux_pauvrete":19.0},"vivrescore":67},{"code_insee":"76160","nom":"Carville-la-Folletière","codes_postaux":["76190"],"code_dep":"76","code_region":"28","population":419,"surface_km2":4.35,"lat":49.5599,"lon":0.8181,"fibre_pct":98.9,"securite":{"taux_pour_mille":0.0,"annee":2024},"socio":{"annee":2021,"revenu_median":25030.0},"vivrescore":93},{"code_insee":"76161","nom":"Carville-Pot-de-Fer","codes_postaux":["76560"],"code_dep":"76","code_region":"28","population":108,"surface_km2":5.28,"lat":49.7198,"lon":0.723,"fibre_pct":100.0,"securite":{"taux_pour_mille":0.0,"annee":2024},"socio":{"annee":2021,"revenu_median":24600.0},"vivrescore":87},{"code_insee":"76162","nom":"Le Catelier","codes_postaux":["76590"],"code_dep":"76","code_region":"28","population":264,"surface_km2":3.91,"lat":49.7579,"lon":1.1564,"fibre_pct":100.0,"securite":{"taux_pour_mille":0.0,"annee":2024},"socio":{"annee":2021,"revenu_median":23250.0},"vivrescore":87},{"code_insee":"76163","nom":"Catenay","codes_postaux":["76116"],"code_dep":"76","code_region":"28","population":702,"surface_km2":5.88,"lat":49.5102,"lon":1.3279,"fibre_pct":100.0,"securite":{"taux_pour_mille":0.0,"annee":2024},"socio":{"annee":2021,"revenu_median":26200.0},"vivrescore":93},{"code_insee":"76164","nom":"Rives-en-Seine","codes_postaux":["76490"],"code_dep":"76","code_region":"28","population":4002,"surface_km2":34.2,"lat":49.5266,"lon":0.7184,"fibre_pct":99.3,"securite":{"taux_pour_mille":37.6,"annee":2024},"socio":{"annee":2021,"revenu_median":22670.0,"taux_pauvrete":14.0},"vivrescore":67},{"code_insee":"76165","nom":"Caudebec-lès-Elbeuf","codes_postaux":["76320"],"code_dep":"76","code_region":"28","population":10476,"surface_km2":3.66,"lat":49.2821,"lon":1.0227,"fibre_pct":94.3,"securite":{"taux_pour_mille":44.1,"annee":2024},"socio":{"annee":2021,"taux_pauvrete":22.0,"revenu_median":19660.0},"vivrescore":47},{"code_insee":"76166","nom":"Le Caule-Sainte-Beuve","codes_postaux":["76390"],"code_dep":"76","code_region":"28","population":473,"surface_km2":16.76,"lat":49.7731,"lon":1.5886,"fibre_pct":99.6,"securite":{"taux_pour_mille":0.0,"annee":2024},"socio":{"annee":2021,"revenu_median":21100.0},"vivrescore":87},{"code_insee":"76167","nom":"Cauville-sur-Mer","codes_postaux":["76930"],"code_dep":"76","code_region":"28","population":1678,"surface_km2":11.3,"lat":49.594,"lon":0.1421,"fibre_pct":93.0,"securite":{"taux_pour_mille":0.0,"annee":2024},"socio":{"annee":2021,"revenu_median":28760.0},"vivrescore":87},{"code_insee":"76168","nom":"Les Cent-Acres","codes_postaux":["76590"],"code_dep":"76","code_region":"28","population":65,"surface_km2":5.12,"lat":49.7704,"lon":1.1439,"fibre_pct":94.5,"securite":{"taux_pour_mille":0.0,"annee":2024},"vivrescore":90},{"code_insee":"76169","nom":"La Cerlangue","codes_postaux":["76430"],"code_dep":"76","code_region":"28","population":1300,"surface_km2":29.42,"lat":49.4844,"lon":0.4203,"fibre_pct":99.9,"securite":{"taux_pour_mille":0.0,"annee":2024},"socio":{"annee":2021,"revenu_median":25950.0},"vivrescore":93},{"code_insee":"76170","nom":"La Chapelle-du-Bourgay","codes_postaux":["76590"],"code_dep":"76","code_region":"28","population":107,"surface_km2":3.05,"lat":49.8244,"lon":1.1467,"fibre_pct":99.9,"securite":{"taux_pour_mille":0.0,"annee":2024},"socio":{"annee":2021,"revenu_median":21870.0},"vivrescore":87},{"code_insee":"76171","nom":"La Chapelle-Saint-Ouen","codes_postaux":["76780"],"code_dep":"76","code_region":"28","population":147,"surface_km2":7.88,"lat":49.5197,"lon":1.4297,"fibre_pct":96.9,"securite":{"taux_pour_mille":0.0,"annee":2024},"socio":{"annee":2021,"revenu_median":22160.0},"vivrescore":87},{"code_insee":"76172","nom":"La Chapelle-sur-Dun","codes_postaux":["76740"],"code_dep":"76","code_region":"28","population":162,"surface_km2":4.41,"lat":49.8585,"lon":0.8451,"fibre_pct":100.0,"securite":{"taux_pour_mille":0.0,"annee":2024},"socio":{"annee":2021,"revenu_median":26080.0},"vivrescore":93},{"code_insee":"76173","nom":"La Chaussée","codes_postaux":["76590"],"code_dep":"76","code_region":"28","population":561,"surface_km2":8.08,"lat":49.8196,"lon":1.121,"fibre_pct":100.0,"securite":{"taux_pour_mille":0.0,"annee":2024},"socio":{"annee":2021,"revenu_median":24360.0},"vivrescore":87},{"code_insee":"76174","nom":"Cideville","codes_postaux":["76570"],"code_dep":"76","code_region":"28","population":430,"surface_km2":5.1,"lat":49.6117,"lon":0.8863,"fibre_pct":98.9,"securite":{"taux_pour_mille":0.0,"annee":2024},"socio":{"annee":2021,"revenu_median":24850.0},"vivrescore":87},{"code_insee":"76175","nom":"Clais","codes_postaux":["76660"],"code_dep":"76","code_region":"28","population":264,"surface_km2":12.52,"lat":49.8137,"lon":1.4702,"fibre_pct":98.6,"securite":{"taux_pour_mille":0.0,"annee":2024},"socio":{"annee":2021,"revenu_median":21820.0},"vivrescore":87},{"code_insee":"76176","nom":"Clasville","codes_postaux":["76450"],"code_dep":"76","code_region":"28","population":347,"surface_km2":3.17,"lat":49.7933,"lon":0.6208,"fibre_pct":100.0,"securite":{"taux_pour_mille":0.0,"annee":2024},"socio":{"annee":2021,"revenu_median":23730.0},"vivrescore":87},{"code_insee":"76177","nom":"Claville-Motteville","codes_postaux":["76690"],"code_dep":"76","code_region":"28","population":260,"surface_km2":9.29,"lat":49.5848,"lon":1.1838,"fibre_pct":100.0,"securite":{"taux_pour_mille":0.0,"annee":2024},"socio":{"annee":2021,"revenu_median":24390.0},"vivrescore":87},{"code_insee":"76178","nom":"Cléon","codes_postaux":["76410"],"code_dep":"76","code_region":"28","population":4795,"surface_km2":6.51,"lat":49.3155,"lon":1.0393,"fibre_pct":98.8,"securite":{"taux_pour_mille":28.0,"annee":2024},"socio":{"annee":2021,"revenu_median":19240.0,"taux_pauvrete":25.0},"vivrescore":60},{"code_insee":"76179","nom":"Clères","codes_postaux":["76690"],"code_dep":"76","code_region":"28","population":1381,"surface_km2":11.45,"lat":49.5902,"lon":1.1007,"fibre_pct":99.7,"securite":{"taux_pour_mille":6.5,"annee":2024},"socio":{"annee":2021,"revenu_median":24640.0},"vivrescore":80},{"code_insee":"76180","nom":"Cleuville","codes_postaux":["76450"],"code_dep":"76","code_region":"28","population":190,"surface_km2":4.11,"lat":49.7046,"lon":0.65,"fibre_pct":100.0,"securite":{"taux_pour_mille":0.0,"annee":2024},"socio":{"annee":2021,"revenu_median":24090.0},"vivrescore":87},{"code_insee":"76181","nom":"Cléville","codes_postaux":["76640"],"code_dep":"76","code_region":"28","population":136,"surface_km2":5.43,"lat":49.6202,"lon":0.6184,"fibre_pct":98.6,"securite":{"taux_pour_mille":0.0,"annee":2024},"socio":{"annee":2021,"revenu_median":21580.0},"vivrescore":87},{"code_insee":"76182","nom":"Cliponville","codes_postaux":["76640"],"code_dep":"76","code_region":"28","population":245,"surface_km2":7.46,"lat":49.6708,"lon":0.6599,"fibre_pct":99.8,"securite":{"taux_pour_mille":0.0,"annee":2024},"socio":{"annee":2021,"revenu_median":24530.0},"vivrescore":87},{"code_insee":"76183","nom":"Colleville","codes_postaux":["76400"],"code_dep":"76","code_region":"28","population":746,"surface_km2":7.4,"lat":49.7538,"lon":0.4595,"fibre_pct":99.7,"securite":{"taux_pour_mille":0.0,"annee":2024},"socio":{"annee":2021,"revenu_median":22920.0},"vivrescore":87},{"code_insee":"76184","nom":"Colmesnil-Manneville","codes_postaux":["76550"],"code_dep":"76","code_region":"28","population":106,"surface_km2":1.96,"lat":49.8473,"lon":1.0289,"fibre_pct":100.0,"securite":{"taux_pour_mille":0.0,"annee":2024},"socio":{"annee":2021,"revenu_median":25990.0},"vivrescore":93},{"code_insee":"76185","nom":"Compainville","codes_postaux":["76440"],"code_dep":"76","code_region":"28","population":159,"surface_km2":6.43,"lat":49.6569,"lon":1.5636,"fibre_pct":100.0,"securite":{"taux_pour_mille":0.0,"annee":2024},"socio":{"annee":2021,"revenu_median":20690.0},"vivrescore":87},{"code_insee":"76186","nom":"Conteville","codes_postaux":["76390"],"code_dep":"76","code_region":"28","population":507,"surface_km2":13.78,"lat":49.6962,"lon":1.6389,"fibre_pct":100.0,"securite":{"taux_pour_mille":0.0,"annee":2024},"socio":{"annee":2021,"revenu_median":20870.0},"vivrescore":87},{"code_insee":"76187","nom":"Contremoulins","codes_postaux":["76400"],"code_dep":"76","code_region":"28","population":167,"surface_km2":4.38,"lat":49.7256,"lon":0.4378,"fibre_pct":93.9,"securite":{"taux_pour_mille":0.0,"annee":2024},"socio":{"annee":2021,"revenu_median":26050.0},"vivrescore":87},{"code_insee":"76188","nom":"Cottévrard","codes_postaux":["76850"],"code_dep":"76","code_region":"28","population":470,"surface_km2":7.89,"lat":49.6385,"lon":1.2245,"fibre_pct":100.0,"securite":{"taux_pour_mille":0.0,"annee":2024},"socio":{"annee":2021,"revenu_median":23050.0},"vivrescore":87},{"code_insee":"76189","nom":"Crasville-la-Mallet","codes_postaux":["76450"],"code_dep":"76","code_region":"28","population":189,"surface_km2":3.21,"lat":49.8044,"lon":0.7169,"fibre_pct":100.0,"securite":{"taux_pour_mille":0.0,"annee":2024},"socio":{"annee":2021,"revenu_median":26440.0},"vivrescore":93},{"code_insee":"76190","nom":"Crasville-la-Rocquefort","codes_postaux":["76740"],"code_dep":"76","code_region":"28","population":207,"surface_km2":5.3,"lat":49.8024,"lon":0.8752,"fibre_pct":100.0,"securite":{"taux_pour_mille":0.0,"annee":2024},"socio":{"annee":2021,"revenu_median":20770.0},"vivrescore":87},{"code_insee":"76192","nom":"Criel-sur-Mer","codes_postaux":["76910"],"code_dep":"76","code_region":"28","population":2527,"surface_km2":20.91,"lat":50.0221,"lon":1.3215,"fibre_pct":85.2,"securite":{"taux_pour_mille":24.7,"annee":2024},"socio":{"annee":2021,"revenu_median":22720.0,"taux_pauvrete":11.0},"vivrescore":67},{"code_insee":"76193","nom":"La Crique","codes_postaux":["76850"],"code_dep":"76","code_region":"28","population":383,"surface_km2":10.22,"lat":49.6929,"lon":1.2051,"fibre_pct":100.0,"securite":{"taux_pour_mille":0.0,"annee":2024},"socio":{"annee":2021,"revenu_median":23550.0},"vivrescore":87},{"code_insee":"76194","nom":"Criquebeuf-en-Caux","codes_postaux":["76111"],"code_dep":"76","code_region":"28","population":405,"surface_km2":2.12,"lat":49.7401,"lon":0.3332,"fibre_pct":100.0,"securite":{"taux_pour_mille":0.0,"annee":2024},"socio":{"annee":2021,"revenu_median":23740.0},"vivrescore":87},{"code_insee":"76195","nom":"Criquetot-le-Mauconduit","codes_postaux":["76540"],"code_dep":"76","code_region":"28","population":196,"surface_km2":4.15,"lat":49.7901,"lon":0.5623,"fibre_pct":100.0,"securite":{"taux_pour_mille":0.0,"annee":2024},"socio":{"annee":2021,"revenu_median":20380.0},"vivrescore":87},{"code_insee":"76196","nom":"Criquetot-l'Esneval","codes_postaux":["76280"],"code_dep":"76","code_region":"28","population":2668,"surface_km2":13.65,"lat":49.6344,"lon":0.2689,"fibre_pct":99.9,"securite":{"taux_pour_mille":18.6,"annee":2024},"socio":{"annee":2021,"revenu_median":24020.0},"vivrescore":73},{"code_insee":"76197","nom":"Criquetot-sur-Longueville","codes_postaux":["76590"],"code_dep":"76","code_region":"28","population":221,"surface_km2":7.39,"lat":49.782,"lon":1.0752,"fibre_pct":96.6,"securite":{"taux_pour_mille":0.0,"annee":2024},"socio":{"annee":2021,"revenu_median":25860.0},"vivrescore":93},{"code_insee":"76198","nom":"Criquetot-sur-Ouville","codes_postaux":["76760"],"code_dep":"76","code_region":"28","population":817,"surface_km2":5.87,"lat":49.6712,"lon":0.8484,"fibre_pct":100.0,"securite":{"taux_pour_mille":0.0,"annee":2024},"socio":{"annee":2021,"revenu_median":24110.0},"vivrescore":87},{"code_insee":"76199","nom":"Criquiers","codes_postaux":["76390"],"code_dep":"76","code_region":"28","population":716,"surface_km2":22.79,"lat":49.6758,"lon":1.7052,"fibre_pct":100.0,"securite":{"taux_pour_mille":0.0,"annee":2024},"socio":{"annee":2021,"revenu_median":20720.0},"vivrescore":87},{"code_insee":"76200","nom":"Critot","codes_postaux":["76680"],"code_dep":"76","code_region":"28","population":544,"surface_km2":7.04,"lat":49.6127,"lon":1.2445,"fibre_pct":100.0,"securite":{"taux_pour_mille":0.0,"annee":2024},"socio":{"annee":2021,"revenu_median":24310.0},"vivrescore":87},{"code_insee":"76201","nom":"Croisy-sur-Andelle","codes_postaux":["76780"],"code_dep":"76","code_region":"28","population":516,"surface_km2":3.75,"lat":49.46,"lon":1.4085,"fibre_pct":97.7,"securite":{"taux_pour_mille":0.0,"annee":2024},"socio":{"annee":2021,"revenu_median":21980.0},"vivrescore":87},{"code_insee":"76202","nom":"Croixdalle","codes_postaux":["76660"],"code_dep":"76","code_region":"28","population":338,"surface_km2":11.16,"lat":49.8021,"lon":1.3731,"fibre_pct":100.0,"securite":{"taux_pour_mille":0.0,"annee":2024},"socio":{"annee":2021,"revenu_median":20340.0},"vivrescore":87},{"code_insee":"76203","nom":"Croix-Mare","codes_postaux":["76190"],"code_dep":"76","code_region":"28","population":704,"surface_km2":8.7,"lat":49.5996,"lon":0.8341,"fibre_pct":99.4,"securite":{"taux_pour_mille":0.0,"annee":2024},"socio":{"annee":2021,"revenu_median":24330.0},"vivrescore":87},{"code_insee":"76204","nom":"Cropus","codes_postaux":["76720"],"code_dep":"76","code_region":"28","population":248,"surface_km2":4.87,"lat":49.7339,"lon":1.1474,"fibre_pct":99.9,"securite":{"taux_pour_mille":0.0,"annee":2024},"socio":{"annee":2021,"revenu_median":22050.0},"vivrescore":87},{"code_insee":"76205","nom":"Crosville-sur-Scie","codes_postaux":["76590"],"code_dep":"76","code_region":"28","population":225,"surface_km2":3.56,"lat":49.8199,"lon":1.0835,"fibre_pct":97.4,"securite":{"taux_pour_mille":0.0,"annee":2024},"socio":{"annee":2021,"revenu_median":23960.0},"vivrescore":87},{"code_insee":"76206","nom":"Cuverville","codes_postaux":["76280"],"code_dep":"76","code_region":"28","population":341,"surface_km2":4.53,"lat":49.6666,"lon":0.2666,"fibre_pct":98.4,"securite":{"taux_pour_mille":0.0,"annee":2024},"socio":{"annee":2021,"revenu_median":26250.0},"vivrescore":93},{"code_insee":"76207","nom":"Cuverville-sur-Yères","codes_postaux":["76260"],"code_dep":"76","code_region":"28","population":193,"surface_km2":11.13,"lat":49.9516,"lon":1.3893,"fibre_pct":100.0,"securite":{"taux_pour_mille":0.0,"annee":2024},"socio":{"annee":2021,"revenu_median":23630.0},"vivrescore":87},{"code_insee":"76208","nom":"Cuy-Saint-Fiacre","codes_postaux":["76220"],"code_dep":"76","code_region":"28","population":625,"surface_km2":9.66,"lat":49.5113,"lon":1.6865,"fibre_pct":98.2,"securite":{"taux_pour_mille":0.0,"annee":2024},"socio":{"annee":2021,"revenu_median":22920.0},"vivrescore":87},{"code_insee":"76209","nom":"Dampierre-en-Bray","codes_postaux":["76220"],"code_dep":"76","code_region":"28","population":451,"surface_km2":12.85,"lat":49.5341,"lon":1.6618,"fibre_pct":99.6,"securite":{"taux_pour_mille":0.0,"annee":2024},"socio":{"annee":2021,"revenu_median":21960.0},"vivrescore":87},{"code_insee":"76210","nom":"Dampierre-Saint-Nicolas","codes_postaux":["76510"],"code_dep":"76","code_region":"28","population":444,"surface_km2":3.94,"lat":49.8556,"lon":1.2053,"fibre_pct":100.0,"securite":{"taux_pour_mille":0.0,"annee":2024},"socio":{"annee":2021,"revenu_median":21840.0},"vivrescore":87},{"code_insee":"76211","nom":"Dancourt","codes_postaux":["76340"],"code_dep":"76","code_region":"28","population":235,"surface_km2":18.32,"lat":49.8998,"lon":1.5432,"fibre_pct":100.0,"securite":{"taux_pour_mille":0.0,"annee":2024},"socio":{"annee":2021,"revenu_median":20300.0},"vivrescore":87},{"code_insee":"76212","nom":"Darnétal","codes_postaux":["76160"],"code_dep":"76","code_region":"28","population":9566,"surface_km2":4.9,"lat":49.4468,"lon":1.1534,"fibre_pct":95.0,"securite":{"taux_pour_mille":48.7,"annee":2024},"socio":{"annee":2021,"revenu_median":19340.0,"taux_pauvrete":24.0},"vivrescore":53},{"code_insee":"76213","nom":"Daubeuf-Serville","codes_postaux":["76110"],"code_dep":"76","code_region":"28","population":397,"surface_km2":7.78,"lat":49.6951,"lon":0.4854,"fibre_pct":94.0,"securite":{"taux_pour_mille":0.0,"annee":2024},"socio":{"annee":2021,"revenu_median":21620.0},"vivrescore":80},{"code_insee":"76214","nom":"Dénestanville","codes_postaux":["76590"],"code_dep":"76","code_region":"28","population":282,"surface_km2":2.64,"lat":49.808,"lon":1.0915,"fibre_pct":100.0,"securite":{"taux_pour_mille":0.0,"annee":2024},"socio":{"annee":2021,"revenu_median":23040.0},"vivrescore":87},{"code_insee":"76216","nom":"Déville-lès-Rouen","codes_postaux":["76250"],"code_dep":"76","code_region":"28","population":10802,"surface_km2":3.16,"lat":49.4673,"lon":1.0495,"fibre_pct":92.4,"securite":{"taux_pour_mille":48.6,"annee":2024},"socio":{"annee":2021,"revenu_median":19820.0,"taux_pauvrete":24.0},"vivrescore":47},{"code_insee":"76217","nom":"Dieppe","codes_postaux":["76200","76370"],"code_dep":"76","code_region":"28","population":28496,"surface_km2":11.82,"lat":49.9199,"lon":1.0838,"fibre_pct":94.7,"securite":{"taux_pour_mille":60.0,"annee":2024},"socio":{"annee":2021,"taux_pauvrete":26.0,"revenu_median":18850.0},"vivrescore":47},{"code_insee":"76218","nom":"Doudeauville","codes_postaux":["76220"],"code_dep":"76","code_region":"28","population":115,"surface_km2":3.97,"lat":49.5671,"lon":1.6978,"fibre_pct":100.0,"securite":{"taux_pour_mille":0.0,"annee":2024},"socio":{"annee":2021,"revenu_median":21660.0},"vivrescore":87},{"code_insee":"76219","nom":"Doudeville","codes_postaux":["76560"],"code_dep":"76","code_region":"28","population":2420,"surface_km2":14.53,"lat":49.7273,"lon":0.7843,"fibre_pct":99.8,"securite":{"taux_pour_mille":26.6,"annee":2024},"socio":{"annee":2021,"revenu_median":20530.0,"taux_pauvrete":18.0},"vivrescore":67},{"code_insee":"76220","nom":"Douvrend","codes_postaux":["76630"],"code_dep":"76","code_region":"28","population":500,"surface_km2":17.99,"lat":49.8709,"lon":1.317,"fibre_pct":100.0,"securite":{"taux_pour_mille":0.0,"annee":2024},"socio":{"annee":2021,"revenu_median":20720.0},"vivrescore":87},{"code_insee":"76221","nom":"Drosay","codes_postaux":["76460"],"code_dep":"76","code_region":"28","population":190,"surface_km2":6.45,"lat":49.7945,"lon":0.7366,"fibre_pct":99.3,"securite":{"taux_pour_mille":0.0,"annee":2024},"socio":{"annee":2021,"revenu_median":25510.0},"vivrescore":93},{"code_insee":"76222","nom":"Duclair","codes_postaux":["76480"],"code_dep":"76","code_region":"28","population":3996,"surface_km2":10.11,"lat":49.4859,"lon":0.8701,"fibre_pct":95.3,"securite":{"taux_pour_mille":23.6,"annee":2024},"socio":{"annee":2021,"taux_pauvrete":9.0,"revenu_median":22810.0},"vivrescore":73},{"code_insee":"76223","nom":"Écalles-Alix","codes_postaux":["76190"],"code_dep":"76","code_region":"28","population":566,"surface_km2":7.51,"lat":49.6172,"lon":0.8102,"fibre_pct":99.6,"securite":{"taux_pour_mille":0.0,"annee":2024},"socio":{"annee":2021,"revenu_median":24340.0},"vivrescore":87},{"code_insee":"76224","nom":"Écrainville","codes_postaux":["76110"],"code_dep":"76","code_region":"28","population":1001,"surface_km2":12.96,"lat":49.6473,"lon":0.3122,"fibre_pct":100.0,"securite":{"taux_pour_mille":5.1,"annee":2024},"socio":{"annee":2021,"revenu_median":25230.0},"vivrescore":87},{"code_insee":"76225","nom":"Écretteville-lès-Baons","codes_postaux":["76190"],"code_dep":"76","code_region":"28","population":357,"surface_km2":9.37,"lat":49.6299,"lon":0.6713,"fibre_pct":100.0,"securite":{"taux_pour_mille":0.0,"annee":2024},"socio":{"annee":2021,"revenu_median":23870.0},"vivrescore":87},{"code_insee":"76226","nom":"Écretteville-sur-Mer","codes_postaux":["76540"],"code_dep":"76","code_region":"28","population":140,"surface_km2":1.9,"lat":49.7917,"lon":0.4851,"fibre_pct":96.6,"securite":{"taux_pour_mille":0.0,"annee":2024},"socio":{"annee":2021,"revenu_median":24610.0},"vivrescore":87},{"code_insee":"76227","nom":"Ectot-l'Auber","codes_postaux":["76760"],"code_dep":"76","code_region":"28","population":729,"surface_km2":5.02,"lat":49.6539,"lon":0.9287,"fibre_pct":100.0,"securite":{"taux_pour_mille":0.0,"annee":2024},"socio":{"annee":2021,"revenu_median":25520.0},"vivrescore":93},{"code_insee":"76228","nom":"Ectot-lès-Baons","codes_postaux":["76970"],"code_dep":"76","code_region":"28","population":398,"surface_km2":5.04,"lat":49.6443,"lon":0.8072,"fibre_pct":100.0,"securite":{"taux_pour_mille":0.0,"annee":2024},"socio":{"annee":2021,"revenu_median":24690.0},"vivrescore":87},{"code_insee":"76229","nom":"Elbeuf-en-Bray","codes_postaux":["76220"],"code_dep":"76","code_region":"28","population":395,"surface_km2":10.88,"lat":49.4946,"lon":1.6582,"fibre_pct":100.0,"securite":{"taux_pour_mille":0.0,"annee":2024},"socio":{"annee":2021,"revenu_median":23110.0},"vivrescore":87},{"code_insee":"76230","nom":"Elbeuf-sur-Andelle","codes_postaux":["76780"],"code_dep":"76","code_region":"28","population":431,"surface_km2":5.98,"lat":49.4788,"lon":1.3824,"fibre_pct":100.0,"securite":{"taux_pour_mille":0.0,"annee":2024},"socio":{"annee":2021,"revenu_median":24660.0},"vivrescore":87},{"code_insee":"76231","nom":"Elbeuf","codes_postaux":["76500"],"code_dep":"76","code_region":"28","population":15474,"surface_km2":16.31,"lat":49.2773,"lon":0.9974,"fibre_pct":91.7,"securite":{"taux_pour_mille":73.3,"annee":2024},"socio":{"annee":2021,"revenu_median":17120.0,"taux_pauvrete":34.0},"vivrescore":47},{"code_insee":"76232","nom":"Életot","codes_postaux":["76540"],"code_dep":"76","code_region":"28","population":626,"surface_km2":6.91,"lat":49.792,"lon":0.4566,"fibre_pct":100.0,"securite":{"taux_pour_mille":0.0,"annee":2024},"socio":{"annee":2021,"revenu_median":21350.0},"vivrescore":87},{"code_insee":"76233","nom":"Ellecourt","codes_postaux":["76390"],"code_dep":"76","code_region":"28","population":157,"surface_km2":4.4,"lat":49.8017,"lon":1.7273,"fibre_pct":100.0,"securite":{"taux_pour_mille":0.0,"annee":2024},"socio":{"annee":2021,"revenu_median":23510.0},"vivrescore":87},{"code_insee":"76234","nom":"Émanville","codes_postaux":["76570"],"code_dep":"76","code_region":"28","population":791,"surface_km2":6.41,"lat":49.6218,"lon":0.9583,"fibre_pct":100.0,"securite":{"taux_pour_mille":0.0,"annee":2024},"socio":{"annee":2021,"revenu_median":24530.0},"vivrescore":87},{"code_insee":"76235","nom":"Envermeu","codes_postaux":["76630"],"code_dep":"76","code_region":"28","population":1967,"surface_km2":14.42,"lat":49.898,"lon":1.2634,"fibre_pct":100.0,"securite":{"taux_pour_mille":6.1,"annee":2024},"socio":{"annee":2021,"revenu_median":22020.0},"vivrescore":80},{"code_insee":"76236","nom":"Envronville","codes_postaux":["76640"],"code_dep":"76","code_region":"28","population":367,"surface_km2":6.22,"lat":49.6586,"lon":0.6694,"fibre_pct":100.0,"securite":{"taux_pour_mille":0.0,"annee":2024},"socio":{"annee":2021,"revenu_median":22900.0},"vivrescore":87},{"code_insee":"76237","nom":"Épinay-sur-Duclair","codes_postaux":["76480"],"code_dep":"76","code_region":"28","population":521,"surface_km2":6.64,"lat":49.5253,"lon":0.8322,"fibre_pct":98.7,"securite":{"taux_pour_mille":0.0,"annee":2024},"socio":{"annee":2021,"revenu_median":23170.0},"vivrescore":87},{"code_insee":"76238","nom":"Épouville","codes_postaux":["76133"],"code_dep":"76","code_region":"28","population":2601,"surface_km2":5.6,"lat":49.5654,"lon":0.2286,"fibre_pct":98.5,"securite":{"taux_pour_mille":16.0,"annee":2024},"socio":{"annee":2021,"revenu_median":25290.0},"vivrescore":80},{"code_insee":"76239","nom":"Épretot","codes_postaux":["76430"],"code_dep":"76","code_region":"28","population":782,"surface_km2":6.88,"lat":49.5378,"lon":0.3139,"fibre_pct":96.4,"securite":{"taux_pour_mille":29.4,"annee":2024},"socio":{"annee":2021,"revenu_median":27050.0},"vivrescore":73},{"code_insee":"76240","nom":"Épreville","codes_postaux":["76400"],"code_dep":"76","code_region":"28","population":1084,"surface_km2":6.49,"lat":49.7051,"lon":0.3668,"fibre_pct":100.0,"securite":{"taux_pour_mille":0.0,"annee":2024},"socio":{"annee":2021,"revenu_median":23640.0},"vivrescore":87},{"code_insee":"76241","nom":"Ermenouville","codes_postaux":["76740"],"code_dep":"76","code_region":"28","population":116,"surface_km2":3.71,"lat":49.8041,"lon":0.7843,"fibre_pct":100.0,"securite":{"taux_pour_mille":0.0,"annee":2024},"socio":{"annee":2021,"revenu_median":22950.0},"vivrescore":87},{"code_insee":"76242","nom":"Ernemont-la-Villette","codes_postaux":["76220"],"code_dep":"76","code_region":"28","population":218,"surface_km2":7.51,"lat":49.4543,"lon":1.7111,"fibre_pct":100.0,"securite":{"taux_pour_mille":0.0,"annee":2024},"socio":{"annee":2021,"revenu_median":24180.0},"vivrescore":87},{"code_insee":"76243","nom":"Ernemont-sur-Buchy","codes_postaux":["76750"],"code_dep":"76","code_region":"28","population":291,"surface_km2":4.06,"lat":49.5421,"lon":1.3607,"fibre_pct":99.2,"securite":{"taux_pour_mille":0.0,"annee":2024},"socio":{"annee":2021,"revenu_median":24080.0},"vivrescore":87},{"code_insee":"76244","nom":"Esclavelles","codes_postaux":["76270"],"code_dep":"76","code_region":"28","population":401,"surface_km2":10.12,"lat":49.7042,"lon":1.3882,"fibre_pct":93.8,"securite":{"taux_pour_mille":0.0,"annee":2024},"socio":{"annee":2021,"revenu_median":24120.0},"vivrescore":80},{"code_insee":"76245","nom":"Eslettes","codes_postaux":["76710"],"code_dep":"76","code_region":"28","population":1620,"surface_km2":5.05,"lat":49.5466,"lon":1.0481,"fibre_pct":99.5,"securite":{"taux_pour_mille":9.8,"annee":2024},"socio":{"annee":2021,"revenu_median":26020.0},"vivrescore":87},{"code_insee":"76247","nom":"Esteville","codes_postaux":["76690"],"code_dep":"76","code_region":"28","population":559,"surface_km2":5.31,"lat":49.6085,"lon":1.2167,"fibre_pct":100.0,"securite":{"taux_pour_mille":0.0,"annee":2024},"socio":{"annee":2021,"revenu_median":24530.0},"vivrescore":87},{"code_insee":"76249","nom":"Étaimpuis","codes_postaux":["76850"],"code_dep":"76","code_region":"28","population":880,"surface_km2":10.51,"lat":49.6379,"lon":1.1422,"fibre_pct":100.0,"securite":{"taux_pour_mille":0.0,"annee":2024},"socio":{"annee":2021,"revenu_median":23640.0},"vivrescore":87},{"code_insee":"76250","nom":"Étainhus","codes_postaux":["76430"],"code_dep":"76","code_region":"28","population":1207,"surface_km2":8.33,"lat":49.5665,"lon":0.3062,"fibre_pct":100.0,"securite":{"taux_pour_mille":0.0,"annee":2024},"socio":{"annee":2021,"revenu_median":25560.0},"vivrescore":93},{"code_insee":"76251","nom":"Étalleville","codes_postaux":["76560"],"code_dep":"76","code_region":"28","population":431,"surface_km2":3.61,"lat":49.7322,"lon":0.826,"fibre_pct":100.0,"securite":{"taux_pour_mille":0.0,"annee":2024},"socio":{"annee":2021,"revenu_median":21950.0},"vivrescore":87},{"code_insee":"76252","nom":"Étalondes","codes_postaux":["76260"],"code_dep":"76","code_region":"28","population":1068,"surface_km2":4.6,"lat":50.0325,"lon":1.3902,"fibre_pct":99.2,"securite":{"taux_pour_mille":0.0,"annee":2024},"socio":{"annee":2021,"revenu_median":23900.0},"vivrescore":87},{"code_insee":"76253","nom":"Étoutteville","codes_postaux":["76190"],"code_dep":"76","code_region":"28","population":841,"surface_km2":11.71,"lat":49.6704,"lon":0.7825,"fibre_pct":99.7,"securite":{"taux_pour_mille":0.0,"annee":2024},"socio":{"annee":2021,"revenu_median":24970.0},"vivrescore":87},{"code_insee":"76254","nom":"Étretat","codes_postaux":["76790"],"code_dep":"76","code_region":"28","population":1102,"surface_km2":4.13,"lat":49.7048,"lon":0.2038,"fibre_pct":92.9,"securite":{"taux_pour_mille":26.6,"annee":2024},"socio":{"annee":2021,"revenu_median":23330.0},"vivrescore":60},{"code_insee":"76255","nom":"Eu","codes_postaux":["76260"],"code_dep":"76","code_region":"28","population":6499,"surface_km2":17.92,"lat":50.042,"lon":1.4303,"fibre_pct":90.4,"securite":{"taux_pour_mille":41.3,"annee":2024},"socio":{"annee":2021,"revenu_median":21700.0,"taux_pauvrete":15.0},"vivrescore":53},{"code_insee":"76257","nom":"Fallencourt","codes_postaux":["76340"],"code_dep":"76","code_region":"28","population":176,"surface_km2":12.1,"lat":49.8673,"lon":1.5652,"fibre_pct":98.1,"securite":{"taux_pour_mille":0.0,"annee":2024},"socio":{"annee":2021,"revenu_median":17920.0},"vivrescore":80},{"code_insee":"76258","nom":"Terres-de-Caux","codes_postaux":["76640"],"code_dep":"76","code_region":"28","population":4245,"surface_km2":38.26,"lat":49.6517,"lon":0.6039,"fibre_pct":100.0,"securite":{"taux_pour_mille":11.5,"annee":2024},"socio":{"annee":2021,"taux_pauvrete":9.0,"revenu_median":23120.0},"vivrescore":80},{"code_insee":"76259","nom":"Fécamp","codes_postaux":["76400"],"code_dep":"76","code_region":"28","population":17313,"surface_km2":15.02,"lat":49.7479,"lon":0.4012,"fibre_pct":94.2,"securite":{"taux_pour_mille":43.7,"annee":2024},"socio":{"annee":2021,"taux_pauvrete":20.0,"revenu_median":19850.0},"vivrescore":47},{"code_insee":"76260","nom":"Ferrières-en-Bray","codes_postaux":["76220"],"code_dep":"76","code_region":"28","population":1669,"surface_km2":15.86,"lat":49.4863,"lon":1.758,"fibre_pct":99.9,"securite":{"taux_pour_mille":23.3,"annee":2024},"socio":{"annee":2021,"revenu_median":21400.0},"vivrescore":73},{"code_insee":"76261","nom":"La Ferté-Saint-Samson","codes_postaux":["76440"],"code_dep":"76","code_region":"28","population":449,"surface_km2":19.03,"lat":49.5769,"lon":1.5389,"fibre_pct":100.0,"securite":{"taux_pour_mille":0.0,"annee":2024},"socio":{"annee":2021,"revenu_median":22900.0},"vivrescore":87},{"code_insee":"76262","nom":"Fesques","codes_postaux":["76270"],"code_dep":"76","code_region":"28","population":146,"surface_km2":8.84,"lat":49.7894,"lon":1.4912,"fibre_pct":89.0,"securite":{"taux_pour_mille":0.0,"annee":2024},"socio":{"annee":2021,"revenu_median":23210.0},"vivrescore":80},{"code_insee":"76263","nom":"La Feuillie","codes_postaux":["76220"],"code_dep":"76","code_region":"28","population":1228,"surface_km2":39.72,"lat":49.4682,"lon":1.517,"fibre_pct":100.0,"securite":{"taux_pour_mille":6.4,"annee":2024},"socio":{"annee":2021,"revenu_median":22230.0},"vivrescore":80},{"code_insee":"76264","nom":"Flamanville","codes_postaux":["76970"],"code_dep":"76","code_region":"28","population":462,"surface_km2":4.52,"lat":49.6304,"lon":0.8313,"fibre_pct":100.0,"securite":{"taux_pour_mille":0.0,"annee":2024},"socio":{"annee":2021,"revenu_median":24320.0},"vivrescore":87},{"code_insee":"76265","nom":"Flamets-Frétils","codes_postaux":["76270"],"code_dep":"76","code_region":"28","population":159,"surface_km2":12.29,"lat":49.7288,"lon":1.5792,"fibre_pct":95.6,"securite":{"taux_pour_mille":0.0,"annee":2024},"socio":{"annee":2021,"revenu_median":20670.0},"vivrescore":87},{"code_insee":"76266","nom":"Flocques","codes_postaux":["76260"],"code_dep":"76","code_region":"28","population":729,"surface_km2":4.96,"lat":50.0345,"lon":1.3589,"fibre_pct":88.0,"securite":{"taux_pour_mille":0.0,"annee":2024},"socio":{"annee":2021,"revenu_median":22520.0},"vivrescore":80},{"code_insee":"76268","nom":"Fongueusemare","codes_postaux":["76280"],"code_dep":"76","code_region":"28","population":175,"surface_km2":11.96,"lat":49.6726,"lon":0.3081,"fibre_pct":99.0,"securite":{"taux_pour_mille":0.0,"annee":2024},"socio":{"annee":2021,"revenu_median":21920.0},"vivrescore":87},{"code_insee":"76269","nom":"Fontaine-en-Bray","codes_postaux":["76440"],"code_dep":"76","code_region":"28","population":165,"surface_km2":6.04,"lat":49.6777,"lon":1.4226,"fibre_pct":100.0,"securite":{"taux_pour_mille":0.0,"annee":2024},"socio":{"annee":2021,"revenu_median":22120.0},"vivrescore":87},{"code_insee":"76270","nom":"Fontaine-la-Mallet","codes_postaux":["76290"],"code_dep":"76","code_region":"28","population":2725,"surface_km2":6.38,"lat":49.5415,"lon":0.1399,"fibre_pct":92.0,"securite":{"taux_pour_mille":4.4,"annee":2024},"socio":{"annee":2021,"revenu_median":30880.0},"vivrescore":93},{"code_insee":"76271","nom":"Fontaine-le-Bourg","codes_postaux":["76690"],"code_dep":"76","code_region":"28","population":1881,"surface_km2":12.24,"lat":49.5724,"lon":1.1489,"fibre_pct":99.9,"securite":{"taux_pour_mille":4.8,"annee":2024},"socio":{"annee":2021,"revenu_median":24370.0},"vivrescore":87},{"code_insee":"76272","nom":"Fontaine-le-Dun","codes_postaux":["76740"],"code_dep":"76","code_region":"28","population":873,"surface_km2":5.41,"lat":49.8126,"lon":0.8467,"fibre_pct":99.2,"securite":{"taux_pour_mille":0.0,"annee":2024},"socio":{"annee":2021,"revenu_median":20750.0},"vivrescore":87},{"code_insee":"76273","nom":"Fontaine-sous-Préaux","codes_postaux":["76160"],"code_dep":"76","code_region":"28","population":569,"surface_km2":3.56,"lat":49.4874,"lon":1.168,"fibre_pct":99.6,"securite":{"taux_pour_mille":0.0,"annee":2024},"socio":{"annee":2021,"revenu_median":28460.0},"vivrescore":93},{"code_insee":"76274","nom":"La Fontelaye","codes_postaux":["76890"],"code_dep":"76","code_region":"28","population":27,"surface_km2":3.97,"lat":49.6915,"lon":0.9438,"fibre_pct":98.5,"securite":{"taux_pour_mille":0.0,"annee":2024},"vivrescore":100},{"code_insee":"76275","nom":"Fontenay","codes_postaux":["76290"],"code_dep":"76","code_region":"28","population":1766,"surface_km2":5.61,"lat":49.5697,"lon":0.1761,"fibre_pct":95.2,"securite":{"taux_pour_mille":0.0,"annee":2024},"socio":{"annee":2021,"revenu_median":27130.0},"vivrescore":93},{"code_insee":"76276","nom":"Forges-les-Eaux","codes_postaux":["76440"],"code_dep":"76","code_region":"28","population":3642,"surface_km2":15.45,"lat":49.6104,"lon":1.5644,"fibre_pct":99.5,"securite":{"taux_pour_mille":28.7,"annee":2024},"socio":{"annee":2021,"taux_pauvrete":16.0,"revenu_median":20540.0},"vivrescore":67},{"code_insee":"76278","nom":"Foucarmont","codes_postaux":["76340"],"code_dep":"76","code_region":"28","population":816,"surface_km2":7.32,"lat":49.8474,"lon":1.5595,"fibre_pct":99.8,"securite":{"taux_pour_mille":11.2,"annee":2024},"socio":{"annee":2021,"revenu_median":19610.0},"vivrescore":73},{"code_insee":"76279","nom":"Foucart","codes_postaux":["76640"],"code_dep":"76","code_region":"28","population":329,"surface_km2":4.26,"lat":49.6175,"lon":0.5907,"fibre_pct":100.0,"securite":{"taux_pour_mille":0.0,"annee":2024},"socio":{"annee":2021,"revenu_median":23250.0},"vivrescore":87},{"code_insee":"76280","nom":"Fréauville","codes_postaux":["76660"],"code_dep":"76","code_region":"28","population":143,"surface_km2":5.34,"lat":49.8264,"lon":1.4135,"fibre_pct":97.3,"securite":{"taux_pour_mille":0.0,"annee":2024},"socio":{"annee":2021,"revenu_median":22200.0},"vivrescore":87},{"code_insee":"76281","nom":"La Frénaye","codes_postaux":["76170"],"code_dep":"76","code_region":"28","population":2074,"surface_km2":10.0,"lat":49.5207,"lon":0.5756,"fibre_pct":99.9,"securite":{"taux_pour_mille":2.9,"annee":2024},"socio":{"annee":2021,"revenu_median":24930.0},"vivrescore":87},{"code_insee":"76282","nom":"Freneuse","codes_postaux":["76410"],"code_dep":"76","code_region":"28","population":993,"surface_km2":3.26,"lat":49.308,"lon":1.0681,"fibre_pct":100.0,"securite":{"taux_pour_mille":0.0,"annee":2024},"socio":{"annee":2021,"revenu_median":26440.0},"vivrescore":93},{"code_insee":"76283","nom":"Fresles","codes_postaux":["76270"],"code_dep":"76","code_region":"28","population":222,"surface_km2":10.91,"lat":49.7476,"lon":1.3441,"fibre_pct":97.5,"securite":{"taux_pour_mille":0.0,"annee":2024},"socio":{"annee":2021,"revenu_median":23830.0},"vivrescore":87},{"code_insee":"76284","nom":"Fresnay-le-Long","codes_postaux":["76850"],"code_dep":"76","code_region":"28","population":335,"surface_km2":4.99,"lat":49.6518,"lon":1.0919,"fibre_pct":100.0,"securite":{"taux_pour_mille":0.0,"annee":2024},"socio":{"annee":2021,"revenu_median":23620.0},"vivrescore":87},{"code_insee":"76285","nom":"Fresne-le-Plan","codes_postaux":["76520"],"code_dep":"76","code_region":"28","population":554,"surface_km2":6.97,"lat":49.4115,"lon":1.2931,"fibre_pct":100.0,"securite":{"taux_pour_mille":0.0,"annee":2024},"socio":{"annee":2021,"revenu_median":28340.0},"vivrescore":93},{"code_insee":"76286","nom":"Fresnoy-Folny","codes_postaux":["76660"],"code_dep":"76","code_region":"28","population":683,"surface_km2":13.15,"lat":49.8935,"lon":1.4344,"fibre_pct":98.4,"securite":{"taux_pour_mille":0.0,"annee":2024},"socio":{"annee":2021,"revenu_median":21030.0},"vivrescore":87},{"code_insee":"76287","nom":"Fresquiennes","codes_postaux":["76570"],"code_dep":"76","code_region":"28","population":1079,"surface_km2":13.43,"lat":49.5642,"lon":1.0151,"fibre_pct":100.0,"securite":{"taux_pour_mille":0.0,"annee":2024},"socio":{"annee":2021,"revenu_median":26930.0},"vivrescore":93},{"code_insee":"76288","nom":"Freulleville","codes_postaux":["76510"],"code_dep":"76","code_region":"28","population":386,"surface_km2":11.18,"lat":49.8173,"lon":1.2193,"fibre_pct":100.0,"securite":{"taux_pour_mille":0.0,"annee":2024},"socio":{"annee":2021,"revenu_median":21710.0},"vivrescore":87},{"code_insee":"76289","nom":"Saint Martin de l'If","codes_postaux":["76190"],"code_dep":"76","code_region":"28","population":1736,"surface_km2":22.82,"lat":49.5641,"lon":0.807,"fibre_pct":99.8,"securite":{"taux_pour_mille":8.1,"annee":2024},"socio":{"annee":2021,"revenu_median":23490.0},"vivrescore":80},{"code_insee":"76290","nom":"Frichemesnil","codes_postaux":["76690"],"code_dep":"76","code_region":"28","population":411,"surface_km2":8.14,"lat":49.621,"lon":1.1325,"fibre_pct":100.0,"securite":{"taux_pour_mille":0.0,"annee":2024},"socio":{"annee":2021,"revenu_median":24210.0},"vivrescore":87},{"code_insee":"76291","nom":"Froberville","codes_postaux":["76400"],"code_dep":"76","code_region":"28","population":1193,"surface_km2":5.92,"lat":49.7178,"lon":0.3346,"fibre_pct":100.0,"securite":{"taux_pour_mille":0.0,"annee":2024},"socio":{"annee":2021,"revenu_median":23590.0},"vivrescore":87},{"code_insee":"76292","nom":"Fry","codes_postaux":["76780"],"code_dep":"76","code_region":"28","population":139,"surface_km2":8.03,"lat":49.5243,"lon":1.5388,"fibre_pct":100.0,"securite":{"taux_pour_mille":0.0,"annee":2024},"socio":{"annee":2021,"revenu_median":22750.0},"vivrescore":87},{"code_insee":"76293","nom":"Fultot","codes_postaux":["76560"],"code_dep":"76","code_region":"28","population":246,"surface_km2":3.72,"lat":49.7592,"lon":0.7797,"fibre_pct":97.8,"securite":{"taux_pour_mille":0.0,"annee":2024},"socio":{"annee":2021,"revenu_median":21030.0},"vivrescore":87},{"code_insee":"76294","nom":"La Gaillarde","codes_postaux":["76740"],"code_dep":"76","code_region":"28","population":373,"surface_km2":7.85,"lat":49.8392,"lon":0.869,"fibre_pct":100.0,"securite":{"taux_pour_mille":0.0,"annee":2024},"socio":{"annee":2021,"revenu_median":21710.0},"vivrescore":87},{"code_insee":"76295","nom":"Gaillefontaine","codes_postaux":["76870"],"code_dep":"76","code_region":"28","population":1108,"surface_km2":26.44,"lat":49.6524,"lon":1.6225,"fibre_pct":100.0,"securite":{"taux_pour_mille":12.1,"annee":2024},"socio":{"annee":2021,"revenu_median":19270.0},"vivrescore":73},{"code_insee":"76296","nom":"Gainneville","codes_postaux":["76700"],"code_dep":"76","code_region":"28","population":2548,"surface_km2":4.61,"lat":49.5176,"lon":0.2574,"fibre_pct":91.2,"securite":{"taux_pour_mille":8.3,"annee":2024},"socio":{"annee":2021,"revenu_median":26040.0},"vivrescore":80},{"code_insee":"76297","nom":"Gancourt-Saint-Étienne","codes_postaux":["76220"],"code_dep":"76","code_region":"28","population":231,"surface_km2":12.61,"lat":49.5465,"lon":1.7134,"fibre_pct":100.0,"securite":{"taux_pour_mille":0.0,"annee":2024},"socio":{"annee":2021,"revenu_median":21210.0},"vivrescore":87},{"code_insee":"76298","nom":"Ganzeville","codes_postaux":["76400"],"code_dep":"76","code_region":"28","population":454,"surface_km2":3.99,"lat":49.7315,"lon":0.4052,"fibre_pct":100.0,"securite":{"taux_pour_mille":0.0,"annee":2024},"socio":{"annee":2021,"revenu_median":26120.0},"vivrescore":93},{"code_insee":"76299","nom":"Gerponville","codes_postaux":["76540"],"code_dep":"76","code_region":"28","population":397,"surface_km2":4.92,"lat":49.7489,"lon":0.5623,"fibre_pct":100.0,"securite":{"taux_pour_mille":0.0,"annee":2024},"socio":{"annee":2021,"revenu_median":20800.0},"vivrescore":87},{"code_insee":"76300","nom":"Gerville","codes_postaux":["76790"],"code_dep":"76","code_region":"28","population":412,"surface_km2":3.05,"lat":49.6982,"lon":0.3279,"fibre_pct":100.0,"securite":{"taux_pour_mille":0.0,"annee":2024},"socio":{"annee":2021,"revenu_median":24950.0},"vivrescore":87},{"code_insee":"76302","nom":"Goderville","codes_postaux":["76110"],"code_dep":"76","code_region":"28","population":2818,"surface_km2":8.0,"lat":49.6465,"lon":0.356,"fibre_pct":100.0,"securite":{"taux_pour_mille":10.6,"annee":2024},"socio":{"annee":2021,"taux_pauvrete":9.0,"revenu_median":23180.0},"vivrescore":80},{"code_insee":"76303","nom":"Gommerville","codes_postaux":["76430"],"code_dep":"76","code_region":"28","population":748,"surface_km2":7.47,"lat":49.5532,"lon":0.3609,"fibre_pct":99.7,"securite":{"taux_pour_mille":0.0,"annee":2024},"socio":{"annee":2021,"revenu_median":27910.0},"vivrescore":93},{"code_insee":"76304","nom":"Gonfreville-Caillot","codes_postaux":["76110"],"code_dep":"76","code_region":"28","population":404,"surface_km2":4.21,"lat":49.6523,"lon":0.4423,"fibre_pct":100.0,"securite":{"taux_pour_mille":0.0,"annee":2024},"socio":{"annee":2021,"revenu_median":24830.0},"vivrescore":87},{"code_insee":"76305","nom":"Gonfreville-l'Orcher","codes_postaux":["76700"],"code_dep":"76","code_region":"28","population":8916,"surface_km2":26.27,"lat":49.487,"lon":0.2223,"fibre_pct":100.0,"securite":{"taux_pour_mille":50.6,"annee":2024},"socio":{"annee":2021,"taux_pauvrete":18.0,"revenu_median":20470.0},"vivrescore":60},{"code_insee":"76306","nom":"Gonnetot","codes_postaux":["76730"],"code_dep":"76","code_region":"28","population":173,"surface_km2":2.33,"lat":49.7626,"lon":0.8962,"fibre_pct":100.0,"securite":{"taux_pour_mille":0.0,"annee":2024},"socio":{"annee":2021,"revenu_median":22320.0},"vivrescore":87},{"code_insee":"76307","nom":"Gonneville-la-Mallet","codes_postaux":["76280"],"code_dep":"76","code_region":"28","population":1338,"surface_km2":7.28,"lat":49.6298,"lon":0.2144,"fibre_pct":99.5,"securite":{"taux_pour_mille":0.0,"annee":2024},"socio":{"annee":2021,"revenu_median":24010.0},"vivrescore":87},{"code_insee":"76308","nom":"Gonneville-sur-Scie","codes_postaux":["76590"],"code_dep":"76","code_region":"28","population":562,"surface_km2":8.61,"lat":49.7579,"lon":1.0906,"fibre_pct":100.0,"securite":{"taux_pour_mille":0.0,"annee":2024},"socio":{"annee":2021,"revenu_median":22050.0},"vivrescore":87},{"code_insee":"76309","nom":"Gonzeville","codes_postaux":["76560"],"code_dep":"76","code_region":"28","population":113,"surface_km2":4.87,"lat":49.7579,"lon":0.809,"fibre_pct":100.0,"securite":{"taux_pour_mille":0.0,"annee":2024},"socio":{"annee":2021,"revenu_median":25040.0},"vivrescore":93},{"code_insee":"76311","nom":"Goupillières","codes_postaux":["76570"],"code_dep":"76","code_region":"28","population":443,"surface_km2":4.12,"lat":49.5836,"lon":0.9839,"fibre_pct":100.0,"securite":{"taux_pour_mille":0.0,"annee":2024},"socio":{"annee":2021,"revenu_median":24980.0},"vivrescore":87},{"code_insee":"76312","nom":"Gournay-en-Bray","codes_postaux":["76220"],"code_dep":"76","code_region":"28","population":5723,"surface_km2":10.41,"lat":49.4763,"lon":1.7168,"fibre_pct":98.5,"securite":{"taux_pour_mille":61.0,"annee":2024},"socio":{"annee":2021,"taux_pauvrete":21.0,"revenu_median":19390.0},"vivrescore":53},{"code_insee":"76313","nom":"Gouy","codes_postaux":["76520"],"code_dep":"76","code_region":"28","population":888,"surface_km2":5.04,"lat":49.3571,"lon":1.1439,"fibre_pct":100.0,"securite":{"taux_pour_mille":0.0,"annee":2024},"socio":{"annee":2021,"revenu_median":28970.0},"vivrescore":93},{"code_insee":"76314","nom":"Graimbouville","codes_postaux":["76430"],"code_dep":"76","code_region":"28","population":604,"surface_km2":6.46,"lat":49.5808,"lon":0.3325,"fibre_pct":99.2,"securite":{"taux_pour_mille":0.0,"annee":2024},"socio":{"annee":2021,"revenu_median":27000.0},"vivrescore":93},{"code_insee":"76315","nom":"Grainville-la-Teinturière","codes_postaux":["76450"],"code_dep":"76","code_region":"28","population":1048,"surface_km2":18.49,"lat":49.7404,"lon":0.6449,"fibre_pct":100.0,"securite":{"taux_pour_mille":0.0,"annee":2024},"socio":{"annee":2021,"revenu_median":21990.0},"vivrescore":87},{"code_insee":"76316","nom":"Grainville-sur-Ry","codes_postaux":["76116"],"code_dep":"76","code_region":"28","population":438,"surface_km2":5.44,"lat":49.4728,"lon":1.3003,"fibre_pct":100.0,"securite":{"taux_pour_mille":0.0,"annee":2024},"socio":{"annee":2021,"revenu_median":25390.0},"vivrescore":93},{"code_insee":"76317","nom":"Grainville-Ymauville","codes_postaux":["76110"],"code_dep":"76","code_region":"28","population":428,"surface_km2":6.34,"lat":49.6532,"lon":0.4085,"fibre_pct":100.0,"securite":{"taux_pour_mille":0.0,"annee":2024},"socio":{"annee":2021,"revenu_median":23420.0},"vivrescore":87},{"code_insee":"76318","nom":"Grand-Camp","codes_postaux":["76170"],"code_dep":"76","code_region":"28","population":763,"surface_km2":4.93,"lat":49.5499,"lon":0.5975,"fibre_pct":97.1,"securite":{"taux_pour_mille":0.0,"annee":2024},"socio":{"annee":2021,"revenu_median":26250.0},"vivrescore":93},{"code_insee":"76319","nom":"Grand-Couronne","codes_postaux":["76530"],"code_dep":"76","code_region":"28","population":9768,"surface_km2":16.91,"lat":49.3508,"lon":1.0097,"fibre_pct":97.1,"securite":{"taux_pour_mille":53.1,"annee":2024},"socio":{"annee":2021,"revenu_median":21100.0,"taux_pauvrete":21.0},"vivrescore":60},{"code_insee":"76320","nom":"Grandcourt","codes_postaux":["76660"],"code_dep":"76","code_region":"28","population":292,"surface_km2":22.52,"lat":49.9166,"lon":1.4867,"fibre_pct":94.8,"securite":{"taux_pour_mille":0.0,"annee":2024},"socio":{"annee":2021,"revenu_median":20200.0},"vivrescore":80},{"code_insee":"76321","nom":"Les Grandes-Ventes","codes_postaux":["76950"],"code_dep":"76","code_region":"28","population":1725,"surface_km2":24.8,"lat":49.7713,"lon":1.2337,"fibre_pct":100.0,"securite":{"taux_pour_mille":9.8,"annee":2024},"socio":{"annee":2021,"revenu_median":21310.0},"vivrescore":80},{"code_insee":"76322","nom":"Le Grand-Quevilly","codes_postaux":["76120"],"code_dep":"76","code_region":"28","population":25789,"surface_km2":10.98,"lat":49.4118,"lon":1.0416,"fibre_pct":97.7,"securite":{"taux_pour_mille":55.6,"annee":2024},"socio":{"annee":2021,"revenu_median":20510.0,"taux_pauvrete":16.0},"vivrescore":60},{"code_insee":"76323","nom":"Graval","codes_postaux":["76270"],"code_dep":"76","code_region":"28","population":153,"surface_km2":3.96,"lat":49.7289,"lon":1.5529,"fibre_pct":91.1,"securite":{"taux_pour_mille":0.0,"annee":2024},"socio":{"annee":2021,"revenu_median":22130.0},"vivrescore":80},{"code_insee":"76324","nom":"Grèges","codes_postaux":["76370"],"code_dep":"76","code_region":"28","population":830,"surface_km2":3.19,"lat":49.9234,"lon":1.1496,"fibre_pct":100.0,"securite":{"taux_pour_mille":0.0,"annee":2024},"socio":{"annee":2021,"revenu_median":22930.0},"vivrescore":87},{"code_insee":"76325","nom":"Grémonville","codes_postaux":["76970"],"code_dep":"76","code_region":"28","population":446,"surface_km2":8.3,"lat":49.6619,"lon":0.8317,"fibre_pct":100.0,"securite":{"taux_pour_mille":22.4,"annee":2024},"socio":{"annee":2021,"revenu_median":22880.0},"vivrescore":73},{"code_insee":"76327","nom":"Greuville","codes_postaux":["76810"],"code_dep":"76","code_region":"28","population":368,"surface_km2":2.99,"lat":49.8072,"lon":0.9092,"fibre_pct":100.0,"securite":{"taux_pour_mille":0.0,"annee":2024},"socio":{"annee":2021,"revenu_median":22940.0},"vivrescore":87},{"code_insee":"76328","nom":"Grigneuseville","codes_postaux":["76850"],"code_dep":"76","code_region":"28","population":371,"surface_km2":7.37,"lat":49.6559,"lon":1.1915,"fibre_pct":96.9,"securite":{"taux_pour_mille":0.0,"annee":2024},"socio":{"annee":2021,"revenu_median":23080.0},"vivrescore":87},{"code_insee":"76329","nom":"Gruchet-le-Valasse","codes_postaux":["76210"],"code_dep":"76","code_region":"28","population":3008,"surface_km2":14.22,"lat":49.5473,"lon":0.5149,"fibre_pct":99.9,"securite":{"taux_pour_mille":18.5,"annee":2024},"socio":{"annee":2021,"revenu_median":21670.0,"taux_pauvrete":11.0},"vivrescore":73},{"code_insee":"76330","nom":"Gruchet-Saint-Siméon","codes_postaux":["76810"],"code_dep":"76","code_region":"28","population":682,"surface_km2":2.6,"lat":49.8228,"lon":0.8919,"fibre_pct":99.8,"securite":{"taux_pour_mille":0.0,"annee":2024},"socio":{"annee":2021,"revenu_median":25100.0},"vivrescore":93},{"code_insee":"76331","nom":"Grugny","codes_postaux":["76690"],"code_dep":"76","code_region":"28","population":1004,"surface_km2":3.18,"lat":49.6189,"lon":1.1053,"fibre_pct":99.6,"securite":{"taux_pour_mille":0.0,"annee":2024},"socio":{"annee":2021,"revenu_median":23580.0},"vivrescore":87},{"code_insee":"76332","nom":"Grumesnil","codes_postaux":["76440"],"code_dep":"76","code_region":"28","population":485,"surface_km2":11.22,"lat":49.62,"lon":1.6891,"fibre_pct":99.6,"securite":{"taux_pour_mille":0.0,"annee":2024},"socio":{"annee":2021,"revenu_median":20050.0},"vivrescore":87},{"code_insee":"76333","nom":"Guerville","codes_postaux":["76340"],"code_dep":"76","code_region":"28","population":458,"surface_km2":12.45,"lat":49.9479,"lon":1.5237,"fibre_pct":100.0,"securite":{"taux_pour_mille":0.0,"annee":2024},"socio":{"annee":2021,"revenu_median":22440.0},"vivrescore":87},{"code_insee":"76334","nom":"Gueures","codes_postaux":["76730"],"code_dep":"76","code_region":"28","population":522,"surface_km2":6.06,"lat":49.8423,"lon":0.9499,"fibre_pct":100.0,"securite":{"taux_pour_mille":0.0,"annee":2024},"socio":{"annee":2021,"revenu_median":21200.0},"vivrescore":87},{"code_insee":"76335","nom":"Gueutteville","codes_postaux":["76890"],"code_dep":"76","code_region":"28","population":75,"surface_km2":3.0,"lat":49.651,"lon":1.0049,"fibre_pct":86.7,"securite":{"taux_pour_mille":0.0,"annee":2024},"vivrescore":90},{"code_insee":"76336","nom":"Gueutteville-les-Grès","codes_postaux":["76460"],"code_dep":"76","code_region":"28","population":363,"surface_km2":4.47,"lat":49.838,"lon":0.7631,"fibre_pct":100.0,"securite":{"taux_pour_mille":0.0,"annee":2024},"socio":{"annee":2021,"revenu_median":24860.0},"vivrescore":87},{"code_insee":"76338","nom":"La Hallotière","codes_postaux":["76780"],"code_dep":"76","code_region":"28","population":200,"surface_km2":3.71,"lat":49.5212,"lon":1.4765,"fibre_pct":100.0,"securite":{"taux_pour_mille":0.0,"annee":2024},"socio":{"annee":2021,"revenu_median":21280.0},"vivrescore":87},{"code_insee":"76339","nom":"Le Hanouard","codes_postaux":["76450"],"code_dep":"76","code_region":"28","population":271,"surface_km2":4.29,"lat":49.7239,"lon":0.6541,"fibre_pct":100.0,"securite":{"taux_pour_mille":0.0,"annee":2024},"socio":{"annee":2021,"revenu_median":21270.0},"vivrescore":87},{"code_insee":"76340","nom":"Harcanville","codes_postaux":["76560"],"code_dep":"76","code_region":"28","population":522,"surface_km2":7.63,"lat":49.7066,"lon":0.767,"fibre_pct":100.0,"securite":{"taux_pour_mille":0.0,"annee":2024},"socio":{"annee":2021,"revenu_median":23490.0},"vivrescore":87},{"code_insee":"76341","nom":"Harfleur","codes_postaux":["76700"],"code_dep":"76","code_region":"28","population":8289,"surface_km2":4.21,"lat":49.5137,"lon":0.1964,"fibre_pct":96.6,"securite":{"taux_pour_mille":70.9,"annee":2024},"socio":{"annee":2021,"revenu_median":20130.0,"taux_pauvrete":18.0},"vivrescore":60},{"code_insee":"76342","nom":"Hattenville","codes_postaux":["76640"],"code_dep":"76","code_region":"28","population":704,"surface_km2":9.31,"lat":49.6558,"lon":0.5364,"fibre_pct":100.0,"securite":{"taux_pour_mille":0.0,"annee":2024},"socio":{"annee":2021,"revenu_median":23080.0},"vivrescore":87},{"code_insee":"76343","nom":"Haucourt","codes_postaux":["76440"],"code_dep":"76","code_region":"28","population":194,"surface_km2":10.26,"lat":49.6484,"lon":1.6748,"fibre_pct":97.4,"securite":{"taux_pour_mille":0.0,"annee":2024},"socio":{"annee":2021,"revenu_median":19750.0},"vivrescore":80},{"code_insee":"76344","nom":"Haudricourt","codes_postaux":["76390"],"code_dep":"76","code_region":"28","population":461,"surface_km2":29.67,"lat":49.7314,"lon":1.6972,"fibre_pct":100.0,"securite":{"taux_pour_mille":355.3,"annee":2024},"socio":{"annee":2021,"revenu_median":21000.0},"vivrescore":60},{"code_insee":"76345","nom":"Haussez","codes_postaux":["76440"],"code_dep":"76","code_region":"28","population":274,"surface_km2":13.23,"lat":49.5864,"lon":1.6814,"fibre_pct":100.0,"securite":{"taux_pour_mille":0.0,"annee":2024},"socio":{"annee":2021,"revenu_median":23170.0},"vivrescore":87},{"code_insee":"76346","nom":"Hautot-l'Auvray","codes_postaux":["76450"],"code_dep":"76","code_region":"28","population":305,"surface_km2":7.34,"lat":49.766,"lon":0.7538,"fibre_pct":100.0,"securite":{"taux_pour_mille":0.0,"annee":2024},"socio":{"annee":2021,"revenu_median":23300.0},"vivrescore":87},{"code_insee":"76347","nom":"Hautot-le-Vatois","codes_postaux":["76190"],"code_dep":"76","code_region":"28","population":325,"surface_km2":6.09,"lat":49.6467,"lon":0.6983,"fibre_pct":100.0,"securite":{"taux_pour_mille":0.0,"annee":2024},"socio":{"annee":2021,"revenu_median":26280.0},"vivrescore":93},{"code_insee":"76348","nom":"Hautot-Saint-Sulpice","codes_postaux":["76190"],"code_dep":"76","code_region":"28","population":688,"surface_km2":8.54,"lat":49.6769,"lon":0.7393,"fibre_pct":100.0,"securite":{"taux_pour_mille":0.0,"annee":2024},"socio":{"annee":2021,"revenu_median":23270.0},"vivrescore":87},{"code_insee":"76349","nom":"Hautot-sur-Mer","codes_postaux":["76550"],"code_dep":"76","code_region":"28","population":1870,"surface_km2":9.51,"lat":49.9038,"lon":1.04,"fibre_pct":98.1,"securite":{"taux_pour_mille":16.5,"annee":2024},"socio":{"annee":2021,"revenu_median":25170.0},"vivrescore":80},{"code_insee":"76350","nom":"Hautot-sur-Seine","codes_postaux":["76113"],"code_dep":"76","code_region":"28","population":399,"surface_km2":2.14,"lat":49.3633,"lon":0.9797,"fibre_pct":98.1,"securite":{"taux_pour_mille":0.0,"annee":2024},"socio":{"annee":2021,"revenu_median":25350.0},"vivrescore":93},{"code_insee":"76351","nom":"Le Havre","codes_postaux":["76600","76610","76620"],"code_dep":"76","code_region":"28","population":166687,"surface_km2":53.08,"lat":49.4958,"lon":0.1312,"fibre_pct":95.5,"securite":{"taux_pour_mille":65.7,"annee":2024},"socio":{"annee":2021,"revenu_median":20180.0,"taux_pauvrete":23.0},"vivrescore":60},{"code_insee":"76352","nom":"La Haye","codes_postaux":["76780"],"code_dep":"76","code_region":"28","population":366,"surface_km2":6.73,"lat":49.4616,"lon":1.4437,"fibre_pct":100.0,"securite":{"taux_pour_mille":0.0,"annee":2024},"socio":{"annee":2021,"revenu_median":23000.0},"vivrescore":87},{"code_insee":"76353","nom":"Héberville","codes_postaux":["76740"],"code_dep":"76","code_region":"28","population":100,"surface_km2":3.98,"lat":49.7849,"lon":0.8033,"fibre_pct":100.0,"securite":{"taux_pour_mille":0.0,"annee":2024},"socio":{"annee":2021,"revenu_median":24290.0},"vivrescore":87},{"code_insee":"76354","nom":"Hénouville","codes_postaux":["76840"],"code_dep":"76","code_region":"28","population":1406,"surface_km2":10.74,"lat":49.4735,"lon":0.9507,"fibre_pct":96.7,"securite":{"taux_pour_mille":7.9,"annee":2024},"socio":{"annee":2021,"revenu_median":28850.0},"vivrescore":87},{"code_insee":"76355","nom":"Héricourt-en-Caux","codes_postaux":["76560"],"code_dep":"76","code_region":"28","population":941,"surface_km2":10.81,"lat":49.6938,"lon":0.7032,"fibre_pct":100.0,"securite":{"taux_pour_mille":0.0,"annee":2024},"socio":{"annee":2021,"revenu_median":22980.0},"vivrescore":87},{"code_insee":"76356","nom":"Hermanville","codes_postaux":["76730"],"code_dep":"76","code_region":"28","population":111,"surface_km2":4.68,"lat":49.8201,"lon":0.9867,"fibre_pct":100.0,"securite":{"taux_pour_mille":0.0,"annee":2024},"socio":{"annee":2021,"revenu_median":21930.0},"vivrescore":87},{"code_insee":"76357","nom":"Hermeville","codes_postaux":["76280"],"code_dep":"76","code_region":"28","population":362,"surface_km2":3.82,"lat":49.5991,"lon":0.2574,"fibre_pct":98.3,"securite":{"taux_pour_mille":0.0,"annee":2024},"socio":{"annee":2021,"revenu_median":27690.0},"vivrescore":93},{"code_insee":"76359","nom":"Héronchelles","codes_postaux":["76750"],"code_dep":"76","code_region":"28","population":149,"surface_km2":6.68,"lat":49.5385,"lon":1.3823,"fibre_pct":99.0,"securite":{"taux_pour_mille":0.0,"annee":2024},"socio":{"annee":2021,"revenu_median":25010.0},"vivrescore":93},{"code_insee":"76360","nom":"Heugleville-sur-Scie","codes_postaux":["76720"],"code_dep":"76","code_region":"28","population":636,"surface_km2":13.35,"lat":49.736,"lon":1.0976,"fibre_pct":98.3,"securite":{"taux_pour_mille":0.0,"annee":2024},"socio":{"annee":2021,"revenu_median":22350.0},"vivrescore":87},{"code_insee":"76361","nom":"Heuqueville","codes_postaux":["76280"],"code_dep":"76","code_region":"28","population":717,"surface_km2":5.2,"lat":49.6181,"lon":0.1537,"fibre_pct":99.4,"securite":{"taux_pour_mille":0.0,"annee":2024},"socio":{"annee":2021,"revenu_median":27640.0},"vivrescore":93},{"code_insee":"76362","nom":"Heurteauville","codes_postaux":["76940"],"code_dep":"76","code_region":"28","population":284,"surface_km2":7.25,"lat":49.4513,"lon":0.8009,"fibre_pct":100.0,"securite":{"taux_pour_mille":0.0,"annee":2024},"socio":{"annee":2021,"revenu_median":23300.0},"vivrescore":87},