[{"code_insee":"76001","nom":"Allouville-Bellefosse","codes_postaux":["76190"],"code_dep":"76","code_region":"28","population":1153,"surface_km2":15.0,"lat":49.5956,"lon":0.6636},{"code_insee":"76002","nom":"Alvimare","codes_postaux":["76640"],"code_dep":"76","code_region":"28","population":584,"surface_km2":6.68,"lat":49.6066,"lon":0.6306},{"code_insee":"76004","nom":"Ambrumesnil","codes_postaux":["76550"],"code_dep":"76","code_region":"28","population":520,"surface_km2":5.26,"lat":49.8591,"lon":0.983},{"code_insee":"76005","nom":"Amfreville-la-Mi-Voie","codes_postaux":["76920"],"code_dep":"76","code_region":"28","population":3265,"surface_km2":3.96,"lat":49.4053,"lon":1.1275},{"code_insee":"76006","nom":"Amfreville-les-Champs","codes_postaux":["76560"],"code_dep":"76","code_region":"28","population":188,"surface_km2":4.54,"lat":49.698,"lon":0.8269},{"code_insee":"76007","nom":"Anceaumeville","codes_postaux":["76710"],"code_dep":"76","code_region":"28","population":708,"surface_km2":4.68,"lat":49.5692,"lon":1.0621},{"code_insee":"76008","nom":"Ancourt","codes_postaux":["76370"],"code_dep":"76","code_region":"28","population":618,"surface_km2":12.39,"lat":49.911,"lon":1.1835},{"code_insee":"76009","nom":"Ancourteville-sur-Héricourt","codes_postaux":["76560"],"code_dep":"76","code_region":"28","population":354,"surface_km2":3.54,"lat":49.6914,"lon":0.6613},{"code_insee":"76010","nom":"Ancretiéville-Saint-Victor","codes_postaux":["76760"],"code_dep":"76","code_region":"28","population":382,"surface_km2":11.65,"lat":49.6555,"lon":0.9681},{"code_insee":"76011","nom":"Ancretteville-sur-Mer","codes_postaux":["76540"],"code_dep":"76","code_region":"28","population":143,"surface_km2":3.16,"lat":49.7891,"lon":0.5037},{"code_insee":"76012","nom":"Angerville-Bailleul","codes_postaux":["76110"],"code_dep":"76","code_region":"28","population":196,"surface_km2":4.56,"lat":49.6681,"lon":0.4527},{"code_insee":"76013","nom":"Angerville-la-Martel","codes_postaux":["76540"],"code_dep":"76","code_region":"28","population":1079,"surface_km2":10.17,"lat":49.7672,"lon":0.5037},{"code_insee":"76014","nom":"Angerville-l'Orcher","codes_postaux":["76280"],"code_dep":"76","code_region":"28","population":1395,"surface_km2":9.88,"lat":49.5847,"lon":0.2951},{"code_insee":"76015","nom":"Angiens","codes_postaux":["76740"],"code_dep":"76","code_region":"28","population":513,"surface_km2":6.95,"lat":49.8336,"lon":0.8021},{"code_insee":"76016","nom":"Anglesqueville-la-Bras-Long","codes_postaux":["76740"],"code_dep":"76","code_region":"28","population":134,"surface_km2":3.57,"lat":49.7797,"lon":0.7827},{"code_insee":"76017","nom":"Anglesqueville-l'Esneval","codes_postaux":["76280"],"code_dep":"76","code_region":"28","population":678,"surface_km2":4.28,"lat":49.6318,"lon":0.2346},{"code_insee":"76018","nom":"Val-de-Saâne","codes_postaux":["76890"],"code_dep":"76","code_region":"28","population":1454,"surface_km2":13.69,"lat":49.7066,"lon":0.9613},{"code_insee":"76019","nom":"Anneville-sur-Scie","codes_postaux":["76590"],"code_dep":"76","code_region":"28","population":405,"surface_km2":5.48,"lat":49.8394,"lon":1.0935},{"code_insee":"76020","nom":"Anneville-Ambourville","codes_postaux":["76480"],"code_dep":"76","code_region":"28","population":1153,"surface_km2":20.51,"lat":49.4518,"lon":0.896},{"code_insee":"76021","nom":"Annouville-Vilmesnil","codes_postaux":["76110"],"code_dep":"76","code_region":"28","population":447,"surface_km2":5.84,"lat":49.6789,"lon":0.4335},{"code_insee":"76022","nom":"Anquetierville","codes_postaux":["76490"],"code_dep":"76","code_region":"28","population":329,"surface_km2":4.17,"lat":49.5369,"lon":0.6356},{"code_insee":"76023","nom":"Anvéville","codes_postaux":["76560"],"code_dep":"76","code_region":"28","population":291,"surface_km2":4.26,"lat":49.7003,"lon":0.751},{"code_insee":"76024","nom":"Ardouval","codes_postaux":["76680"],"code_dep":"76","code_region":"28","population":158,"surface_km2":10.39,"lat":49.7397,"lon":1.2729},{"code_insee":"76025","nom":"Argueil","codes_postaux":["76780"],"code_dep":"76","code_region":"28","population":349,"surface_km2":6.95,"lat":49.548,"lon":1.5331},{"code_insee":"76026","nom":"Arques-la-Bataille","codes_postaux":["76880"],"code_dep":"76","code_region":"28","population":2412,"surface_km2":14.76,"lat":49.8789,"lon":1.1539},{"code_insee":"76028","nom":"Aubéguimont","codes_postaux":["76390"],"code_dep":"76","code_region":"28","population":186,"surface_km2":4.88,"lat":49.8097,"lon":1.6816},{"code_insee":"76029","nom":"Aubermesnil-aux-Érables","codes_postaux":["76340"],"code_dep":"76","code_region":"28","population":195,"surface_km2":8.41,"lat":49.81,"lon":1.569},{"code_insee":"76030","nom":"Aubermesnil-Beaumais","codes_postaux":["76550"],"code_dep":"76","code_region":"28","population":520,"surface_km2":4.97,"lat":49.8493,"lon":1.1208},{"code_insee":"76032","nom":"Auberville-la-Manuel","codes_postaux":["76450"],"code_dep":"76","code_region":"28","population":138,"surface_km2":3.03,"lat":49.8288,"lon":0.5835},{"code_insee":"76033","nom":"Auberville-la-Renault","codes_postaux":["76110"],"code_dep":"76","code_region":"28","population":449,"surface_km2":4.99,"lat":49.6868,"lon":0.3797},{"code_insee":"76034","nom":"Val-de-Scie","codes_postaux":["76720","76850"],"code_dep":"76","code_region":"28","population":2530,"surface_km2":22.04,"lat":49.7147,"lon":1.1339},{"code_insee":"76035","nom":"Aumale","codes_postaux":["76390"],"code_dep":"76","code_region":"28","population":1996,"surface_km2":9.0,"lat":49.7725,"lon":1.7555},{"code_insee":"76036","nom":"Auppegard","codes_postaux":["76730"],"code_dep":"76","code_region":"28","population":695,"surface_km2":7.33,"lat":49.8323,"lon":1.0279},{"code_insee":"76038","nom":"Authieux-Ratiéville","codes_postaux":["76690"],"code_dep":"76","code_region":"28","population":401,"surface_km2":5.24,"lat":49.5972,"lon":1.1471},{"code_insee":"76039","nom":"Les Authieux-sur-le-Port-Saint-Ouen","codes_postaux":["76520"],"code_dep":"76","code_region":"28","population":1190,"surface_km2":4.53,"lat":49.3398,"lon":1.1314},{"code_insee":"76040","nom":"Autigny","codes_postaux":["76740"],"code_dep":"76","code_region":"28","population":321,"surface_km2":4.07,"lat":49.7963,"lon":0.854},{"code_insee":"76041","nom":"Les Hauts-de-Caux","codes_postaux":["76190"],"code_dep":"76","code_region":"28","population":1331,"surface_km2":11.72,"lat":49.656,"lon":0.7542},{"code_insee":"76042","nom":"Auvilliers","codes_postaux":["76270"],"code_dep":"76","code_region":"28","population":101,"surface_km2":4.85,"lat":49.7572,"lon":1.5739},{"code_insee":"76043","nom":"Auzebosc","codes_postaux":["76190"],"code_dep":"76","code_region":"28","population":1116,"surface_km2":4.75,"lat":49.6013,"lon":0.7331},{"code_insee":"76045","nom":"Auzouville-l'Esneval","codes_postaux":["76760"],"code_dep":"76","code_region":"28","population":361,"surface_km2":5.67,"lat":49.6315,"lon":0.8862},{"code_insee":"76046","nom":"Auzouville-sur-Ry","codes_postaux":["76116"],"code_dep":"76","code_region":"28","population":683,"surface_km2":7.92,"lat":49.4387,"lon":1.3071},{"code_insee":"76047","nom":"Auzouville-sur-Saâne","codes_postaux":["76730"],"code_dep":"76","code_region":"28","population":144,"surface_km2":3.11,"lat":49.7422,"lon":0.9314},{"code_insee":"76048","nom":"Avesnes-en-Bray","codes_postaux":["76220"],"code_dep":"76","code_region":"28","population":280,"surface_km2":11.87,"lat":49.4737,"lon":1.6749},{"code_insee":"76049","nom":"Avesnes-en-Val","codes_postaux":["76630"],"code_dep":"76","code_region":"28","population":261,"surface_km2":16.61,"lat":49.9157,"lon":1.4052},{"code_insee":"76050","nom":"Avremesnil","codes_postaux":["76730"],"code_dep":"76","code_region":"28","population":994,"surface_km2":5.44,"lat":49.8503,"lon":0.9336},{"code_insee":"76051","nom":"Bacqueville-en-Caux","codes_postaux":["76730"],"code_dep":"76","code_region":"28","population":1914,"surface_km2":12.13,"lat":49.7932,"lon":1.0055},{"code_insee":"76052","nom":"Bailleul-Neuville","codes_postaux":["76660"],"code_dep":"76","code_region":"28","population":220,"surface_km2":13.16,"lat":49.8082,"lon":1.4282},{"code_insee":"76053","nom":"Baillolet","codes_postaux":["76660"],"code_dep":"76","code_region":"28","population":116,"surface_km2":8.73,"lat":49.7903,"lon":1.4322},{"code_insee":"76054","nom":"Bailly-en-Rivière","codes_postaux":["76630"],"code_dep":"76","code_region":"28","population":510,"surface_km2":20.37,"lat":49.9061,"lon":1.3534},{"code_insee":"76055","nom":"Baons-le-Comte","codes_postaux":["76190"],"code_dep":"76","code_region":"28","population":337,"surface_km2":5.38,"lat":49.6403,"lon":0.7594},{"code_insee":"76056","nom":"Bardouville","codes_postaux":["76480"],"code_dep":"76","code_region":"28","population":597,"surface_km2":8.46,"lat":49.4293,"lon":0.9223},{"code_insee":"76057","nom":"Barentin","codes_postaux":["76360"],"code_dep":"76","code_region":"28","population":12022,"surface_km2":12.72,"lat":49.5431,"lon":0.9549},{"code_insee":"76058","nom":"Baromesnil","codes_postaux":["76260"],"code_dep":"76","code_region":"28","population":218,"surface_km2":8.04,"lat":49.9846,"lon":1.411},{"code_insee":"76059","nom":"Bazinval","codes_postaux":["76340"],"code_dep":"76","code_region":"28","population":403,"surface_km2":7.14,"lat":49.9481,"lon":1.5457},{"code_insee":"76060","nom":"Beaubec-la-Rosière","codes_postaux":["76440"],"code_dep":"76","code_region":"28","population":457,"surface_km2":13.02,"lat":49.6471,"lon":1.5098},{"code_insee":"76062","nom":"Beaumont-le-Hareng","codes_postaux":["76850"],"code_dep":"76","code_region":"28","population":256,"surface_km2":5.71,"lat":49.6652,"lon":1.2196},{"code_insee":"76063","nom":"Beauval-en-Caux","codes_postaux":["76890"],"code_dep":"76","code_region":"28","population":464,"surface_km2":15.26,"lat":49.7374,"lon":1.0275},{"code_insee":"76064","nom":"Beaurepaire","codes_postaux":["76280"],"code_dep":"76","code_region":"28","population":490,"surface_km2":2.88,"lat":49.6599,"lon":0.2136},{"code_insee":"76065","nom":"Beaussault","codes_postaux":["76870"],"code_dep":"76","code_region":"28","population":410,"surface_km2":18.46,"lat":49.6873,"lon":1.5701},{"code_insee":"76066","nom":"Beautot","codes_postaux":["76890"],"code_dep":"76","code_region":"28","population":156,"surface_km2":3.5,"lat":49.6348,"lon":1.048},{"code_insee":"76067","nom":"Beauvoir-en-Lyons","codes_postaux":["76220"],"code_dep":"76","code_region":"28","population":663,"surface_km2":33.66,"lat":49.487,"lon":1.5852},{"code_insee":"76068","nom":"Bec-de-Mortagne","codes_postaux":["76110"],"code_dep":"76","code_region":"28","population":703,"surface_km2":12.07,"lat":49.7039,"lon":0.4507},{"code_insee":"76069","nom":"Belbeuf","codes_postaux":["76240"],"code_dep":"76","code_region":"28","population":2264,"surface_km2":6.53,"lat":49.382,"lon":1.1415},{"code_insee":"76070","nom":"Bellencombre","codes_postaux":["76680"],"code_dep":"76","code_region":"28","population":564,"surface_km2":12.84,"lat":49.7183,"lon":1.2361},{"code_insee":"76071","nom":"Bellengreville","codes_postaux":["76630"],"code_dep":"76","code_region":"28","population":467,"surface_km2":7.59,"lat":49.9091,"lon":1.2294},{"code_insee":"76072","nom":"Belleville-en-Caux","codes_postaux":["76890"],"code_dep":"76","code_region":"28","population":738,"surface_km2":4.49,"lat":49.7048,"lon":0.9861},{"code_insee":"76074","nom":"La Bellière","codes_postaux":["76440"],"code_dep":"76","code_region":"28","population":50,"surface_km2":4.55,"lat":49.6062,"lon":1.6014},{"code_insee":"76075","nom":"Belmesnil","codes_postaux":["76590"],"code_dep":"76","code_region":"28","population":440,"surface_km2":3.1,"lat":49.7671,"lon":1.0473},{"code_insee":"76076","nom":"Bénarville","codes_postaux":["76110"],"code_dep":"76","code_region":"28","population":260,"surface_km2":4.42,"lat":49.6726,"lon":0.4881},{"code_insee":"76077","nom":"Bénesville","codes_postaux":["76560"],"code_dep":"76","code_region":"28","population":158,"surface_km2":5.49,"lat":49.7536,"lon":0.8277},{"code_insee":"76079","nom":"Bénouville","codes_postaux":["76790"],"code_dep":"76","code_region":"28","population":168,"surface_km2":2.94,"lat":49.7197,"lon":0.2452},{"code_insee":"76082","nom":"Bernières","codes_postaux":["76210"],"code_dep":"76","code_region":"28","population":639,"surface_km2":6.67,"lat":49.6227,"lon":0.4756},{"code_insee":"76083","nom":"Bertheauville","codes_postaux":["76450"],"code_dep":"76","code_region":"28","population":103,"surface_km2":2.4,"lat":49.7553,"lon":0.5915},{"code_insee":"76084","nom":"Bertreville","codes_postaux":["76450"],"code_dep":"76","code_region":"28","population":121,"surface_km2":3.24,"lat":49.7664,"lon":0.5784},{"code_insee":"76085","nom":"Bertreville-Saint-Ouen","codes_postaux":["76590"],"code_dep":"76","code_region":"28","population":347,"surface_km2":6.67,"lat":49.8128,"lon":1.042},{"code_insee":"76086","nom":"Bertrimont","codes_postaux":["76890"],"code_dep":"76","code_region":"28","population":227,"surface_km2":4.77,"lat":49.6702,"lon":0.9976},{"code_insee":"76087","nom":"Berville-en-Caux","codes_postaux":["76560"],"code_dep":"76","code_region":"28","population":698,"surface_km2":6.78,"lat":49.713,"lon":0.8378},{"code_insee":"76088","nom":"Berville-sur-Seine","codes_postaux":["76480"],"code_dep":"76","code_region":"28","population":528,"surface_km2":7.0,"lat":49.4728,"lon":0.8952},{"code_insee":"76090","nom":"Beuzeville-la-Grenier","codes_postaux":["76210"],"code_dep":"76","code_region":"28","population":1197,"surface_km2":6.25,"lat":49.5934,"lon":0.4203},{"code_insee":"76091","nom":"Beuzeville-la-Guérard","codes_postaux":["76450"],"code_dep":"76","code_region":"28","population":237,"surface_km2":6.45,"lat":49.7089,"lon":0.6121},{"code_insee":"76092","nom":"Beuzevillette","codes_postaux":["76210"],"code_dep":"76","code_region":"28","population":606,"surface_km2":5.67,"lat":49.5734,"lon":0.5501},{"code_insee":"76093","nom":"Bézancourt","codes_postaux":["76220"],"code_dep":"76","code_region":"28","population":358,"surface_km2":17.68,"lat":49.4342,"lon":1.6113},{"code_insee":"76094","nom":"Bierville","codes_postaux":["76750"],"code_dep":"76","code_region":"28","population":315,"surface_km2":2.14,"lat":49.5369,"lon":1.275},{"code_insee":"76095","nom":"Bihorel","codes_postaux":["76420"],"code_dep":"76","code_region":"28","population":8316,"surface_km2":2.51,"lat":49.4634,"lon":1.1288},{"code_insee":"76096","nom":"Biville-la-Baignarde","codes_postaux":["76890"],"code_dep":"76","code_region":"28","population":661,"surface_km2":6.93,"lat":49.7223,"lon":1.047},{"code_insee":"76097","nom":"Biville-la-Rivière","codes_postaux":["76730"],"code_dep":"76","code_region":"28","population":103,"surface_km2":2.24,"lat":49.776,"lon":0.918},{"code_insee":"76099","nom":"Blacqueville","codes_postaux":["76190"],"code_dep":"76","code_region":"28","population":660,"surface_km2":9.95,"lat":49.5599,"lon":0.8457},{"code_insee":"76100","nom":"Blainville-Crevon","codes_postaux":["76116"],"code_dep":"76","code_region":"28","population":1226,"surface_km2":14.76,"lat":49.5071,"lon":1.293},{"code_insee":"76101","nom":"Blangy-sur-Bresle","codes_postaux":["76340"],"code_dep":"76","code_region":"28","population":2819,"surface_km2":17.43,"lat":49.9163,"lon":1.6316},{"code_insee":"76103","nom":"Bonsecours","codes_postaux":["76240"],"code_dep":"76","code_region":"28","population":6442,"surface_km2":3.75,"lat":49.4251,"lon":1.1353},{"code_insee":"76104","nom":"Blosseville","codes_postaux":["76460"],"code_dep":"76","code_region":"28","population":260,"surface_km2":7.06,"lat":49.8536,"lon":0.8047},{"code_insee":"76105","nom":"Le Bocasse","codes_postaux":["76690"],"code_dep":"76","code_region":"28","population":654,"surface_km2":8.62,"lat":49.6101,"lon":1.0722},{"code_insee":"76106","nom":"Bois-d'Ennebourg","codes_postaux":["76160"],"code_dep":"76","code_region":"28","population":583,"surface_km2":7.09,"lat":49.4259,"lon":1.2575},{"code_insee":"76107","nom":"Bois-Guilbert","codes_postaux":["76750"],"code_dep":"76","code_region":"28","population":289,"surface_km2":8.1,"lat":49.5389,"lon":1.4155},{"code_insee":"76108","nom":"Bois-Guillaume","codes_postaux":["76230"],"code_dep":"76","code_region":"28","population":14539,"surface_km2":8.86,"lat":49.4729,"lon":1.1194},{"code_insee":"76109","nom":"Bois-Héroult","codes_postaux":["76750"],"code_dep":"76","code_region":"28","population":167,"surface_km2":6.48,"lat":49.5691,"lon":1.4093},{"code_insee":"76110","nom":"Bois-Himont","codes_postaux":["76190"],"code_dep":"76","code_region":"28","population":436,"surface_km2":5.85,"lat":49.58,"lon":0.686},{"code_insee":"76111","nom":"Bois-l'Évêque","codes_postaux":["76160"],"code_dep":"76","code_region":"28","population":641,"surface_km2":7.33,"lat":49.4543,"lon":1.2525},{"code_insee":"76112","nom":"Le Bois-Robert","codes_postaux":["76590"],"code_dep":"76","code_region":"28","population":388,"surface_km2":5.01,"lat":49.8395,"lon":1.1469},{"code_insee":"76113","nom":"Boissay","codes_postaux":["76750"],"code_dep":"76","code_region":"28","population":429,"surface_km2":6.67,"lat":49.5191,"lon":1.3602},{"code_insee":"76114","nom":"Bolbec","codes_postaux":["76210"],"code_dep":"76","code_region":"28","population":11590,"surface_km2":12.29,"lat":49.5755,"lon":0.483},{"code_insee":"76115","nom":"Bolleville","codes_postaux":["76210"],"code_dep":"76","code_region":"28","population":596,"surface_km2":9.86,"lat":49.6065,"lon":0.5662},{"code_insee":"76116","nom":"Boos","codes_postaux":["76520"],"code_dep":"76","code_region":"28","population":3975,"surface_km2":14.11,"lat":49.3762,"lon":1.2047},{"code_insee":"76117","nom":"Bordeaux-Saint-Clair","codes_postaux":["76790"],"code_dep":"76","code_region":"28","population":658,"surface_km2":10.21,"lat":49.6953,"lon":0.2445},{"code_insee":"76118","nom":"Bornambusc","codes_postaux":["76110"],"code_dep":"76","code_region":"28","population":245,"surface_km2":4.14,"lat":49.6251,"lon":0.3532},{"code_insee":"76119","nom":"Bosc-Bérenger","codes_postaux":["76680"],"code_dep":"76","code_region":"28","population":194,"surface_km2":3.44,"lat":49.6359,"lon":1.2532},{"code_insee":"76120","nom":"Bosc-Bordel","codes_postaux":["76750"],"code_dep":"76","code_region":"28","population":455,"surface_km2":11.98,"lat":49.6075,"lon":1.4121},{"code_insee":"76121","nom":"Bosc-Édeline","codes_postaux":["76750"],"code_dep":"76","code_region":"28","population":357,"surface_km2":6.25,"lat":49.5751,"lon":1.429},{"code_insee":"76122","nom":"Callengeville","codes_postaux":["76270"],"code_dep":"76","code_region":"28","population":499,"surface_km2":17.19,"lat":49.8283,"lon":1.5214},{"code_insee":"76123","nom":"Bosc-Guérard-Saint-Adrien","codes_postaux":["76710"],"code_dep":"76","code_region":"28","population":1101,"surface_km2":10.4,"lat":49.5412,"lon":1.1232},{"code_insee":"76124","nom":"Bosc-Hyons","codes_postaux":["76220"],"code_dep":"76","code_region":"28","population":414,"surface_km2":5.64,"lat":49.4516,"lon":1.6491},{"code_insee":"76125","nom":"Bosc-le-Hard","codes_postaux":["76850"],"code_dep":"76","code_region":"28","population":1611,"surface_km2":10.58,"lat":49.6217,"lon":1.187},{"code_insee":"76126","nom":"Bosc-Mesnil","codes_postaux":["76680"],"code_dep":"76","code_region":"28","population":318,"surface_km2":9.35,"lat":49.6688,"lon":1.3458},{"code_insee":"76128","nom":"Bosville","codes_postaux":["76450"],"code_dep":"76","code_region":"28","population":584,"surface_km2":8.75,"lat":49.7603,"lon":0.681},{"code_insee":"76129","nom":"Boudeville","codes_postaux":["76560"],"code_dep":"76","code_region":"28","population":217,"surface_km2":4.67,"lat":49.7204,"lon":0.8728},{"code_insee":"76130","nom":"Bouelles","codes_postaux":["76270"],"code_dep":"76","code_region":"28","population":260,"surface_km2":7.96,"lat":49.7216,"lon":1.4968},{"code_insee":"76131","nom":"La Bouille","codes_postaux":["76530"],"code_dep":"76","code_region":"28","population":706,"surface_km2":1.25,"lat":49.3513,"lon":0.9342},{"code_insee":"76132","nom":"Bourdainville","codes_postaux":["76760"],"code_dep":"76","code_region":"28","population":479,"surface_km2":5.34,"lat":49.6751,"lon":0.9385},{"code_insee":"76133","nom":"Le Bourg-Dun","codes_postaux":["76740"],"code_dep":"76","code_region":"28","population":422,"surface_km2":14.71,"lat":49.871,"lon":0.8864},{"code_insee":"76134","nom":"Bourville","codes_postaux":["76740"],"code_dep":"76","code_region":"28","population":276,"surface_km2":6.63,"lat":49.7955,"lon":0.8222},{"code_insee":"76135","nom":"Bouville","codes_postaux":["76360"],"code_dep":"76","code_region":"28","population":1039,"surface_km2":12.52,"lat":49.5599,"lon":0.8943},{"code_insee":"76136","nom":"Brachy","codes_postaux":["76730"],"code_dep":"76","code_region":"28","population":663,"surface_km2":11.09,"lat":49.8168,"lon":0.9487},{"code_insee":"76138","nom":"Bracquetuit","codes_postaux":["76850"],"code_dep":"76","code_region":"28","population":333,"surface_km2":8.44,"lat":49.665,"lon":1.171},{"code_insee":"76139","nom":"Bradiancourt","codes_postaux":["76680"],"code_dep":"76","code_region":"28","population":221,"surface_km2":4.1,"lat":49.6592,"lon":1.386},{"code_insee":"76140","nom":"Brametot","codes_postaux":["76740"],"code_dep":"76","code_region":"28","population":199,"surface_km2":3.23,"lat":49.7811,"lon":0.8715},{"code_insee":"76141","nom":"Bréauté","codes_postaux":["76110"],"code_dep":"76","code_region":"28","population":1329,"surface_km2":13.9,"lat":49.6252,"lon":0.402},{"code_insee":"76142","nom":"Brémontier-Merval","codes_postaux":["76220"],"code_dep":"76","code_region":"28","population":425,"surface_km2":17.19,"lat":49.5141,"lon":1.6195},{"code_insee":"76143","nom":"Bretteville-du-Grand-Caux","codes_postaux":["76110"],"code_dep":"76","code_region":"28","population":1405,"surface_km2":11.41,"lat":49.6636,"lon":0.3878},{"code_insee":"76144","nom":"Bretteville-Saint-Laurent","codes_postaux":["76560"],"code_dep":"76","code_region":"28","population":163,"surface_km2":4.03,"lat":49.7682,"lon":0.8667},{"code_insee":"76146","nom":"Buchy","codes_postaux":["76750"],"code_dep":"76","code_region":"28","population":2815,"surface_km2":26.35,"lat":49.5859,"lon":1.3394},{"code_insee":"76147","nom":"Bully","codes_postaux":["76270"],"code_dep":"76","code_region":"28","population":863,"surface_km2":19.6,"lat":49.7183,"lon":1.3582},{"code_insee":"76148","nom":"Bures-en-Bray","codes_postaux":["76660"],"code_dep":"76","code_region":"28","population":302,"surface_km2":10.9,"lat":49.7777,"lon":1.3356},{"code_insee":"76149","nom":"Butot","codes_postaux":["76890"],"code_dep":"76","code_region":"28","population":280,"surface_km2":5.51,"lat":49.6123,"lon":1.024},{"code_insee":"76151","nom":"Cailleville","codes_postaux":["76460"],"code_dep":"76","code_region":"28","population":244,"surface_km2":5.06,"lat":49.8368,"lon":0.7358},{"code_insee":"76152","nom":"Cailly","codes_postaux":["76690"],"code_dep":"76","code_region":"28","population":731,"surface_km2":5.51,"lat":49.5869,"lon":1.2299},{"code_insee":"76153","nom":"Calleville-les-Deux-Églises","codes_postaux":["76890"],"code_dep":"76","code_region":"28","population":328,"surface_km2":5.62,"lat":49.7026,"lon":1.02},{"code_insee":"76154","nom":"Campneuseville","codes_postaux":["76340"],"code_dep":"76","code_region":"28","population":440,"surface_km2":12.43,"lat":49.8629,"lon":1.6608},{"code_insee":"76155","nom":"Canehan","codes_postaux":["76260"],"code_dep":"76","code_region":"28","population":378,"surface_km2":6.21,"lat":49.9788,"lon":1.3434},{"code_insee":"76156","nom":"Canouville","codes_postaux":["76450"],"code_dep":"76","code_region":"28","population":344,"surface_km2":4.5,"lat":49.808,"lon":0.5945},{"code_insee":"76157","nom":"Canteleu","codes_postaux":["76380"],"code_dep":"76","code_region":"28","population":14402,"surface_km2":17.61,"lat":49.4323,"lon":1.0173},{"code_insee":"76158","nom":"Canville-les-Deux-Églises","codes_postaux":["76560"],"code_dep":"76","code_region":"28","population":305,"surface_km2":5.82,"lat":49.7729,"lon":0.8354},{"code_insee":"76159","nom":"Cany-Barville","codes_postaux":["76450"],"code_dep":"76","code_region":"28","population":2909,"surface_km2":13.58,"lat":49.78,"lon":0.6314},{"code_insee":"76160","nom":"Carville-la-Folletière","codes_postaux":["76190"],"code_dep":"76","code_region":"28","population":419,"surface_km2":4.35,"lat":49.5599,"lon":0.8181},{"code_insee":"76161","nom":"Carville-Pot-de-Fer","codes_postaux":["76560"],"code_dep":"76","code_region":"28","population":108,"surface_km2":5.28,"lat":49.7198,"lon":0.723},{"code_insee":"76162","nom":"Le Catelier","codes_postaux":["76590"],"code_dep":"76","code_region":"28","population":264,"surface_km2":3.91,"lat":49.7579,"lon":1.1564},{"code_insee":"76163","nom":"Catenay","codes_postaux":["76116"],"code_dep":"76","code_region":"28","population":702,"surface_km2":5.88,"lat":49.5102,"lon":1.3279},{"code_insee":"76164","nom":"Rives-en-Seine","codes_postaux":["76490"],"code_dep":"76","code_region":"28","population":4002,"surface_km2":34.2,"lat":49.5266,"lon":0.7184},{"code_insee":"76165","nom":"Caudebec-lès-Elbeuf","codes_postaux":["76320"],"code_dep":"76","code_region":"28","population":10476,"surface_km2":3.66,"lat":49.2821,"lon":1.0227},{"code_insee":"76166","nom":"Le Caule-Sainte-Beuve","codes_postaux":["76390"],"code_dep":"76","code_region":"28","population":473,"surface_km2":16.76,"lat":49.7731,"lon":1.5886},{"code_insee":"76167","nom":"Cauville-sur-Mer","codes_postaux":["76930"],"code_dep":"76","code_region":"28","population":1678,"surface_km2":11.3,"lat":49.594,"lon":0.1421},{"code_insee":"76168","nom":"Les Cent-Acres","codes_postaux":["76590"],"code_dep":"76","code_region":"28","population":65,"surface_km2":5.12,"lat":49.7704,"lon":1.1439},{"code_insee":"76169","nom":"La Cerlangue","codes_postaux":["76430"],"code_dep":"76","code_region":"28","population":1300,"surface_km2":29.42,"lat":49.4844,"lon":0.4203},{"code_insee":"76170","nom":"La Chapelle-du-Bourgay","codes_postaux":["76590"],"code_dep":"76","code_region":"28","population":107,"surface_km2":3.05,"lat":49.8244,"lon":1.1467},{"code_insee":"76171","nom":"La Chapelle-Saint-Ouen","codes_postaux":["76780"],"code_dep":"76","code_region":"28","population":147,"surface_km2":7.88,"lat":49.5197,"lon":1.4297},{"code_insee":"76172","nom":"La Chapelle-sur-Dun","codes_postaux":["76740"],"code_dep":"76","code_region":"28","population":162,"surface_km2":4.41,"lat":49.8585,"lon":0.8451},{"code_insee":"76173","nom":"La Chaussée","codes_postaux":["76590"],"code_dep":"76","code_region":"28","population":561,"surface_km2":8.08,"lat":49.8196,"lon":1.121},{"code_insee":"76174","nom":"Cideville","codes_postaux":["76570"],"code_dep":"76","code_region":"28","population":430,"surface_km2":5.1,"lat":49.6117,"lon":0.8863},{"code_insee":"76175","nom":"Clais","codes_postaux":["76660"],"code_dep":"76","code_region":"28","population":264,"surface_km2":12.52,"lat":49.8137,"lon":1.4702},{"code_insee":"76176","nom":"Clasville","codes_postaux":["76450"],"code_dep":"76","code_region":"28","population":347,"surface_km2":3.17,"lat":49.7933,"lon":0.6208},{"code_insee":"76177","nom":"Claville-Motteville","codes_postaux":["76690"],"code_dep":"76","code_region":"28","population":260,"surface_km2":9.29,"lat":49.5848,"lon":1.1838},{"code_insee":"76178","nom":"Cléon","codes_postaux":["76410"],"code_dep":"76","code_region":"28","population":4795,"surface_km2":6.51,"lat":49.3155,"lon":1.0393},{"code_insee":"76179","nom":"Clères","codes_postaux":["76690"],"code_dep":"76","code_region":"28","population":1381,"surface_km2":11.45,"lat":49.5902,"lon":1.1007},{"code_insee":"76180","nom":"Cleuville","codes_postaux":["76450"],"code_dep":"76","code_region":"28","population":190,"surface_km2":4.11,"lat":49.7046,"lon":0.65},{"code_insee":"76181","nom":"Cléville","codes_postaux":["76640"],"code_dep":"76","code_region":"28","population":136,"surface_km2":5.43,"lat":49.6202,"lon":0.6184},{"code_insee":"76182","nom":"Cliponville","codes_postaux":["76640"],"code_dep":"76","code_region":"28","population":245,"surface_km2":7.46,"lat":49.6708,"lon":0.6599},{"code_insee":"76183","nom":"Colleville","codes_postaux":["76400"],"code_dep":"76","code_region":"28","population":746,"surface_km2":7.4,"lat":49.7538,"lon":0.4595},{"code_insee":"76184","nom":"Colmesnil-Manneville","codes_postaux":["76550"],"code_dep":"76","code_region":"28","population":106,"surface_km2":1.96,"lat":49.8473,"lon":1.0289},{"code_insee":"76185","nom":"Compainville","codes_postaux":["76440"],"code_dep":"76","code_region":"28","population":159,"surface_km2":6.43,"lat":49.6569,"lon":1.5636},{"code_insee":"76186","nom":"Conteville","codes_postaux":["76390"],"code_dep":"76","code_region":"28","population":507,"surface_km2":13.78,"lat":49.6962,"lon":1.6389},{"code_insee":"76187","nom":"Contremoulins","codes_postaux":["76400"],"code_dep":"76","code_region":"28","population":167,"surface_km2":4.38,"lat":49.7256,"lon":0.4378},{"code_insee":"76188","nom":"Cottévrard","codes_postaux":["76850"],"code_dep":"76","code_region":"28","population":470,"surface_km2":7.89,"lat":49.6385,"lon":1.2245},{"code_insee":"76189","nom":"Crasville-la-Mallet","codes_postaux":["76450"],"code_dep":"76","code_region":"28","population":189,"surface_km2":3.21,"lat":49.8044,"lon":0.7169},{"code_insee":"76190","nom":"Crasville-la-Rocquefort","codes_postaux":["76740"],"code_dep":"76","code_region":"28","population":207,"surface_km2":5.3,"lat":49.8024,"lon":0.8752},{"code_insee":"76192","nom":"Criel-sur-Mer","codes_postaux":["76910"],"code_dep":"76","code_region":"28","population":2527,"surface_km2":20.91,"lat":50.0221,"lon":1.3215},{"code_insee":"76193","nom":"La Crique","codes_postaux":["76850"],"code_dep":"76","code_region":"28","population":383,"surface_km2":10.22,"lat":49.6929,"lon":1.2051},{"code_insee":"76194","nom":"Criquebeuf-en-Caux","codes_postaux":["76111"],"code_dep":"76","code_region":"28","population":405,"surface_km2":2.12,"lat":49.7401,"lon":0.3332},{"code_insee":"76195","nom":"Criquetot-le-Mauconduit","codes_postaux":["76540"],"code_dep":"76","code_region":"28","population":196,"surface_km2":4.15,"lat":49.7901,"lon":0.5623},{"code_insee":"76196","nom":"Criquetot-l'Esneval","codes_postaux":["76280"],"code_dep":"76","code_region":"28","population":2668,"surface_km2":13.65,"lat":49.6344,"lon":0.2689},{"code_insee":"76197","nom":"Criquetot-sur-Longueville","codes_postaux":["76590"],"code_dep":"76","code_region":"28","population":221,"surface_km2":7.39,"lat":49.782,"lon":1.0752},{"code_insee":"76198","nom":"Criquetot-sur-Ouville","codes_postaux":["76760"],"code_dep":"76","code_region":"28","population":817,"surface_km2":5.87,"lat":49.6712,"lon":0.8484},{"code_insee":"76199","nom":"Criquiers","codes_postaux":["76390"],"code_dep":"76","code_region":"28","population":716,"surface_km2":22.79,"lat":49.6758,"lon":1.7052},{"code_insee":"76200","nom":"Critot","codes_postaux":["76680"],"code_dep":"76","code_region":"28","population":544,"surface_km2":7.04,"lat":49.6127,"lon":1.2445},{"code_insee":"76201","nom":"Croisy-sur-Andelle","codes_postaux":["76780"],"code_dep":"76","code_region":"28","population":516,"surface_km2":3.75,"lat":49.46,"lon":1.4085},{"code_insee":"76202","nom":"Croixdalle","codes_postaux":["76660"],"code_dep":"76","code_region":"28","population":338,"surface_km2":11.16,"lat":49.8021,"lon":1.3731},{"code_insee":"76203","nom":"Croix-Mare","codes_postaux":["76190"],"code_dep":"76","code_region":"28","population":704,"surface_km2":8.7,"lat":49.5996,"lon":0.8341},{"code_insee":"76204","nom":"Cropus","codes_postaux":["76720"],"code_dep":"76","code_region":"28","population":248,"surface_km2":4.87,"lat":49.7339,"lon":1.1474},{"code_insee":"76205","nom":"Crosville-sur-Scie","codes_postaux":["76590"],"code_dep":"76","code_region":"28","population":225,"surface_km2":3.56,"lat":49.8199,"lon":1.0835},{"code_insee":"76206","nom":"Cuverville","codes_postaux":["76280"],"code_dep":"76","code_region":"28","population":341,"surface_km2":4.53,"lat":49.6666,"lon":0.2666},{"code_insee":"76207","nom":"Cuverville-sur-Yères","codes_postaux":["76260"],"code_dep":"76","code_region":"28","population":193,"surface_km2":11.13,"lat":49.9516,"lon":1.3893},{"code_insee":"76208","nom":"Cuy-Saint-Fiacre","codes_postaux":["76220"],"code_dep":"76","code_region":"28","population":625,"surface_km2":9.66,"lat":49.5113,"lon":1.6865},{"code_insee":"76209","nom":"Dampierre-en-Bray","codes_postaux":["76220"],"code_dep":"76","code_region":"28","population":451,"surface_km2":12.85,"lat":49.5341,"lon":1.6618},{"code_insee":"76210","nom":"Dampierre-Saint-Nicolas","codes_postaux":["76510"],"code_dep":"76","code_region":"28","population":444,"surface_km2":3.94,"lat":49.8556,"lon":1.2053},{"code_insee":"76211","nom":"Dancourt","codes_postaux":["76340"],"code_dep":"76","code_region":"28","population":235,"surface_km2":18.32,"lat":49.8998,"lon":1.5432},{"code_insee":"76212","nom":"Darnétal","codes_postaux":["76160"],"code_dep":"76","code_region":"28","population":9566,"surface_km2":4.9,"lat":49.4468,"lon":1.1534},{"code_insee":"76213","nom":"Daubeuf-Serville","codes_postaux":["76110"],"code_dep":"76","code_region":"28","population":397,"surface_km2":7.78,"lat":49.6951,"lon":0.4854},{"code_insee":"76214","nom":"Dénestanville","codes_postaux":["76590"],"code_dep":"76","code_region":"28","population":282,"surface_km2":2.64,"lat":49.808,"lon":1.0915},{"code_insee":"76216","nom":"Déville-lès-Rouen","codes_postaux":["76250"],"code_dep":"76","code_region":"28","population":10802,"surface_km2":3.16,"lat":49.4673,"lon":1.0495},{"code_insee":"76217","nom":"Dieppe","codes_postaux":["76200","76370"],"code_dep":"76","code_region":"28","population":28496,"surface_km2":11.82,"lat":49.9199,"lon":1.0838},{"code_insee":"76218","nom":"Doudeauville","codes_postaux":["76220"],"code_dep":"76","code_region":"28","population":115,"surface_km2":3.97,"lat":49.5671,"lon":1.6978},{"code_insee":"76219","nom":"Doudeville","codes_postaux":["76560"],"code_dep":"76","code_region":"28","population":2420,"surface_km2":14.53,"lat":49.7273,"lon":0.7843},{"code_insee":"76220","nom":"Douvrend","codes_postaux":["76630"],"code_dep":"76","code_region":"28","population":500,"surface_km2":17.99,"lat":49.8709,"lon":1.317},{"code_insee":"76221","nom":"Drosay","codes_postaux":["76460"],"code_dep":"76","code_region":"28","population":190,"surface_km2":6.45,"lat":49.7945,"lon":0.7366},{"code_insee":"76222","nom":"Duclair","codes_postaux":["76480"],"code_dep":"76","code_region":"28","population":3996,"surface_km2":10.11,"lat":49.4859,"lon":0.8701},{"code_insee":"76223","nom":"Écalles-Alix","codes_postaux":["76190"],"code_dep":"76","code_region":"28","population":566,"surface_km2":7.51,"lat":49.6172,"lon":0.8102},{"code_insee":"76224","nom":"Écrainville","codes_postaux":["76110"],"code_dep":"76","code_region":"28","population":1001,"surface_km2":12.96,"lat":49.6473,"lon":0.3122},{"code_insee":"76225","nom":"Écretteville-lès-Baons","codes_postaux":["76190"],"code_dep":"76","code_region":"28","population":357,"surface_km2":9.37,"lat":49.6299,"lon":0.6713},{"code_insee":"76226","nom":"Écretteville-sur-Mer","codes_postaux":["76540"],"code_dep":"76","code_region":"28","population":140,"surface_km2":1.9,"lat":49.7917,"lon":0.4851},{"code_insee":"76227","nom":"Ectot-l'Auber","codes_postaux":["76760"],"code_dep":"76","code_region":"28","population":729,"surface_km2":5.02,"lat":49.6539,"lon":0.9287},{"code_insee":"76228","nom":"Ectot-lès-Baons","codes_postaux":["76970"],"code_dep":"76","code_region":"28","population":398,"surface_km2":5.04,"lat":49.6443,"lon":0.8072},{"code_insee":"76229","nom":"Elbeuf-en-Bray","codes_postaux":["76220"],"code_dep":"76","code_region":"28","population":395,"surface_km2":10.88,"lat":49.4946,"lon":1.6582},{"code_insee":"76230","nom":"Elbeuf-sur-Andelle","codes_postaux":["76780"],"code_dep":"76","code_region":"28","population":431,"surface_km2":5.98,"lat":49.4788,"lon":1.3824},{"code_insee":"76231","nom":"Elbeuf","codes_postaux":["76500"],"code_dep":"76","code_region":"28","population":15474,"surface_km2":16.31,"lat":49.2773,"lon":0.9974},{"code_insee":"76232","nom":"Életot","codes_postaux":["76540"],"code_dep":"76","code_region":"28","population":626,"surface_km2":6.91,"lat":49.792,"lon":0.4566},{"code_insee":"76233","nom":"Ellecourt","codes_postaux":["76390"],"code_dep":"76","code_region":"28","population":157,"surface_km2":4.4,"lat":49.8017,"lon":1.7273},{"code_insee":"76234","nom":"Émanville","codes_postaux":["76570"],"code_dep":"76","code_region":"28","population":791,"surface_km2":6.41,"lat":49.6218,"lon":0.9583},{"code_insee":"76235","nom":"Envermeu","codes_postaux":["76630"],"code_dep":"76","code_region":"28","population":1967,"surface_km2":14.42,"lat":49.898,"lon":1.2634},{"code_insee":"76236","nom":"Envronville","codes_postaux":["76640"],"code_dep":"76","code_region":"28","population":367,"surface_km2":6.22,"lat":49.6586,"lon":0.6694},{"code_insee":"76237","nom":"Épinay-sur-Duclair","codes_postaux":["76480"],"code_dep":"76","code_region":"28","population":521,"surface_km2":6.64,"lat":49.5253,"lon":0.8322},{"code_insee":"76238","nom":"Épouville","codes_postaux":["76133"],"code_dep":"76","code_region":"28","population":2601,"surface_km2":5.6,"lat":49.5654,"lon":0.2286},{"code_insee":"76239","nom":"Épretot","codes_postaux":["76430"],"code_dep":"76","code_region":"28","population":782,"surface_km2":6.88,"lat":49.5378,"lon":0.3139},{"code_insee":"76240","nom":"Épreville","codes_postaux":["76400"],"code_dep":"76","code_region":"28","population":1084,"surface_km2":6.49,"lat":49.7051,"lon":0.3668},{"code_insee":"76241","nom":"Ermenouville","codes_postaux":["76740"],"code_dep":"76","code_region":"28","population":116,"surface_km2":3.71,"lat":49.8041,"lon":0.7843},{"code_insee":"76242","nom":"Ernemont-la-Villette","codes_postaux":["76220"],"code_dep":"76","code_region":"28","population":218,"surface_km2":7.51,"lat":49.4543,"lon":1.7111},{"code_insee":"76243","nom":"Ernemont-sur-Buchy","codes_postaux":["76750"],"code_dep":"76","code_region":"28","population":291,"surface_km2":4.06,"lat":49.5421,"lon":1.3607},{"code_insee":"76244","nom":"Esclavelles","codes_postaux":["76270"],"code_dep":"76","code_region":"28","population":401,"surface_km2":10.12,"lat":49.7042,"lon":1.3882},{"code_insee":"76245","nom":"Eslettes","codes_postaux":["76710"],"code_dep":"76","code_region":"28","population":1620,"surface_km2":5.05,"lat":49.5466,"lon":1.0481},{"code_insee":"76247","nom":"Esteville","codes_postaux":["76690"],"code_dep":"76","code_region":"28","population":559,"surface_km2":5.31,"lat":49.6085,"lon":1.2167},{"code_insee":"76249","nom":"Étaimpuis","codes_postaux":["76850"],"code_dep":"76","code_region":"28","population":880,"surface_km2":10.51,"lat":49.6379,"lon":1.1422},{"code_insee":"76250","nom":"Étainhus","codes_postaux":["76430"],"code_dep":"76","code_region":"28","population":1207,"surface_km2":8.33,"lat":49.5665,"lon":0.3062},{"code_insee":"76251","nom":"Étalleville","codes_postaux":["76560"],"code_dep":"76","code_region":"28","population":431,"surface_km2":3.61,"lat":49.7322,"lon":0.826},{"code_insee":"76252","nom":"Étalondes","codes_postaux":["76260"],"code_dep":"76","code_region":"28","population":1068,"surface_km2":4.6,"lat":50.0325,"lon":1.3902},{"code_insee":"76253","nom":"Étoutteville","codes_postaux":["76190"],"code_dep":"76","code_region":"28","population":841,"surface_km2":11.71,"lat":49.6704,"lon":0.7825},{"code_insee":"76254","nom":"Étretat","codes_postaux":["76790"],"code_dep":"76","code_region":"28","population":1102,"surface_km2":4.13,"lat":49.7048,"lon":0.2038},{"code_insee":"76255","nom":"Eu","codes_postaux":["76260"],"code_dep":"76","code_region":"28","population":6499,"surface_km2":17.92,"lat":50.042,"lon":1.4303},{"code_insee":"76257","nom":"Fallencourt","codes_postaux":["76340"],"code_dep":"76","code_region":"28","population":176,"surface_km2":12.1,"lat":49.8673,"lon":1.5652},{"code_insee":"76258","nom":"Terres-de-Caux","codes_postaux":["76640"],"code_dep":"76","code_region":"28","population":4245,"surface_km2":38.26,"lat":49.6517,"lon":0.6039},{"code_insee":"76259","nom":"Fécamp","codes_postaux":["76400"],"code_dep":"76","code_region":"28","population":17313,"surface_km2":15.02,"lat":49.7479,"lon":0.4012},{"code_insee":"76260","nom":"Ferrières-en-Bray","codes_postaux":["76220"],"code_dep":"76","code_region":"28","population":1669,"surface_km2":15.86,"lat":49.4863,"lon":1.758},{"code_insee":"76261","nom":"La Ferté-Saint-Samson","codes_postaux":["76440"],"code_dep":"76","code_region":"28","population":449,"surface_km2":19.03,"lat":49.5769,"lon":1.5389},{"code_insee":"76262","nom":"Fesques","codes_postaux":["76270"],"code_dep":"76","code_region":"28","population":146,"surface_km2":8.84,"lat":49.7894,"lon":1.4912},{"code_insee":"76263","nom":"La Feuillie","codes_postaux":["76220"],"code_dep":"76","code_region":"28","population":1228,"surface_km2":39.72,"lat":49.4682,"lon":1.517},{"code_insee":"76264","nom":"Flamanville","codes_postaux":["76970"],"code_dep":"76","code_region":"28","population":462,"surface_km2":4.52,"lat":49.6304,"lon":0.8313},{"code_insee":"76265","nom":"Flamets-Frétils","codes_postaux":["76270"],"code_dep":"76","code_region":"28","population":159,"surface_km2":12.29,"lat":49.7288,"lon":1.5792},{"code_insee":"76266","nom":"Flocques","codes_postaux":["76260"],"code_dep":"76","code_region":"28","population":729,"surface_km2":4.96,"lat":50.0345,"lon":1.3589},{"code_insee":"76268","nom":"Fongueusemare","codes_postaux":["76280"],"code_dep":"76","code_region":"28","population":175,"surface_km2":11.96,"lat":49.6726,"lon":0.3081},{"code_insee":"76269","nom":"Fontaine-en-Bray","codes_postaux":["76440"],"code_dep":"76","code_region":"28","population":165,"surface_km2":6.04,"lat":49.6777,"lon":1.4226},{"code_insee":"76270","nom":"Fontaine-la-Mallet","codes_postaux":["76290"],"code_dep":"76","code_region":"28","population":2725,"surface_km2":6.38,"lat":49.5415,"lon":0.1399},{"code_insee":"76271","nom":"Fontaine-le-Bourg","codes_postaux":["76690"],"code_dep":"76","code_region":"28","population":1881,"surface_km2":12.24,"lat":49.5724,"lon":1.1489},{"code_insee":"76272","nom":"Fontaine-le-Dun","codes_postaux":["76740"],"code_dep":"76","code_region":"28","population":873,"surface_km2":5.41,"lat":49.8126,"lon":0.8467},{"code_insee":"76273","nom":"Fontaine-sous-Préaux","codes_postaux":["76160"],"code_dep":"76","code_region":"28","population":569,"surface_km2":3.56,"lat":49.4874,"lon":1.168},{"code_insee":"76274","nom":"La Fontelaye","codes_postaux":["76890"],"code_dep":"76","code_region":"28","population":27,"surface_km2":3.97,"lat":49.6915,"lon":0.9438},{"code_insee":"76275","nom":"Fontenay","codes_postaux":["76290"],"code_dep":"76","code_region":"28","population":1766,"surface_km2":5.61,"lat":49.5697,"lon":0.1761},{"code_insee":"76276","nom":"Forges-les-Eaux","codes_postaux":["76440"],"code_dep":"76","code_region":"28","population":3642,"surface_km2":15.45,"lat":49.6104,"lon":1.5644},{"code_insee":"76278","nom":"Foucarmont","codes_postaux":["76340"],"code_dep":"76","code_region":"28","population":816,"surface_km2":7.32,"lat":49.8474,"lon":1.5595},{"code_insee":"76279","nom":"Foucart","codes_postaux":["76640"],"code_dep":"76","code_region":"28","population":329,"surface_km2":4.26,"lat":49.6175,"lon":0.5907},{"code_insee":"76280","nom":"Fréauville","codes_postaux":["76660"],"code_dep":"76","code_region":"28","population":143,"surface_km2":5.34,"lat":49.8264,"lon":1.4135},{"code_insee":"76281","nom":"La Frénaye","codes_postaux":["76170"],"code_dep":"76","code_region":"28","population":2074,"surface_km2":10.0,"lat":49.5207,"lon":0.5756},{"code_insee":"76282","nom":"Freneuse","codes_postaux":["76410"],"code_dep":"76","code_region":"28","population":993,"surface_km2":3.26,"lat":49.308,"lon":1.0681},{"code_insee":"76283","nom":"Fresles","codes_postaux":["76270"],"code_dep":"76","code_region":"28","population":222,"surface_km2":10.91,"lat":49.7476,"lon":1.3441},{"code_insee":"76284","nom":"Fresnay-le-Long","codes_postaux":["76850"],"code_dep":"76","code_region":"28","population":335,"surface_km2":4.99,"lat":49.6518,"lon":1.0919},{"code_insee":"76285","nom":"Fresne-le-Plan","codes_postaux":["76520"],"code_dep":"76","code_region":"28","population":554,"surface_km2":6.97,"lat":49.4115,"lon":1.2931},{"code_insee":"76286","nom":"Fresnoy-Folny","codes_postaux":["76660"],"code_dep":"76","code_region":"28","population":683,"surface_km2":13.15,"lat":49.8935,"lon":1.4344},{"code_insee":"76287","nom":"Fresquiennes","codes_postaux":["76570"],"code_dep":"76","code_region":"28","population":1079,"surface_km2":13.43,"lat":49.5642,"lon":1.0151},{"code_insee":"76288","nom":"Freulleville","codes_postaux":["76510"],"code_dep":"76","code_region":"28","population":386,"surface_km2":11.18,"lat":49.8173,"lon":1.2193},{"code_insee":"76289","nom":"Saint Martin de l'If","codes_postaux":["76190"],"code_dep":"76","code_region":"28","population":1736,"surface_km2":22.82,"lat":49.5641,"lon":0.807},{"code_insee":"76290","nom":"Frichemesnil","codes_postaux":["76690"],"code_dep":"76","code_region":"28","population":411,"surface_km2":8.14,"lat":49.621,"lon":1.1325},{"code_insee":"76291","nom":"Froberville","codes_postaux":["76400"],"code_dep":"76","code_region":"28","population":1193,"surface_km2":5.92,"lat":49.7178,"lon":0.3346},{"code_insee":"76292","nom":"Fry","codes_postaux":["76780"],"code_dep":"76","code_region":"28","population":139,"surface_km2":8.03,"lat":49.5243,"lon":1.5388},{"code_insee":"76293","nom":"Fultot","codes_postaux":["76560"],"code_dep":"76","code_region":"28","population":246,"surface_km2":3.72,"lat":49.7592,"lon":0.7797},{"code_insee":"76294","nom":"La Gaillarde","codes_postaux":["76740"],"code_dep":"76","code_region":"28","population":373,"surface_km2":7.85,"lat":49.8392,"lon":0.869},{"code_insee":"76295","nom":"Gaillefontaine","codes_postaux":["76870"],"code_dep":"76","code_region":"28","population":1108,"surface_km2":26.44,"lat":49.6524,"lon":1.6225},{"code_insee":"76296","nom":"Gainneville","codes_postaux":["76700"],"code_dep":"76","code_region":"28","population":2548,"surface_km2":4.61,"lat":49.5176,"lon":0.2574},{"code_insee":"76297","nom":"Gancourt-Saint-Étienne","codes_postaux":["76220"],"code_dep":"76","code_region":"28","population":231,"surface_km2":12.61,"lat":49.5465,"lon":1.7134},{"code_insee":"76298","nom":"Ganzeville","codes_postaux":["76400"],"code_dep":"76","code_region":"28","population":454,"surface_km2":3.99,"lat":49.7315,"lon":0.4052},{"code_insee":"76299","nom":"Gerponville","codes_postaux":["76540"],"code_dep":"76","code_region":"28","population":397,"surface_km2":4.92,"lat":49.7489,"lon":0.5623},{"code_insee":"76300","nom":"Gerville","codes_postaux":["76790"],"code_dep":"76","code_region":"28","population":412,"surface_km2":3.05,"lat":49.6982,"lon":0.3279},{"code_insee":"76302","nom":"Goderville","codes_postaux":["76110"],"code_dep":"76","code_region":"28","population":2818,"surface_km2":8.0,"lat":49.6465,"lon":0.356},{"code_insee":"76303","nom":"Gommerville","codes_postaux":["76430"],"code_dep":"76","code_region":"28","population":748,"surface_km2":7.47,"lat":49.5532,"lon":0.3609},{"code_insee":"76304","nom":"Gonfreville-Caillot","codes_postaux":["76110"],"code_dep":"76","code_region":"28","population":404,"surface_km2":4.21,"lat":49.6523,"lon":0.4423},{"code_insee":"76305","nom":"Gonfreville-l'Orcher","codes_postaux":["76700"],"code_dep":"76","code_region":"28","population":8916,"surface_km2":26.27,"lat":49.487,"lon":0.2223},{"code_insee":"76306","nom":"Gonnetot","codes_postaux":["76730"],"code_dep":"76","code_region":"28","population":173,"surface_km2":2.33,"lat":49.7626,"lon":0.8962},{"code_insee":"76307","nom":"Gonneville-la-Mallet","codes_postaux":["76280"],"code_dep":"76","code_region":"28","population":1338,"surface_km2":7.28,"lat":49.6298,"lon":0.2144},{"code_insee":"76308","nom":"Gonneville-sur-Scie","codes_postaux":["76590"],"code_dep":"76","code_region":"28","population":562,"surface_km2":8.61,"lat":49.7579,"lon":1.0906},{"code_insee":"76309","nom":"Gonzeville","codes_postaux":["76560"],"code_dep":"76","code_region":"28","population":113,"surface_km2":4.87,"lat":49.7579,"lon":0.809},{"code_insee":"76311","nom":"Goupillières","codes_postaux":["76570"],"code_dep":"76","code_region":"28","population":443,"surface_km2":4.12,"lat":49.5836,"lon":0.9839},{"code_insee":"76312","nom":"Gournay-en-Bray","codes_postaux":["76220"],"code_dep":"76","code_region":"28","population":5723,"surface_km2":10.41,"lat":49.4763,"lon":1.7168},{"code_insee":"76313","nom":"Gouy","codes_postaux":["76520"],"code_dep":"76","code_region":"28","population":888,"surface_km2":5.04,"lat":49.3571,"lon":1.1439},{"code_insee":"76314","nom":"Graimbouville","codes_postaux":["76430"],"code_dep":"76","code_region":"28","population":604,"surface_km2":6.46,"lat":49.5808,"lon":0.3325},{"code_insee":"76315","nom":"Grainville-la-Teinturière","codes_postaux":["76450"],"code_dep":"76","code_region":"28","population":1048,"surface_km2":18.49,"lat":49.7404,"lon":0.6449},{"code_insee":"76316","nom":"Grainville-sur-Ry","codes_postaux":["76116"],"code_dep":"76","code_region":"28","population":438,"surface_km2":5.44,"lat":49.4728,"lon":1.3003},{"code_insee":"76317","nom":"Grainville-Ymauville","codes_postaux":["76110"],"code_dep":"76","code_region":"28","population":428,"surface_km2":6.34,"lat":49.6532,"lon":0.4085},{"code_insee":"76318","nom":"Grand-Camp","codes_postaux":["76170"],"code_dep":"76","code_region":"28","population":763,"surface_km2":4.93,"lat":49.5499,"lon":0.5975},{"code_insee":"76319","nom":"Grand-Couronne","codes_postaux":["76530"],"code_dep":"76","code_region":"28","population":9768,"surface_km2":16.91,"lat":49.3508,"lon":1.0097},{"code_insee":"76320","nom":"Grandcourt","codes_postaux":["76660"],"code_dep":"76","code_region":"28","population":292,"surface_km2":22.52,"lat":49.9166,"lon":1.4867},{"code_insee":"76321","nom":"Les Grandes-Ventes","codes_postaux":["76950"],"code_dep":"76","code_region":"28","population":1725,"surface_km2":24.8,"lat":49.7713,"lon":1.2337},{"code_insee":"76322","nom":"Le Grand-Quevilly","codes_postaux":["76120"],"code_dep":"76","code_region":"28","population":25789,"surface_km2":10.98,"lat":49.4118,"lon":1.0416},{"code_insee":"76323","nom":"Graval","codes_postaux":["76270"],"code_dep":"76","code_region":"28","population":153,"surface_km2":3.96,"lat":49.7289,"lon":1.5529},{"code_insee":"76324","nom":"Grèges","codes_postaux":["76370"],"code_dep":"76","code_region":"28","population":830,"surface_km2":3.19,"lat":49.9234,"lon":1.1496},{"code_insee":"76325","nom":"Grémonville","codes_postaux":["76970"],"code_dep":"76","code_region":"28","population":446,"surface_km2":8.3,"lat":49.6619,"lon":0.8317},{"code_insee":"76327","nom":"Greuville","codes_postaux":["76810"],"code_dep":"76","code_region":"28","population":368,"surface_km2":2.99,"lat":49.8072,"lon":0.9092},{"code_insee":"76328","nom":"Grigneuseville","codes_postaux":["76850"],"code_dep":"76","code_region":"28","population":371,"surface_km2":7.37,"lat":49.6559,"lon":1.1915},{"code_insee":"76329","nom":"Gruchet-le-Valasse","codes_postaux":["76210"],"code_dep":"76","code_region":"28","population":3008,"surface_km2":14.22,"lat":49.5473,"lon":0.5149},{"code_insee":"76330","nom":"Gruchet-Saint-Siméon","codes_postaux":["76810"],"code_dep":"76","code_region":"28","population":682,"surface_km2":2.6,"lat":49.8228,"lon":0.8919},{"code_insee":"76331","nom":"Grugny","codes_postaux":["76690"],"code_dep":"76","code_region":"28","population":1004,"surface_km2":3.18,"lat":49.6189,"lon":1.1053},{"code_insee":"76332","nom":"Grumesnil","codes_postaux":["76440"],"code_dep":"76","code_region":"28","population":485,"surface_km2":11.22,"lat":49.62,"lon":1.6891},{"code_insee":"76333","nom":"Guerville","codes_postaux":["76340"],"code_dep":"76","code_region":"28","population":458,"surface_km2":12.45,"lat":49.9479,"lon":1.5237},{"code_insee":"76334","nom":"Gueures","codes_postaux":["76730"],"code_dep":"76","code_region":"28","population":522,"surface_km2":6.06,"lat":49.8423,"lon":0.9499},{"code_insee":"76335","nom":"Gueutteville","codes_postaux":["76890"],"code_dep":"76","code_region":"28","population":75,"surface_km2":3.0,"lat":49.651,"lon":1.0049},{"code_insee":"76336","nom":"Gueutteville-les-Grès","codes_postaux":["76460"],"code_dep":"76","code_region":"28","population":363,"surface_km2":4.47,"lat":49.838,"lon":0.7631},{"code_insee":"76338","nom":"La Hallotière","codes_postaux":["76780"],"code_dep":"76","code_region":"28","population":200,"surface_km2":3.71,"lat":49.5212,"lon":1.4765},{"code_insee":"76339","nom":"Le Hanouard","codes_postaux":["76450"],"code_dep":"76","code_region":"28","population":271,"surface_km2":4.29,"lat":49.7239,"lon":0.6541},{"code_insee":"76340","nom":"Harcanville","codes_postaux":["76560"],"code_dep":"76","code_region":"28","population":522,"surface_km2":7.63,"lat":49.7066,"lon":0.767},{"code_insee":"76341","nom":"Harfleur","codes_postaux":["76700"],"code_dep":"76","code_region":"28","population":8289,"surface_km2":4.21,"lat":49.5137,"lon":0.1964},{"code_insee":"76342","nom":"Hattenville","codes_postaux":["76640"],"code_dep":"76","code_region":"28","population":704,"surface_km2":9.31,"lat":49.6558,"lon":0.5364},{"code_insee":"76343","nom":"Haucourt","codes_postaux":["76440"],"code_dep":"76","code_region":"28","population":194,"surface_km2":10.26,"lat":49.6484,"lon":1.6748},{"code_insee":"76344","nom":"Haudricourt","codes_postaux":["76390"],"code_dep":"76","code_region":"28","population":461,"surface_km2":29.67,"lat":49.7314,"lon":1.6972},{"code_insee":"76345","nom":"Haussez","codes_postaux":["76440"],"code_dep":"76","code_region":"28","population":274,"surface_km2":13.23,"lat":49.5864,"lon":1.6814},{"code_insee":"76346","nom":"Hautot-l'Auvray","codes_postaux":["76450"],"code_dep":"76","code_region":"28","population":305,"surface_km2":7.34,"lat":49.766,"lon":0.7538},{"code_insee":"76347","nom":"Hautot-le-Vatois","codes_postaux":["76190"],"code_dep":"76","code_region":"28","population":325,"surface_km2":6.09,"lat":49.6467,"lon":0.6983},{"code_insee":"76348","nom":"Hautot-Saint-Sulpice","codes_postaux":["76190"],"code_dep":"76","code_region":"28","population":688,"surface_km2":8.54,"lat":49.6769,"lon":0.7393},{"code_insee":"76349","nom":"Hautot-sur-Mer","codes_postaux":["76550"],"code_dep":"76","code_region":"28","population":1870,"surface_km2":9.51,"lat":49.9038,"lon":1.04},{"code_insee":"76350","nom":"Hautot-sur-Seine","codes_postaux":["76113"],"code_dep":"76","code_region":"28","population":399,"surface_km2":2.14,"lat":49.3633,"lon":0.9797},{"code_insee":"76351","nom":"Le Havre","codes_postaux":["76600","76610","76620"],"code_dep":"76","code_region":"28","population":166687,"surface_km2":53.08,"lat":49.4958,"lon":0.1312},{"code_insee":"76352","nom":"La Haye","codes_postaux":["76780"],"code_dep":"76","code_region":"28","population":366,"surface_km2":6.73,"lat":49.4616,"lon":1.4437},{"code_insee":"76353","nom":"Héberville","codes_postaux":["76740"],"code_dep":"76","code_region":"28","population":100,"surface_km2":3.98,"lat":49.7849,"lon":0.8033},{"code_insee":"76354","nom":"Hénouville","codes_postaux":["76840"],"code_dep":"76","code_region":"28","population":1406,"surface_km2":10.74,"lat":49.4735,"lon":0.9507},{"code_insee":"76355","nom":"Héricourt-en-Caux","codes_postaux":["76560"],"code_dep":"76","code_region":"28","population":941,"surface_km2":10.81,"lat":49.6938,"lon":0.7032},{"code_insee":"76356","nom":"Hermanville","codes_postaux":["76730"],"code_dep":"76","code_region":"28","population":111,"surface_km2":4.68,"lat":49.8201,"lon":0.9867},{"code_insee":"76357","nom":"Hermeville","codes_postaux":["76280"],"code_dep":"76","code_region":"28","population":362,"surface_km2":3.82,"lat":49.5991,"lon":0.2574},{"code_insee":"76359","nom":"Héronchelles","codes_postaux":["76750"],"code_dep":"76","code_region":"28","population":149,"surface_km2":6.68,"lat":49.5385,"lon":1.3823},{"code_insee":"76360","nom":"Heugleville-sur-Scie","codes_postaux":["76720"],"code_dep":"76","code_region":"28","population":636,"surface_km2":13.35,"lat":49.736,"lon":1.0976},{"code_insee":"76361","nom":"Heuqueville","codes_postaux":["76280"],"code_dep":"76","code_region":"28","population":717,"surface_km2":5.2,"lat":49.6181,"lon":0.1537},{"code_insee":"76362","nom":"Heurteauville","codes_postaux":["76940"],"code_dep":"76","code_region":"28","population":284,"surface_km2":7.25,"lat":49.4513,"lon":0.8009},{"code_insee":"76363","nom":"Hodeng-au-Bosc","codes_postaux":["76340"],"code_dep":"76","code_region":"28","population":559,"surface_km2":8.77,"lat":49.873,"lon":1.7},{"code_insee":"76364","nom":"Hodeng-Hodenger","codes_postaux":["76780"],"code_dep":"76","code_region":"28","population":294,"surface_km2":11.63,"lat":49.5363,"lon":1.5892},{"code_insee":"76365","nom":"Houdetot","codes_postaux":["76740"],"code_dep":"76","code_region":"28","population":202,"surface_km2":5.86,"lat":49.8169,"lon":0.8068},{"code_insee":"76366","nom":"Le Houlme","codes_postaux":["76770"],"code_dep":"76","code_region":"28","population":4130,"surface_km2":2.97,"lat":49.5111,"lon":1.0352},{"code_insee":"76367","nom":"Houppeville","codes_postaux":["76770"],"code_dep":"76","code_region":"28","population":2814,"surface_km2":20.87,"lat":49.5037,"lon":1.0909},{"code_insee":"76368","nom":"Houquetot","codes_postaux":["76110"],"code_dep":"76","code_region":"28","population":350,"surface_km2":4.1,"lat":49.6053,"lon":0.3877},{"code_insee":"76369","nom":"La Houssaye-Béranger","codes_postaux":["76690"],"code_dep":"76","code_region":"28","population":545,"surface_km2":8.13,"lat":49.6281,"lon":1.0833},{"code_insee":"76370","nom":"Hugleville-en-Caux","codes_postaux":["76570"],"code_dep":"76","code_region":"28","population":406,"surface_km2":9.51,"lat":49.6217,"lon":0.9895},{"code_insee":"76371","nom":"Les Ifs","codes_postaux":["76630"],"code_dep":"76","code_region":"28","population":67,"surface_km2":4.01,"lat":49.8878,"lon":1.3984},{"code_insee":"76372","nom":"Illois","codes_postaux":["76390"],"code_dep":"76","code_region":"28","population":381,"surface_km2":14.61,"lat":49.746,"lon":1.6526},{"code_insee":"76373","nom":"Imbleville","codes_postaux":["76890"],"code_dep":"76","code_region":"28","population":321,"surface_km2":5.24,"lat":49.715,"lon":0.9429},{"code_insee":"76374","nom":"Incheville","codes_postaux":["76117"],"code_dep":"76","code_region":"28","population":1121,"surface_km2":7.84,"lat":50.0049,"lon":1.5003},{"code_insee":"76375","nom":"Ingouville","codes_postaux":["76460"],"code_dep":"76","code_region":"28","population":282,"surface_km2":7.84,"lat":49.8452,"lon":0.6814},{"code_insee":"76377","nom":"Isneauville","codes_postaux":["76230"],"code_dep":"76","code_region":"28","population":3716,"surface_km2":8.06,"lat":49.5033,"lon":1.1473},{"code_insee":"76378","nom":"Jumièges","codes_postaux":["76480"],"code_dep":"76","code_region":"28","population":1761,"surface_km2":19.07,"lat":49.4283,"lon":0.8305},{"code_insee":"76379","nom":"Lamberville","codes_postaux":["76730"],"code_dep":"76","code_region":"28","population":185,"surface_km2":7.23,"lat":49.7721,"lon":1.0126},{"code_insee":"76380","nom":"Lammerville","codes_postaux":["76730"],"code_dep":"76","code_region":"28","population":302,"surface_km2":8.79,"lat":49.7931,"lon":0.9682},{"code_insee":"76381","nom":"Landes-Vieilles-et-Neuves","codes_postaux":["76390"],"code_dep":"76","code_region":"28","population":125,"surface_km2":7.13,"lat":49.7847,"lon":1.633},{"code_insee":"76382","nom":"Lanquetot","codes_postaux":["76210"],"code_dep":"76","code_region":"28","population":1151,"surface_km2":5.16,"lat":49.5813,"lon":0.536},{"code_insee":"76383","nom":"Lestanville","codes_postaux":["76730"],"code_dep":"76","code_region":"28","population":90,"surface_km2":1.66,"lat":49.7486,"lon":0.9612},{"code_insee":"76384","nom":"Lillebonne","codes_postaux":["76170"],"code_dep":"76","code_region":"28","population":8541,"surface_km2":14.64,"lat":49.505,"lon":0.5393},{"code_insee":"76385","nom":"Limésy","codes_postaux":["76570"],"code_dep":"76","code_region":"28","population":1511,"surface_km2":14.96,"lat":49.6045,"lon":0.9242},{"code_insee":"76386","nom":"Limpiville","codes_postaux":["76540"],"code_dep":"76","code_region":"28","population":405,"surface_km2":4.24,"lat":49.6867,"lon":0.4994},{"code_insee":"76387","nom":"Lindebeuf","codes_postaux":["76760"],"code_dep":"76","code_region":"28","population":386,"surface_km2":4.63,"lat":49.7116,"lon":0.8997},{"code_insee":"76388","nom":"Lintot","codes_postaux":["76210"],"code_dep":"76","code_region":"28","population":472,"surface_km2":8.05,"lat":49.5581,"lon":0.5651},{"code_insee":"76389","nom":"Lintot-les-Bois","codes_postaux":["76590"],"code_dep":"76","code_region":"28","population":189,"surface_km2":2.82,"lat":49.8005,"lon":1.0704},{"code_insee":"76390","nom":"Les Loges","codes_postaux":["76790"],"code_dep":"76","code_region":"28","population":1126,"surface_km2":14.94,"lat":49.7034,"lon":0.2873},{"code_insee":"76391","nom":"La Londe","codes_postaux":["76500"],"code_dep":"76","code_region":"28","population":2372,"surface_km2":30.89,"lat":49.3193,"lon":0.913},{"code_insee":"76392","nom":"Londinières","codes_postaux":["76660"],"code_dep":"76","code_region":"28","population":1234,"surface_km2":18.72,"lat":49.8399,"lon":1.398},{"code_insee":"76393","nom":"Longmesnil","codes_postaux":["76440"],"code_dep":"76","code_region":"28","population":45,"surface_km2":3.94,"lat":49.6218,"lon":1.6133},{"code_insee":"76394","nom":"Longroy","codes_postaux":["76260"],"code_dep":"76","code_region":"28","population":637,"surface_km2":5.34,"lat":49.9809,"lon":1.5392},{"code_insee":"76395","nom":"Longueil","codes_postaux":["76860"],"code_dep":"76","code_region":"28","population":503,"surface_km2":11.67,"lat":49.8804,"lon":0.9527},{"code_insee":"76396","nom":"Longuerue","codes_postaux":["76750"],"code_dep":"76","code_region":"28","population":346,"surface_km2":5.45,"lat":49.545,"lon":1.2853},{"code_insee":"76397","nom":"Longueville-sur-Scie","codes_postaux":["76590"],"code_dep":"76","code_region":"28","population":900,"surface_km2":3.82,"lat":49.7948,"lon":1.1085},{"code_insee":"76398","nom":"Louvetot","codes_postaux":["76490"],"code_dep":"76","code_region":"28","population":783,"surface_km2":7.6,"lat":49.5748,"lon":0.7223},{"code_insee":"76399","nom":"Lucy","codes_postaux":["76270"],"code_dep":"76","code_region":"28","population":180,"surface_km2":9.57,"lat":49.7709,"lon":1.4434},{"code_insee":"76400","nom":"Luneray","codes_postaux":["76810"],"code_dep":"76","code_region":"28","population":2169,"surface_km2":5.15,"lat":49.8231,"lon":0.9182},{"code_insee":"76401","nom":"Arelaune-en-Seine","codes_postaux":["76940"],"code_dep":"76","code_region":"28","population":2546,"surface_km2":53.91,"lat":49.4654,"lon":0.7492},{"code_insee":"76402","nom":"Malaunay","codes_postaux":["76770"],"code_dep":"76","code_region":"28","population":6221,"surface_km2":9.28,"lat":49.5253,"lon":1.048},{"code_insee":"76403","nom":"Malleville-les-Grès","codes_postaux":["76450"],"code_dep":"76","code_region":"28","population":203,"surface_km2":3.05,"lat":49.8303,"lon":0.6066},{"code_insee":"76404","nom":"Manéglise","codes_postaux":["76133"],"code_dep":"76","code_region":"28","population":1292,"surface_km2":8.34,"lat":49.5661,"lon":0.2575},{"code_insee":"76405","nom":"Manéhouville","codes_postaux":["76590"],"code_dep":"76","code_region":"28","population":211,"surface_km2":4.34,"lat":49.8319,"lon":1.0693},{"code_insee":"76406","nom":"Maniquerville","codes_postaux":["76400"],"code_dep":"76","code_region":"28","population":409,"surface_km2":2.59,"lat":49.6945,"lon":0.3468},{"code_insee":"76407","nom":"Manneville-ès-Plains","codes_postaux":["76460"],"code_dep":"76","code_region":"28","population":310,"surface_km2":6.35,"lat":49.8586,"lon":0.7501},{"code_insee":"76408","nom":"Manneville-la-Goupil","codes_postaux":["76110"],"code_dep":"76","code_region":"28","population":1054,"surface_km2":8.85,"lat":49.6123,"lon":0.3519},{"code_insee":"76409","nom":"Mannevillette","codes_postaux":["76290"],"code_dep":"76","code_region":"28","population":935,"surface_km2":4.2,"lat":49.5963,"lon":0.1743},{"code_insee":"76410","nom":"Maromme","codes_postaux":["76150"],"code_dep":"76","code_region":"28","population":10957,"surface_km2":4.13,"lat":49.4767,"lon":1.0321},{"code_insee":"76411","nom":"Marques","codes_postaux":["76390"],"code_dep":"76","code_region":"28","population":236,"surface_km2":13.2,"lat":49.7797,"lon":1.6831},{"code_insee":"76412","nom":"Martainville-Épreville","codes_postaux":["76116"],"code_dep":"76","code_region":"28","population":746,"surface_km2":7.61,"lat":49.4505,"lon":1.2987},{"code_insee":"76413","nom":"Martigny","codes_postaux":["76880"],"code_dep":"76","code_region":"28","population":405,"surface_km2":5.17,"lat":49.8599,"lon":1.1475},{"code_insee":"76414","nom":"Martin-Église","codes_postaux":["76370"],"code_dep":"76","code_region":"28","population":1589,"surface_km2":9.65,"lat":49.9105,"lon":1.1279},{"code_insee":"76415","nom":"Massy","codes_postaux":["76270"],"code_dep":"76","code_region":"28","population":316,"surface_km2":11.23,"lat":49.6883,"lon":1.3928},{"code_insee":"76416","nom":"Mathonville","codes_postaux":["76680"],"code_dep":"76","code_region":"28","population":344,"surface_km2":4.09,"lat":49.6236,"lon":1.3823},{"code_insee":"76417","nom":"Maucomble","codes_postaux":["76680"],"code_dep":"76","code_region":"28","population":383,"surface_km2":5.09,"lat":49.6879,"lon":1.3346},{"code_insee":"76418","nom":"Maulévrier-Sainte-Gertrude","codes_postaux":["76490"],"code_dep":"76","code_region":"28","population":1053,"surface_km2":14.36,"lat":49.555,"lon":0.7049},{"code_insee":"76419","nom":"Mauny","codes_postaux":["76530"],"code_dep":"76","code_region":"28","population":150,"surface_km2":10.12,"lat":49.3979,"lon":0.899},{"code_insee":"76420","nom":"Mauquenchy","codes_postaux":["76440"],"code_dep":"76","code_region":"28","population":365,"surface_km2":12.73,"lat":49.6002,"lon":1.4597},{"code_insee":"76421","nom":"Mélamare","codes_postaux":["76170"],"code_dep":"76","code_region":"28","population":938,"surface_km2":6.31,"lat":49.5409,"lon":0.4401},{"code_insee":"76422","nom":"Melleville","codes_postaux":["76260"],"code_dep":"76","code_region":"28","population":264,"surface_km2":9.06,"lat":49.9619,"lon":1.4753},{"code_insee":"76423","nom":"Ménerval","codes_postaux":["76220"],"code_dep":"76","code_region":"28","population":178,"surface_km2":12.69,"lat":49.5596,"lon":1.6426},{"code_insee":"76424","nom":"Ménonval","codes_postaux":["76270"],"code_dep":"76","code_region":"28","population":236,"surface_km2":5.3,"lat":49.7612,"lon":1.481},{"code_insee":"76425","nom":"Mentheville","codes_postaux":["76110"],"code_dep":"76","code_region":"28","population":302,"surface_km2":3.11,"lat":49.6923,"lon":0.4086},{"code_insee":"76426","nom":"Mésangueville","codes_postaux":["76780"],"code_dep":"76","code_region":"28","population":154,"surface_km2":10.63,"lat":49.5592,"lon":1.5668},{"code_insee":"76427","nom":"Mesnières-en-Bray","codes_postaux":["76270"],"code_dep":"76","code_region":"28","population":940,"surface_km2":15.02,"lat":49.7652,"lon":1.3891},{"code_insee":"76428","nom":"Le Mesnil-Durdent","codes_postaux":["76460"],"code_dep":"76","code_region":"28","population":18,"surface_km2":1.33,"lat":49.8176,"lon":0.7705},{"code_insee":"76429","nom":"Le Mesnil-Esnard","codes_postaux":["76240"],"code_dep":"76","code_region":"28","population":8177,"surface_km2":5.21,"lat":49.4123,"lon":1.1462},{"code_insee":"76430","nom":"Mesnil-Follemprise","codes_postaux":["76660"],"code_dep":"76","code_region":"28","population":119,"surface_km2":7.52,"lat":49.7619,"lon":1.3036},{"code_insee":"76431","nom":"Le Mesnil-Lieubray","codes_postaux":["76780"],"code_dep":"76","code_region":"28","population":92,"surface_km2":5.92,"lat":49.5173,"lon":1.5061},{"code_insee":"76432","nom":"Mesnil-Mauger","codes_postaux":["76440"],"code_dep":"76","code_region":"28","population":243,"surface_km2":8.36,"lat":49.6708,"lon":1.5247},{"code_insee":"76433","nom":"Mesnil-Panneville","codes_postaux":["76570"],"code_dep":"76","code_region":"28","population":766,"surface_km2":11.89,"lat":49.5919,"lon":0.885},{"code_insee":"76434","nom":"Mesnil-Raoul","codes_postaux":["76520"],"code_dep":"76","code_region":"28","population":1245,"surface_km2":6.61,"lat":49.3979,"lon":1.2736},{"code_insee":"76435","nom":"Le Mesnil-Réaume","codes_postaux":["76260"],"code_dep":"76","code_region":"28","population":808,"surface_km2":5.5,"lat":49.9709,"lon":1.4418},{"code_insee":"76436","nom":"Le Mesnil-sous-Jumièges","codes_postaux":["76480"],"code_dep":"76","code_region":"28","population":602,"surface_km2":6.72,"lat":49.4281,"lon":0.858},{"code_insee":"76437","nom":"Meulers","codes_postaux":["76510"],"code_dep":"76","code_region":"28","population":577,"surface_km2":6.74,"lat":49.8409,"lon":1.2247},{"code_insee":"76438","nom":"Millebosc","codes_postaux":["76260"],"code_dep":"76","code_region":"28","population":242,"surface_km2":7.92,"lat":49.9794,"lon":1.4983},{"code_insee":"76439","nom":"Mirville","codes_postaux":["76210"],"code_dep":"76","code_region":"28","population":346,"surface_km2":5.4,"lat":49.6067,"lon":0.443},{"code_insee":"76440","nom":"Molagnies","codes_postaux":["76220"],"code_dep":"76","code_region":"28","population":209,"surface_km2":4.63,"lat":49.524,"lon":1.7256},{"code_insee":"76441","nom":"Monchaux-Soreng","codes_postaux":["76340"],"code_dep":"76","code_region":"28","population":607,"surface_km2":10.13,"lat":49.9454,"lon":1.5789},{"code_insee":"76442","nom":"Monchy-sur-Eu","codes_postaux":["76260"],"code_dep":"76","code_region":"28","population":551,"surface_km2":9.06,"lat":49.9943,"lon":1.4582},{"code_insee":"76443","nom":"Mont-Cauvaire","codes_postaux":["76690"],"code_dep":"76","code_region":"28","population":898,"surface_km2":9.12,"lat":49.5706,"lon":1.1149},{"code_insee":"76445","nom":"Montérolier","codes_postaux":["76680"],"code_dep":"76","code_region":"28","population":591,"surface_km2":11.77,"lat":49.6234,"lon":1.3473},{"code_insee":"76446","nom":"Montigny","codes_postaux":["76380"],"code_dep":"76","code_region":"28","population":1278,"surface_km2":7.89,"lat":49.46,"lon":0.996},{"code_insee":"76447","nom":"Montivilliers","codes_postaux":["76290"],"code_dep":"76","code_region":"28","population":15478,"surface_km2":19.02,"lat":49.5426,"lon":0.193},{"code_insee":"76448","nom":"Montmain","codes_postaux":["76520"],"code_dep":"76","code_region":"28","population":1500,"surface_km2":6.06,"lat":49.41,"lon":1.2447},{"code_insee":"76449","nom":"Montreuil-en-Caux","codes_postaux":["76850"],"code_dep":"76","code_region":"28","population":494,"surface_km2":9.38,"lat":49.6851,"lon":1.1549},{"code_insee":"76450","nom":"Montroty","codes_postaux":["76220"],"code_dep":"76","code_region":"28","population":250,"surface_km2":10.86,"lat":49.4313,"lon":1.6642},{"code_insee":"76451","nom":"Mont-Saint-Aignan","codes_postaux":["76130"],"code_dep":"76","code_region":"28","population":20165,"surface_km2":7.94,"lat":49.4673,"lon":1.0806},{"code_insee":"76452","nom":"Montville","codes_postaux":["76710"],"code_dep":"76","code_region":"28","population":4625,"surface_km2":10.75,"lat":49.5478,"lon":1.0787},{"code_insee":"76453","nom":"Morgny-la-Pommeraye","codes_postaux":["76750"],"code_dep":"76","code_region":"28","population":1065,"surface_km2":6.61,"lat":49.518,"lon":1.2509},{"code_insee":"76454","nom":"Mortemer","codes_postaux":["76270"],"code_dep":"76","code_region":"28","population":94,"surface_km2":8.94,"lat":49.7452,"lon":1.5434},{"code_insee":"76455","nom":"Morville-le-Héron","codes_postaux":["76780"],"code_dep":"76","code_region":"28","population":538,"surface_km2":15.96,"lat":49.49,"lon":1.412},{"code_insee":"76456","nom":"Motteville","codes_postaux":["76970"],"code_dep":"76","code_region":"28","population":785,"surface_km2":8.67,"lat":49.6292,"lon":0.8534},{"code_insee":"76457","nom":"Moulineaux","codes_postaux":["76530"],"code_dep":"76","code_region":"28","population":954,"surface_km2":3.49,"lat":49.342,"lon":0.9567},{"code_insee":"76458","nom":"Muchedent","codes_postaux":["76590"],"code_dep":"76","code_region":"28","population":131,"surface_km2":7.12,"lat":49.7672,"lon":1.1876},{"code_insee":"76459","nom":"Nesle-Hodeng","codes_postaux":["76270"],"code_dep":"76","code_region":"28","population":323,"surface_km2":15.71,"lat":49.704,"lon":1.5186},{"code_insee":"76460","nom":"Nesle-Normandeuse","codes_postaux":["76340"],"code_dep":"76","code_region":"28","population":503,"surface_km2":9.03,"lat":49.9003,"lon":1.6631},{"code_insee":"76461","nom":"Neufbosc","codes_postaux":["76680"],"code_dep":"76","code_region":"28","population":397,"surface_km2":5.16,"lat":49.6455,"lon":1.359},{"code_insee":"76462","nom":"Neufchâtel-en-Bray","codes_postaux":["76270"],"code_dep":"76","code_region":"28","population":4662,"surface_km2":10.97,"lat":49.742,"lon":1.4488},{"code_insee":"76463","nom":"Neuf-Marché","codes_postaux":["76220"],"code_dep":"76","code_region":"28","population":639,"surface_km2":17.94,"lat":49.4218,"lon":1.6921},{"code_insee":"76464","nom":"La Neuville-Chant-d'Oisel","codes_postaux":["76520"],"code_dep":"76","code_region":"28","population":2377,"surface_km2":22.14,"lat":49.3742,"lon":1.2496},{"code_insee":"76465","nom":"Neuville-Ferrières","codes_postaux":["76270"],"code_dep":"76","code_region":"28","population":528,"surface_km2":13.02,"lat":49.7139,"lon":1.4572},{"code_insee":"76467","nom":"Néville","codes_postaux":["76460"],"code_dep":"76","code_region":"28","population":1300,"surface_km2":9.21,"lat":49.8279,"lon":0.7108},{"code_insee":"76468","nom":"Nointot","codes_postaux":["76210"],"code_dep":"76","code_region":"28","population":1358,"surface_km2":6.06,"lat":49.5958,"lon":0.4761},{"code_insee":"76469","nom":"Nolléval","codes_postaux":["76780"],"code_dep":"76","code_region":"28","population":417,"surface_km2":9.98,"lat":49.489,"lon":1.4834},{"code_insee":"76470","nom":"Normanville","codes_postaux":["76640"],"code_dep":"76","code_region":"28","population":651,"surface_km2":9.28,"lat":49.6934,"lon":0.5888},{"code_insee":"76471","nom":"Norville","codes_postaux":["76330"],"code_dep":"76","code_region":"28","population":996,"surface_km2":11.98,"lat":49.4799,"lon":0.6399},{"code_insee":"76472","nom":"Notre-Dame-d'Aliermont","codes_postaux":["76510"],"code_dep":"76","code_region":"28","population":701,"surface_km2":13.18,"lat":49.8474,"lon":1.3015},{"code_insee":"76473","nom":"Notre-Dame-de-Bliquetuit","codes_postaux":["76940"],"code_dep":"76","code_region":"28","population":826,"surface_km2":9.91,"lat":49.498,"lon":0.7533},{"code_insee":"76474","nom":"Notre-Dame-de-Bondeville","codes_postaux":["76960"],"code_dep":"76","code_region":"28","population":7071,"surface_km2":6.38,"lat":49.4876,"lon":1.0559},{"code_insee":"76475","nom":"Franqueville-Saint-Pierre","codes_postaux":["76520"],"code_dep":"76","code_region":"28","population":6171,"surface_km2":8.56,"lat":49.4038,"lon":1.1861},{"code_insee":"76476","nom":"Port-Jérôme-sur-Seine","codes_postaux":["76170","76330"],"code_dep":"76","code_region":"28","population":10617,"surface_km2":30.5,"lat":49.5062,"lon":0.5834},{"code_insee":"76477","nom":"Notre-Dame-du-Bec","codes_postaux":["76133"],"code_dep":"76","code_region":"28","population":490,"surface_km2":4.02,"lat":49.595,"lon":0.2235},{"code_insee":"76478","nom":"Notre-Dame-du-Parc","codes_postaux":["76590"],"code_dep":"76","code_region":"28","population":180,"surface_km2":3.0,"lat":49.7506,"lon":1.127},{"code_insee":"76479","nom":"Nullemont","codes_postaux":["76390"],"code_dep":"76","code_region":"28","population":152,"surface_km2":5.73,"lat":49.7709,"lon":1.6484},{"code_insee":"76480","nom":"Ocqueville","codes_postaux":["76450"],"code_dep":"76","code_region":"28","population":431,"surface_km2":9.04,"lat":49.8005,"lon":0.6851},{"code_insee":"76481","nom":"Octeville-sur-Mer","codes_postaux":["76930"],"code_dep":"76","code_region":"28","population":6172,"surface_km2":20.96,"lat":49.5593,"lon":0.1232},{"code_insee":"76482","nom":"Offranville","codes_postaux":["76550"],"code_dep":"76","code_region":"28","population":3242,"surface_km2":17.33,"lat":49.871,"lon":1.0334},{"code_insee":"76483","nom":"Oherville","codes_postaux":["76560"],"code_dep":"76","code_region":"28","population":253,"surface_km2":4.5,"lat":49.7245,"lon":0.6912},{"code_insee":"76484","nom":"Oissel","codes_postaux":["76350"],"code_dep":"76","code_region":"28","population":12317,"surface_km2":22.16,"lat":49.3457,"lon":1.0751},{"code_insee":"76485","nom":"Omonville","codes_postaux":["76730"],"code_dep":"76","code_region":"28","population":285,"surface_km2":2.86,"lat":49.7898,"lon":1.0479},{"code_insee":"76486","nom":"Orival","codes_postaux":["76500"],"code_dep":"76","code_region":"28","population":818,"surface_km2":9.56,"lat":49.315,"lon":1.0027},{"code_insee":"76487","nom":"Osmoy-Saint-Valery","codes_postaux":["76660"],"code_dep":"76","code_region":"28","population":312,"surface_km2":16.21,"lat":49.7963,"lon":1.301},{"code_insee":"76488","nom":"Ouainville","codes_postaux":["76450"],"code_dep":"76","code_region":"28","population":540,"surface_km2":7.09,"lat":49.7855,"lon":0.5836},{"code_insee":"76489","nom":"Oudalle","codes_postaux":["76430"],"code_dep":"76","code_region":"28","population":520,"surface_km2":9.86,"lat":49.4864,"lon":0.2832},{"code_insee":"76490","nom":"Ourville-en-Caux","codes_postaux":["76450"],"code_dep":"76","code_region":"28","population":1088,"surface_km2":10.21,"lat":49.7321,"lon":0.5976},{"code_insee":"76491","nom":"Ouville-l'Abbaye","codes_postaux":["76760"],"code_dep":"76","code_region":"28","population":649,"surface_km2":7.41,"lat":49.6913,"lon":0.8678},{"code_insee":"76492","nom":"Ouville-la-Rivière","codes_postaux":["76860"],"code_dep":"76","code_region":"28","population":452,"surface_km2":6.51,"lat":49.8737,"lon":0.982},{"code_insee":"76493","nom":"Paluel","codes_postaux":["76450"],"code_dep":"76","code_region":"28","population":406,"surface_km2":11.03,"lat":49.8426,"lon":0.6309},{"code_insee":"76494","nom":"Parc-d'Anxtot","codes_postaux":["76210"],"code_dep":"76","code_region":"28","population":587,"surface_km2":5.83,"lat":49.5833,"lon":0.3881},{"code_insee":"76495","nom":"Pavilly","codes_postaux":["76570"],"code_dep":"76","code_region":"28","population":6029,"surface_km2":14.28,"lat":49.5783,"lon":0.9491},{"code_insee":"76497","nom":"Petit-Couronne","codes_postaux":["76650"],"code_dep":"76","code_region":"28","population":8683,"surface_km2":12.77,"lat":49.3817,"lon":1.0342},{"code_insee":"76498","nom":"Le Petit-Quevilly","codes_postaux":["76140"],"code_dep":"76","code_region":"28","population":22208,"surface_km2":4.34,"lat":49.4238,"lon":1.0572},{"code_insee":"76499","nom":"Petiville","codes_postaux":["76330"],"code_dep":"76","code_region":"28","population":1211,"surface_km2":16.8,"lat":49.4542,"lon":0.5789},{"code_insee":"76500","nom":"Pierrecourt","codes_postaux":["76340"],"code_dep":"76","code_region":"28","population":474,"surface_km2":9.61,"lat":49.8857,"lon":1.6369},{"code_insee":"76501","nom":"Pierrefiques","codes_postaux":["76280"],"code_dep":"76","code_region":"28","population":128,"surface_km2":2.31,"lat":49.6753,"lon":0.2285},{"code_insee":"76502","nom":"Pierreval","codes_postaux":["76750"],"code_dep":"76","code_region":"28","population":524,"surface_km2":3.92,"lat":49.5398,"lon":1.2538},{"code_insee":"76503","nom":"Pissy-Pôville","codes_postaux":["76360"],"code_dep":"76","code_region":"28","population":1276,"surface_km2":11.3,"lat":49.5322,"lon":1.0029},{"code_insee":"76504","nom":"Pleine-Sève","codes_postaux":["76460"],"code_dep":"76","code_region":"28","population":133,"surface_km2":4.06,"lat":49.8184,"lon":0.7515},{"code_insee":"76505","nom":"Pommereux","codes_postaux":["76440"],"code_dep":"76","code_region":"28","population":94,"surface_km2":5.36,"lat":49.6112,"lon":1.6304},{"code_insee":"76506","nom":"Pommeréval","codes_postaux":["76680"],"code_dep":"76","code_region":"28","population":496,"surface_km2":7.63,"lat":49.7369,"lon":1.3021},{"code_insee":"76507","nom":"Ponts-et-Marais","codes_postaux":["76260"],"code_dep":"76","code_region":"28","population":783,"surface_km2":5.91,"lat":50.0386,"lon":1.4551},{"code_insee":"76508","nom":"La Poterie-Cap-d'Antifer","codes_postaux":["76280"],"code_dep":"76","code_region":"28","population":454,"surface_km2":5.83,"lat":49.6804,"lon":0.1798},{"code_insee":"76509","nom":"Préaux","codes_postaux":["76160"],"code_dep":"76","code_region":"28","population":1849,"surface_km2":19.14,"lat":49.489,"lon":1.2145},{"code_insee":"76510","nom":"Prétot-Vicquemare","codes_postaux":["76560"],"code_dep":"76","code_region":"28","population":228,"surface_km2":4.78,"lat":49.7342,"lon":0.847},{"code_insee":"76511","nom":"Preuseville","codes_postaux":["76660"],"code_dep":"76","code_region":"28","population":162,"surface_km2":9.14,"lat":49.8804,"lon":1.5047},{"code_insee":"76512","nom":"Puisenval","codes_postaux":["76660"],"code_dep":"76","code_region":"28","population":35,"surface_km2":4.92,"lat":49.8778,"lon":1.4625},{"code_insee":"76513","nom":"Quevillon","codes_postaux":["76840"],"code_dep":"76","code_region":"28","population":587,"surface_km2":10.76,"lat":49.4107,"lon":0.9581},{"code_insee":"76514","nom":"Quévreville-la-Poterie","codes_postaux":["76520"],"code_dep":"76","code_region":"28","population":1028,"surface_km2":4.72,"lat":49.3534,"lon":1.1881},{"code_insee":"76515","nom":"Quiberville-sur-Mer","codes_postaux":["76860"],"code_dep":"76","code_region":"28","population":542,"surface_km2":3.36,"lat":49.8966,"lon":0.9186},{"code_insee":"76516","nom":"Quièvrecourt","codes_postaux":["76270"],"code_dep":"76","code_region":"28","population":396,"surface_km2":4.02,"lat":49.7254,"lon":1.4172},{"code_insee":"76517","nom":"Quincampoix","codes_postaux":["76230"],"code_dep":"76","code_region":"28","population":3103,"surface_km2":20.58,"lat":49.5172,"lon":1.1738},{"code_insee":"76518","nom":"Raffetot","codes_postaux":["76210"],"code_dep":"76","code_region":"28","population":529,"surface_km2":6.86,"lat":49.6027,"lon":0.522},{"code_insee":"76519","nom":"Rainfreville","codes_postaux":["76730"],"code_dep":"76","code_region":"28","population":74,"surface_km2":2.58,"lat":49.7936,"lon":0.9238},{"code_insee":"76520","nom":"Réalcamp","codes_postaux":["76340"],"code_dep":"76","code_region":"28","population":594,"surface_km2":11.55,"lat":49.8644,"lon":1.6182},{"code_insee":"76521","nom":"Rebets","codes_postaux":["76750"],"code_dep":"76","code_region":"28","population":147,"surface_km2":3.7,"lat":49.5124,"lon":1.3957},{"code_insee":"76522","nom":"La Remuée","codes_postaux":["76430"],"code_dep":"76","code_region":"28","population":1277,"surface_km2":7.07,"lat":49.5271,"lon":0.41},{"code_insee":"76523","nom":"Rétonval","codes_postaux":["76340"],"code_dep":"76","code_region":"28","population":172,"surface_km2":5.65,"lat":49.8118,"lon":1.5943},{"code_insee":"76524","nom":"Reuville","codes_postaux":["76560"],"code_dep":"76","code_region":"28","population":152,"surface_km2":4.42,"lat":49.7469,"lon":0.8619},{"code_insee":"76526","nom":"Ricarville-du-Val","codes_postaux":["76510"],"code_dep":"76","code_region":"28","population":197,"surface_km2":5.67,"lat":49.7976,"lon":1.2702},{"code_insee":"76527","nom":"Richemont","codes_postaux":["76390"],"code_dep":"76","code_region":"28","population":445,"surface_km2":10.75,"lat":49.812,"lon":1.6434},{"code_insee":"76528","nom":"Rieux","codes_postaux":["76340"],"code_dep":"76","code_region":"28","population":583,"surface_km2":7.0,"lat":49.9231,"lon":1.5809},{"code_insee":"76529","nom":"Riville","codes_postaux":["76540"],"code_dep":"76","code_region":"28","population":313,"surface_km2":7.51,"lat":49.7248,"lon":0.5647},{"code_insee":"76530","nom":"Robertot","codes_postaux":["76560"],"code_dep":"76","code_region":"28","population":213,"surface_km2":2.47,"lat":49.7158,"lon":0.6961},{"code_insee":"76531","nom":"Rocquefort","codes_postaux":["76640"],"code_dep":"76","code_region":"28","population":318,"surface_km2":5.35,"lat":49.6675,"lon":0.7029},{"code_insee":"76532","nom":"Rocquemont","codes_postaux":["76680"],"code_dep":"76","code_region":"28","population":747,"surface_km2":12.32,"lat":49.609,"lon":1.2962},{"code_insee":"76533","nom":"Rogerville","codes_postaux":["76700"],"code_dep":"76","code_region":"28","population":1734,"surface_km2":9.71,"lat":49.4836,"lon":0.2642},{"code_insee":"76534","nom":"Rolleville","codes_postaux":["76133"],"code_dep":"76","code_region":"28","population":1209,"surface_km2":7.05,"lat":49.5781,"lon":0.2147},{"code_insee":"76535","nom":"Roncherolles-en-Bray","codes_postaux":["76440"],"code_dep":"76","code_region":"28","population":477,"surface_km2":14.54,"lat":49.6127,"lon":1.4793},{"code_insee":"76536","nom":"Roncherolles-sur-le-Vivier","codes_postaux":["76160"],"code_dep":"76","code_region":"28","population":1245,"surface_km2":5.37,"lat":49.4628,"lon":1.1828},{"code_insee":"76537","nom":"Ronchois","codes_postaux":["76390"],"code_dep":"76","code_region":"28","population":179,"surface_km2":8.71,"lat":49.7235,"lon":1.6234},{"code_insee":"76538","nom":"Rosay","codes_postaux":["76680"],"code_dep":"76","code_region":"28","population":258,"surface_km2":10.5,"lat":49.6975,"lon":1.2555},{"code_insee":"76540","nom":"Rouen","codes_postaux":["76000","76100"],"code_dep":"76","code_region":"28","population":117662,"surface_km2":21.38,"lat":49.4412,"lon":1.0912},{"code_insee":"76541","nom":"Roumare","codes_postaux":["76480"],"code_dep":"76","code_region":"28","population":1560,"surface_km2":9.98,"lat":49.5087,"lon":0.9625},{"code_insee":"76542","nom":"Routes","codes_postaux":["76560"],"code_dep":"76","code_region":"28","population":285,"surface_km2":4.42,"lat":49.7299,"lon":0.7505},{"code_insee":"76543","nom":"Rouville","codes_postaux":["76210"],"code_dep":"76","code_region":"28","population":613,"surface_km2":9.69,"lat":49.6275,"lon":0.4994},{"code_insee":"76544","nom":"Rouvray-Catillon","codes_postaux":["76440"],"code_dep":"76","code_region":"28","population":223,"surface_km2":12.31,"lat":49.5788,"lon":1.4784},{"code_insee":"76545","nom":"Rouxmesnil-Bouteilles","codes_postaux":["76370"],"code_dep":"76","code_region":"28","population":1798,"surface_km2":5.62,"lat":49.8987,"lon":1.102},{"code_insee":"76546","nom":"Royville","codes_postaux":["76730"],"code_dep":"76","code_region":"28","population":310,"surface_km2":4.42,"lat":49.7788,"lon":0.9531},{"code_insee":"76547","nom":"La Rue-Saint-Pierre","codes_postaux":["76690"],"code_dep":"76","code_region":"28","population":800,"surface_km2":7.74,"lat":49.565,"lon":1.2525},{"code_insee":"76548","nom":"Ry","codes_postaux":["76116"],"code_dep":"76","code_region":"28","population":787,"surface_km2":5.75,"lat":49.4736,"lon":1.3357},{"code_insee":"76549","nom":"Saâne-Saint-Just","codes_postaux":["76730"],"code_dep":"76","code_region":"28","population":134,"surface_km2":6.83,"lat":49.7545,"lon":0.9255},{"code_insee":"76550","nom":"Sahurs","codes_postaux":["76113"],"code_dep":"76","code_region":"28","population":1216,"surface_km2":11.14,"lat":49.3698,"lon":0.947},{"code_insee":"76551","nom":"Sainneville","codes_postaux":["76430"],"code_dep":"76","code_region":"28","population":891,"surface_km2":7.04,"lat":49.5529,"lon":0.2968},{"code_insee":"76552","nom":"Sainte-Adresse","codes_postaux":["76310"],"code_dep":"76","code_region":"28","population":7004,"surface_km2":2.32,"lat":49.5099,"lon":0.0789},{"code_insee":"76553","nom":"Sainte-Agathe-d'Aliermont","codes_postaux":["76660"],"code_dep":"76","code_region":"28","population":304,"surface_km2":7.93,"lat":49.8288,"lon":1.3393},{"code_insee":"76554","nom":"Saint-Aignan-sur-Ry","codes_postaux":["76116"],"code_dep":"76","code_region":"28","population":341,"surface_km2":7.93,"lat":49.4976,"lon":1.3488},{"code_insee":"76555","nom":"Saint-André-sur-Cailly","codes_postaux":["76690"],"code_dep":"76","code_region":"28","population":789,"surface_km2":12.28,"lat":49.5511,"lon":1.2217},{"code_insee":"76556","nom":"Saint-Antoine-la-Forêt","codes_postaux":["76170"],"code_dep":"76","code_region":"28","population":1105,"surface_km2":6.41,"lat":49.5402,"lon":0.4892},{"code_insee":"76557","nom":"Saint-Arnoult","codes_postaux":["76490"],"code_dep":"76","code_region":"28","population":1446,"surface_km2":13.92,"lat":49.537,"lon":0.6669},{"code_insee":"76558","nom":"Saint-Aubin-Celloville","codes_postaux":["76520"],"code_dep":"76","code_region":"28","population":1173,"surface_km2":6.7,"lat":49.3733,"lon":1.161},{"code_insee":"76559","nom":"Saint-Aubin-de-Crétot","codes_postaux":["76190"],"code_dep":"76","code_region":"28","population":524,"surface_km2":4.74,"lat":49.5708,"lon":0.6336},{"code_insee":"76560","nom":"Saint-Aubin-Épinay","codes_postaux":["76160"],"code_dep":"76","code_region":"28","population":1021,"surface_km2":9.77,"lat":49.4162,"lon":1.2},{"code_insee":"76561","nom":"Saint-Aubin-lès-Elbeuf","codes_postaux":["76410"],"code_dep":"76","code_region":"28","population":8443,"surface_km2":5.81,"lat":49.3058,"lon":1.0211},{"code_insee":"76562","nom":"Saint-Aubin-le-Cauf","codes_postaux":["76510"],"code_dep":"76","code_region":"28","population":843,"surface_km2":10.0,"lat":49.8663,"lon":1.1723},{"code_insee":"76563","nom":"Saint-Aubin-Routot","codes_postaux":["76430"],"code_dep":"76","code_region":"28","population":1972,"surface_km2":6.84,"lat":49.5235,"lon":0.3139},{"code_insee":"76564","nom":"Saint-Aubin-sur-Mer","codes_postaux":["76740"],"code_dep":"76","code_region":"28","population":181,"surface_km2":6.19,"lat":49.8881,"lon":0.8759},{"code_insee":"76565","nom":"Saint-Aubin-sur-Scie","codes_postaux":["76550"],"code_dep":"76","code_region":"28","population":1219,"surface_km2":7.81,"lat":49.8855,"lon":1.0802},{"code_insee":"76566","nom":"Sainte-Austreberthe","codes_postaux":["76570"],"code_dep":"76","code_region":"28","population":662,"surface_km2":6.14,"lat":49.6026,"lon":0.9757},{"code_insee":"76567","nom":"Sainte-Beuve-en-Rivière","codes_postaux":["76270"],"code_dep":"76","code_region":"28","population":175,"surface_km2":11.63,"lat":49.7596,"lon":1.5259},{"code_insee":"76568","nom":"Saint-Clair-sur-les-Monts","codes_postaux":["76190"],"code_dep":"76","code_region":"28","population":660,"surface_km2":4.06,"lat":49.6023,"lon":0.7813},{"code_insee":"76569","nom":"Sainte-Colombe","codes_postaux":["76460"],"code_dep":"76","code_region":"28","population":223,"surface_km2":5.8,"lat":49.7956,"lon":0.7626},{"code_insee":"76570","nom":"Saint-Crespin","codes_postaux":["76590"],"code_dep":"76","code_region":"28","population":306,"surface_km2":6.48,"lat":49.7734,"lon":1.1089},{"code_insee":"76571","nom":"Sainte-Croix-sur-Buchy","codes_postaux":["76750"],"code_dep":"76","code_region":"28","population":661,"surface_km2":13.73,"lat":49.5625,"lon":1.3458},{"code_insee":"76572","nom":"Saint-Denis-d'Aclon","codes_postaux":["76860"],"code_dep":"76","code_region":"28","population":130,"surface_km2":2.41,"lat":49.8646,"lon":0.9419},{"code_insee":"76573","nom":"Saint-Denis-le-Thiboult","codes_postaux":["76116"],"code_dep":"76","code_region":"28","population":502,"surface_km2":10.38,"lat":49.4601,"lon":1.3545},{"code_insee":"76574","nom":"Saint-Denis-sur-Scie","codes_postaux":["76890"],"code_dep":"76","code_region":"28","population":644,"surface_km2":8.55,"lat":49.7022,"lon":1.0891},{"code_insee":"76575","nom":"Saint-Étienne-du-Rouvray","codes_postaux":["76800"],"code_dep":"76","code_region":"28","population":29518,"surface_km2":18.28,"lat":49.3833,"lon":1.0909},{"code_insee":"76576","nom":"Saint-Eustache-la-Forêt","codes_postaux":["76210"],"code_dep":"76","code_region":"28","population":1194,"surface_km2":6.58,"lat":49.5535,"lon":0.4494},{"code_insee":"76577","nom":"Sainte-Foy","codes_postaux":["76590"],"code_dep":"76","code_region":"28","population":622,"surface_km2":6.79,"lat":49.7987,"lon":1.1414},{"code_insee":"76578","nom":"Sainte-Geneviève","codes_postaux":["76440"],"code_dep":"76","code_region":"28","population":255,"surface_km2":14.24,"lat":49.6573,"lon":1.4232},{"code_insee":"76580","nom":"Saint-Georges-sur-Fontaine","codes_postaux":["76690"],"code_dep":"76","code_region":"28","population":950,"surface_km2":9.19,"lat":49.5469,"lon":1.1759},{"code_insee":"76581","nom":"Saint-Germain-des-Essourts","codes_postaux":["76750"],"code_dep":"76","code_region":"28","population":380,"surface_km2":9.27,"lat":49.5368,"lon":1.3158},{"code_insee":"76582","nom":"Saint-Germain-d'Étables","codes_postaux":["76590"],"code_dep":"76","code_region":"28","population":240,"surface_km2":7.17,"lat":49.8373,"lon":1.1861},{"code_insee":"76583","nom":"Saint-Germain-sous-Cailly","codes_postaux":["76690"],"code_dep":"76","code_region":"28","population":305,"surface_km2":4.03,"lat":49.5809,"lon":1.2108},{"code_insee":"76584","nom":"Saint-Germain-sur-Eaulne","codes_postaux":["76270"],"code_dep":"76","code_region":"28","population":229,"surface_km2":8.74,"lat":49.7654,"lon":1.5134},{"code_insee":"76585","nom":"Saint-Gilles-de-Crétot","codes_postaux":["76490"],"code_dep":"76","code_region":"28","population":377,"surface_km2":5.98,"lat":49.5592,"lon":0.6523},{"code_insee":"76586","nom":"Saint-Gilles-de-la-Neuville","codes_postaux":["76430"],"code_dep":"76","code_region":"28","population":666,"surface_km2":7.16,"lat":49.5722,"lon":0.3716},{"code_insee":"76587","nom":"Sainte-Hélène-Bondeville","codes_postaux":["76400"],"code_dep":"76","code_region":"28","population":681,"surface_km2":6.93,"lat":49.7702,"lon":0.4579},{"code_insee":"76588","nom":"Saint-Hellier","codes_postaux":["76680"],"code_dep":"76","code_region":"28","population":521,"surface_km2":14.15,"lat":49.7368,"lon":1.2005},{"code_insee":"76589","nom":"Saint-Honoré","codes_postaux":["76590"],"code_dep":"76","code_region":"28","population":197,"surface_km2":3.08,"lat":49.7829,"lon":1.1556},{"code_insee":"76590","nom":"Saint-Jacques-d'Aliermont","codes_postaux":["76510"],"code_dep":"76","code_region":"28","population":373,"surface_km2":7.8,"lat":49.8478,"lon":1.2491},{"code_insee":"76591","nom":"Saint-Jacques-sur-Darnétal","codes_postaux":["76160"],"code_dep":"76","code_region":"28","population":3117,"surface_km2":16.72,"lat":49.4485,"lon":1.207},{"code_insee":"76592","nom":"Saint-Jean-de-Folleville","codes_postaux":["76170"],"code_dep":"76","code_region":"28","population":785,"surface_km2":13.75,"lat":49.5048,"lon":0.4993},{"code_insee":"76593","nom":"Saint-Jean-de-la-Neuville","codes_postaux":["76210"],"code_dep":"76","code_region":"28","population":665,"surface_km2":8.03,"lat":49.576,"lon":0.4273},{"code_insee":"76594","nom":"Saint-Jean-du-Cardonnay","codes_postaux":["76150"],"code_dep":"76","code_region":"28","population":1356,"surface_km2":7.51,"lat":49.5,"lon":1.0084},{"code_insee":"76595","nom":"Saint-Jouin-Bruneval","codes_postaux":["76280"],"code_dep":"76","code_region":"28","population":1816,"surface_km2":20.0,"lat":49.6375,"lon":0.1689},{"code_insee":"76596","nom":"Saint-Laurent-de-Brèvedent","codes_postaux":["76700"],"code_dep":"76","code_region":"28","population":1496,"surface_km2":7.86,"lat":49.5338,"lon":0.2698},{"code_insee":"76597","nom":"Saint-Laurent-en-Caux","codes_postaux":["76560"],"code_dep":"76","code_region":"28","population":708,"surface_km2":6.53,"lat":49.744,"lon":0.8843},{"code_insee":"76598","nom":"Saint-Léger-aux-Bois","codes_postaux":["76340"],"code_dep":"76","code_region":"28","population":474,"surface_km2":11.19,"lat":49.823,"lon":1.6144},{"code_insee":"76599","nom":"Saint-Léger-du-Bourg-Denis","codes_postaux":["76160"],"code_dep":"76","code_region":"28","population":3633,"surface_km2":2.83,"lat":49.4288,"lon":1.1633},{"code_insee":"76600","nom":"Saint-Léonard","codes_postaux":["76400"],"code_dep":"76","code_region":"28","population":1693,"surface_km2":11.83,"lat":49.7323,"lon":0.3363},{"code_insee":"76601","nom":"Saint-Lucien","codes_postaux":["76780"],"code_dep":"76","code_region":"28","population":234,"surface_km2":9.11,"lat":49.505,"lon":1.4504},{"code_insee":"76602","nom":"Saint-Maclou-de-Folleville","codes_postaux":["76890"],"code_dep":"76","code_region":"28","population":604,"surface_km2":13.15,"lat":49.6779,"lon":1.0885},{"code_insee":"76603","nom":"Saint-Maclou-la-Brière","codes_postaux":["76110"],"code_dep":"76","code_region":"28","population":476,"surface_km2":4.96,"lat":49.6491,"lon":0.4697},{"code_insee":"76604","nom":"Saint-Mards","codes_postaux":["76730"],"code_dep":"76","code_region":"28","population":179,"surface_km2":6.59,"lat":49.761,"lon":1.0165},{"code_insee":"76605","nom":"Sainte-Marguerite-sur-Mer","codes_postaux":["76119"],"code_dep":"76","code_region":"28","population":473,"surface_km2":5.69,"lat":49.9072,"lon":0.9521},{"code_insee":"76606","nom":"Morienne","codes_postaux":["76390"],"code_dep":"76","code_region":"28","population":187,"surface_km2":8.95,"lat":49.7837,"lon":1.7213},{"code_insee":"76608","nom":"Sainte-Marguerite-sur-Duclair","codes_postaux":["76480"],"code_dep":"76","code_region":"28","population":2020,"surface_km2":7.32,"lat":49.5155,"lon":0.8252},{"code_insee":"76609","nom":"Sainte-Marie-au-Bosc","codes_postaux":["76280"],"code_dep":"76","code_region":"28","population":350,"surface_km2":3.22,"lat":49.6649,"lon":0.2045},{"code_insee":"76610","nom":"Sainte-Marie-des-Champs","codes_postaux":["76190"],"code_dep":"76","code_region":"28","population":1562,"surface_km2":4.11,"lat":49.6255,"lon":0.7758},{"code_insee":"76611","nom":"Saint-Martin-aux-Arbres","codes_postaux":["76760"],"code_dep":"76","code_region":"28","population":297,"surface_km2":5.17,"lat":49.6496,"lon":0.8917},{"code_insee":"76612","nom":"Saint-Martin-au-Bosc","codes_postaux":["76340"],"code_dep":"76","code_region":"28","population":261,"surface_km2":7.16,"lat":49.8318,"lon":1.6686},{"code_insee":"76613","nom":"Saint-Martin-aux-Buneaux","codes_postaux":["76450","76540"],"code_dep":"76","code_region":"28","population":633,"surface_km2":8.23,"lat":49.828,"lon":0.5497},{"code_insee":"76614","nom":"Saint-Martin-de-Boscherville","codes_postaux":["76840"],"code_dep":"76","code_region":"28","population":1515,"surface_km2":12.58,"lat":49.4473,"lon":0.9632},{"code_insee":"76615","nom":"Saint-Martin-du-Bec","codes_postaux":["76133"],"code_dep":"76","code_region":"28","population":650,"surface_km2":4.05,"lat":49.5991,"lon":0.205},{"code_insee":"76616","nom":"Saint-Martin-du-Manoir","codes_postaux":["76290"],"code_dep":"76","code_region":"28","population":1555,"surface_km2":5.15,"lat":49.5389,"lon":0.2332},{"code_insee":"76617","nom":"Saint-Martin-du-Vivier","codes_postaux":["76160"],"code_dep":"76","code_region":"28","population":1674,"surface_km2":5.02,"lat":49.4719,"lon":1.1551},{"code_insee":"76618","nom":"Petit-Caux","codes_postaux":["76370","76630","76910"],"code_dep":"76","code_region":"28","population":9513,"surface_km2":92.19,"lat":49.9612,"lon":1.2343},{"code_insee":"76619","nom":"Saint-Martin-le-Gaillard","codes_postaux":["76260"],"code_dep":"76","code_region":"28","population":295,"surface_km2":17.69,"lat":49.9712,"lon":1.3705},{"code_insee":"76620","nom":"Saint-Martin-l'Hortier","codes_postaux":["76270"],"code_dep":"76","code_region":"28","population":272,"surface_km2":5.82,"lat":49.7461,"lon":1.4008},{"code_insee":"76621","nom":"Saint-Martin-Osmonville","codes_postaux":["76680"],"code_dep":"76","code_region":"28","population":1153,"surface_km2":21.27,"lat":49.643,"lon":1.3039},{"code_insee":"76622","nom":"Saint-Maurice-d'Ételan","codes_postaux":["76330"],"code_dep":"76","code_region":"28","population":284,"surface_km2":14.13,"lat":49.4606,"lon":0.6308},{"code_insee":"76623","nom":"Saint-Michel-d'Halescourt","codes_postaux":["76440"],"code_dep":"76","code_region":"28","population":119,"surface_km2":4.91,"lat":49.6106,"lon":1.6587},{"code_insee":"76624","nom":"Saint-Nicolas-d'Aliermont","codes_postaux":["76510"],"code_dep":"76","code_region":"28","population":3665,"surface_km2":15.53,"lat":49.8754,"lon":1.2412},