[{"code_insee":"90001","nom":"Andelnans","codes_postaux":["90400"],"code_dep":"90","code_region":"27","population":1093,"surface_km2":4.19,"lat":47.6017,"lon":6.8628,"fibre_pct":92.6},{"code_insee":"90002","nom":"Angeot","codes_postaux":["90150"],"code_dep":"90","code_region":"27","population":354,"surface_km2":6.63,"lat":47.6958,"lon":7.0032,"fibre_pct":98.0},{"code_insee":"90003","nom":"Anjoutey","codes_postaux":["90170"],"code_dep":"90","code_region":"27","population":611,"surface_km2":7.73,"lat":47.7055,"lon":6.9227,"fibre_pct":91.7},{"code_insee":"90004","nom":"Argiésans","codes_postaux":["90800"],"code_dep":"90","code_region":"27","population":607,"surface_km2":2.8,"lat":47.6072,"lon":6.8207,"fibre_pct":95.0},{"code_insee":"90005","nom":"Auxelles-Bas","codes_postaux":["90200"],"code_dep":"90","code_region":"27","population":417,"surface_km2":9.31,"lat":47.7274,"lon":6.7846,"fibre_pct":100.0},{"code_insee":"90006","nom":"Auxelles-Haut","codes_postaux":["90200"],"code_dep":"90","code_region":"27","population":287,"surface_km2":6.48,"lat":47.7529,"lon":6.7813,"fibre_pct":96.8},{"code_insee":"90007","nom":"Banvillars","codes_postaux":["90800"],"code_dep":"90","code_region":"27","population":289,"surface_km2":4.63,"lat":47.5881,"lon":6.8127,"fibre_pct":100.0},{"code_insee":"90008","nom":"Bavilliers","codes_postaux":["90800"],"code_dep":"90","code_region":"27","population":4678,"surface_km2":4.76,"lat":47.6214,"lon":6.8275,"fibre_pct":97.3},{"code_insee":"90009","nom":"Beaucourt","codes_postaux":["90500"],"code_dep":"90","code_region":"27","population":4966,"surface_km2":4.91,"lat":47.4868,"lon":6.9251,"fibre_pct":90.6},{"code_insee":"90010","nom":"Belfort","codes_postaux":["90000"],"code_dep":"90","code_region":"27","population":45912,"surface_km2":17.28,"lat":47.6458,"lon":6.841,"fibre_pct":92.4},{"code_insee":"90011","nom":"Bermont","codes_postaux":["90400"],"code_dep":"90","code_region":"27","population":358,"surface_km2":2.84,"lat":47.5757,"lon":6.8416,"fibre_pct":100.0},{"code_insee":"90012","nom":"Bessoncourt","codes_postaux":["90160"],"code_dep":"90","code_region":"27","population":1309,"surface_km2":7.92,"lat":47.6458,"lon":6.9417,"fibre_pct":83.8},{"code_insee":"90013","nom":"Bethonvilliers","codes_postaux":["90150"],"code_dep":"90","code_region":"27","population":232,"surface_km2":1.94,"lat":47.6805,"lon":6.9672,"fibre_pct":90.1},{"code_insee":"90014","nom":"Boron","codes_postaux":["90100"],"code_dep":"90","code_region":"27","population":484,"surface_km2":6.09,"lat":47.5556,"lon":7.016,"fibre_pct":94.1},{"code_insee":"90015","nom":"Botans","codes_postaux":["90400"],"code_dep":"90","code_region":"27","population":249,"surface_km2":2.29,"lat":47.5955,"lon":6.8502,"fibre_pct":87.9},{"code_insee":"90016","nom":"Bourg-sous-Châtelet","codes_postaux":["90110"],"code_dep":"90","code_region":"27","population":115,"surface_km2":0.85,"lat":47.7068,"lon":6.948,"fibre_pct":98.4},{"code_insee":"90017","nom":"Bourogne","codes_postaux":["90140"],"code_dep":"90","code_region":"27","population":1741,"surface_km2":13.57,"lat":47.5623,"lon":6.9063,"fibre_pct":92.0},{"code_insee":"90018","nom":"Brebotte","codes_postaux":["90140"],"code_dep":"90","code_region":"27","population":353,"surface_km2":3.78,"lat":47.5769,"lon":6.9754,"fibre_pct":99.0},{"code_insee":"90019","nom":"Bretagne","codes_postaux":["90130"],"code_dep":"90","code_region":"27","population":319,"surface_km2":4.68,"lat":47.5909,"lon":6.9972,"fibre_pct":93.8},{"code_insee":"90020","nom":"Buc","codes_postaux":["90800"],"code_dep":"90","code_region":"27","population":244,"surface_km2":2.46,"lat":47.616,"lon":6.7886,"fibre_pct":100.0},{"code_insee":"90021","nom":"Charmois","codes_postaux":["90140"],"code_dep":"90","code_region":"27","population":369,"surface_km2":4.21,"lat":47.5795,"lon":6.9403,"fibre_pct":99.4},{"code_insee":"90022","nom":"Châtenois-les-Forges","codes_postaux":["90700"],"code_dep":"90","code_region":"27","population":2608,"surface_km2":8.73,"lat":47.5602,"lon":6.834,"fibre_pct":90.9},{"code_insee":"90023","nom":"Chaux","codes_postaux":["90330"],"code_dep":"90","code_region":"27","population":1184,"surface_km2":9.44,"lat":47.7141,"lon":6.8386,"fibre_pct":96.4},{"code_insee":"90024","nom":"Chavanatte","codes_postaux":["90100"],"code_dep":"90","code_region":"27","population":130,"surface_km2":3.81,"lat":47.5815,"lon":7.0706,"fibre_pct":99.1},{"code_insee":"90025","nom":"Chavannes-les-Grands","codes_postaux":["90100"],"code_dep":"90","code_region":"27","population":345,"surface_km2":6.91,"lat":47.5889,"lon":7.0519,"fibre_pct":96.0},{"code_insee":"90026","nom":"Chèvremont","codes_postaux":["90340"],"code_dep":"90","code_region":"27","population":1539,"surface_km2":8.78,"lat":47.6268,"lon":6.9303,"fibre_pct":90.9},{"code_insee":"90027","nom":"Courcelles","codes_postaux":["90100"],"code_dep":"90","code_region":"27","population":132,"surface_km2":5.35,"lat":47.4983,"lon":7.0668,"fibre_pct":100.0},{"code_insee":"90028","nom":"Courtelevant","codes_postaux":["90100"],"code_dep":"90","code_region":"27","population":379,"surface_km2":5.86,"lat":47.5262,"lon":7.0846,"fibre_pct":92.9},{"code_insee":"90029","nom":"Cravanche","codes_postaux":["90300"],"code_dep":"90","code_region":"27","population":1942,"surface_km2":1.19,"lat":47.653,"lon":6.8238,"fibre_pct":96.8},{"code_insee":"90030","nom":"Croix","codes_postaux":["90100"],"code_dep":"90","code_region":"27","population":180,"surface_km2":5.5,"lat":47.4447,"lon":6.9518,"fibre_pct":100.0},{"code_insee":"90031","nom":"Cunelières","codes_postaux":["90150"],"code_dep":"90","code_region":"27","population":341,"surface_km2":2.02,"lat":47.6256,"lon":6.9928,"fibre_pct":100.0},{"code_insee":"90032","nom":"Danjoutin","codes_postaux":["90400"],"code_dep":"90","code_region":"27","population":3519,"surface_km2":5.62,"lat":47.6187,"lon":6.8647,"fibre_pct":91.2},{"code_insee":"90033","nom":"Delle","codes_postaux":["90100"],"code_dep":"90","code_region":"27","population":5623,"surface_km2":9.3,"lat":47.509,"lon":6.996,"fibre_pct":85.0},{"code_insee":"90034","nom":"Denney","codes_postaux":["90160"],"code_dep":"90","code_region":"27","population":763,"surface_km2":3.58,"lat":47.6549,"lon":6.9054,"fibre_pct":97.4},{"code_insee":"90035","nom":"Dorans","codes_postaux":["90400"],"code_dep":"90","code_region":"27","population":824,"surface_km2":3.82,"lat":47.5865,"lon":6.8398,"fibre_pct":100.0},{"code_insee":"90036","nom":"Eguenigue","codes_postaux":["90150"],"code_dep":"90","code_region":"27","population":272,"surface_km2":2.5,"lat":47.6785,"lon":6.9351,"fibre_pct":97.5},{"code_insee":"90037","nom":"Éloie","codes_postaux":["90300"],"code_dep":"90","code_region":"27","population":952,"surface_km2":5.54,"lat":47.687,"lon":6.873,"fibre_pct":99.1},{"code_insee":"90039","nom":"Essert","codes_postaux":["90850"],"code_dep":"90","code_region":"27","population":3417,"surface_km2":7.12,"lat":47.6382,"lon":6.8127,"fibre_pct":96.6},{"code_insee":"90041","nom":"Étueffont","codes_postaux":["90170"],"code_dep":"90","code_region":"27","population":1393,"surface_km2":12.64,"lat":47.7248,"lon":6.9171,"fibre_pct":86.0},{"code_insee":"90042","nom":"Évette-Salbert","codes_postaux":["90350"],"code_dep":"90","code_region":"27","population":2029,"surface_km2":9.17,"lat":47.6693,"lon":6.8034,"fibre_pct":99.6},{"code_insee":"90043","nom":"Faverois","codes_postaux":["90100"],"code_dep":"90","code_region":"27","population":593,"surface_km2":6.52,"lat":47.5291,"lon":7.0364,"fibre_pct":100.0},{"code_insee":"90044","nom":"Felon","codes_postaux":["90110"],"code_dep":"90","code_region":"27","population":222,"surface_km2":4.1,"lat":47.7061,"lon":6.979,"fibre_pct":93.6},{"code_insee":"90045","nom":"Fêche-l'Église","codes_postaux":["90100"],"code_dep":"90","code_region":"27","population":702,"surface_km2":3.96,"lat":47.5008,"lon":6.9573,"fibre_pct":97.0},{"code_insee":"90046","nom":"Florimont","codes_postaux":["90100"],"code_dep":"90","code_region":"27","population":473,"surface_km2":18.29,"lat":47.5408,"lon":7.0519,"fibre_pct":83.7},{"code_insee":"90047","nom":"Fontaine","codes_postaux":["90150"],"code_dep":"90","code_region":"27","population":605,"surface_km2":6.95,"lat":47.6567,"lon":6.997,"fibre_pct":89.3},{"code_insee":"90048","nom":"Fontenelle","codes_postaux":["90340"],"code_dep":"90","code_region":"27","population":135,"surface_km2":1.75,"lat":47.6207,"lon":6.9564,"fibre_pct":100.0},{"code_insee":"90049","nom":"Foussemagne","codes_postaux":["90150"],"code_dep":"90","code_region":"27","population":869,"surface_km2":5.07,"lat":47.6389,"lon":6.9959,"fibre_pct":99.2},{"code_insee":"90050","nom":"Frais","codes_postaux":["90150"],"code_dep":"90","code_region":"27","population":249,"surface_km2":2.82,"lat":47.646,"lon":6.9823,"fibre_pct":95.8},{"code_insee":"90051","nom":"Froidefontaine","codes_postaux":["90140"],"code_dep":"90","code_region":"27","population":433,"surface_km2":4.53,"lat":47.5684,"lon":6.9594,"fibre_pct":90.4},{"code_insee":"90052","nom":"Giromagny","codes_postaux":["90200"],"code_dep":"90","code_region":"27","population":2907,"surface_km2":5.72,"lat":47.7425,"lon":6.8198,"fibre_pct":88.6},{"code_insee":"90053","nom":"Grandvillars","codes_postaux":["90600"],"code_dep":"90","code_region":"27","population":2947,"surface_km2":15.28,"lat":47.5378,"lon":6.9754,"fibre_pct":88.5},{"code_insee":"90054","nom":"Grosmagny","codes_postaux":["90200"],"code_dep":"90","code_region":"27","population":569,"surface_km2":8.89,"lat":47.7226,"lon":6.8787,"fibre_pct":92.4},{"code_insee":"90055","nom":"Grosne","codes_postaux":["90100"],"code_dep":"90","code_region":"27","population":321,"surface_km2":3.64,"lat":47.5717,"lon":6.994,"fibre_pct":100.0},{"code_insee":"90056","nom":"Joncherey","codes_postaux":["90100"],"code_dep":"90","code_region":"27","population":1451,"surface_km2":5.32,"lat":47.5322,"lon":7.008,"fibre_pct":99.4},{"code_insee":"90057","nom":"Lachapelle-sous-Chaux","codes_postaux":["90300"],"code_dep":"90","code_region":"27","population":745,"surface_km2":10.95,"lat":47.706,"lon":6.7995,"fibre_pct":94.9},{"code_insee":"90058","nom":"Lachapelle-sous-Rougemont","codes_postaux":["90360"],"code_dep":"90","code_region":"27","population":539,"surface_km2":4.98,"lat":47.7152,"lon":7.0149,"fibre_pct":81.0},{"code_insee":"90059","nom":"Lacollonge","codes_postaux":["90150"],"code_dep":"90","code_region":"27","population":234,"surface_km2":1.93,"lat":47.6624,"lon":6.9577,"fibre_pct":100.0},{"code_insee":"90060","nom":"Lagrange","codes_postaux":["90150"],"code_dep":"90","code_region":"27","population":144,"surface_km2":0.92,"lat":47.6844,"lon":6.9767,"fibre_pct":100.0},{"code_insee":"90061","nom":"Lamadeleine-Val-des-Anges","codes_postaux":["90170"],"code_dep":"90","code_region":"27","population":46,"surface_km2":6.44,"lat":47.762,"lon":6.9067,"fibre_pct":90.8},{"code_insee":"90062","nom":"Larivière","codes_postaux":["90150"],"code_dep":"90","code_region":"27","population":282,"surface_km2":4.79,"lat":47.6782,"lon":6.9962,"fibre_pct":80.5},{"code_insee":"90063","nom":"Lebetain","codes_postaux":["90100"],"code_dep":"90","code_region":"27","population":422,"surface_km2":4.92,"lat":47.4855,"lon":6.9705,"fibre_pct":99.5},{"code_insee":"90064","nom":"Lepuix-Neuf","codes_postaux":["90100"],"code_dep":"90","code_region":"27","population":307,"surface_km2":5.48,"lat":47.542,"lon":7.1071,"fibre_pct":94.8},{"code_insee":"90065","nom":"Lepuix","codes_postaux":["90200"],"code_dep":"90","code_region":"27","population":1115,"surface_km2":28.4,"lat":47.7858,"lon":6.82,"fibre_pct":87.6},{"code_insee":"90066","nom":"Leval","codes_postaux":["90110"],"code_dep":"90","code_region":"27","population":250,"surface_km2":6.11,"lat":47.7324,"lon":6.9945,"fibre_pct":83.8},{"code_insee":"90067","nom":"Menoncourt","codes_postaux":["90150"],"code_dep":"90","code_region":"27","population":391,"surface_km2":4.71,"lat":47.6804,"lon":6.954,"fibre_pct":89.3},{"code_insee":"90068","nom":"Meroux-Moval","codes_postaux":["90400"],"code_dep":"90","code_region":"27","population":1440,"surface_km2":10.04,"lat":47.5945,"lon":6.9136,"fibre_pct":96.8},{"code_insee":"90069","nom":"Méziré","codes_postaux":["90120"],"code_dep":"90","code_region":"27","population":1255,"surface_km2":3.95,"lat":47.5318,"lon":6.9239,"fibre_pct":99.3},{"code_insee":"90070","nom":"Montbouton","codes_postaux":["90500"],"code_dep":"90","code_region":"27","population":422,"surface_km2":2.84,"lat":47.467,"lon":6.9235,"fibre_pct":100.0},{"code_insee":"90071","nom":"Montreux-Château","codes_postaux":["90130"],"code_dep":"90","code_region":"27","population":1180,"surface_km2":4.64,"lat":47.6089,"lon":6.9941,"fibre_pct":89.0},{"code_insee":"90072","nom":"Morvillars","codes_postaux":["90120"],"code_dep":"90","code_region":"27","population":1113,"surface_km2":5.63,"lat":47.5398,"lon":6.9353,"fibre_pct":89.1},{"code_insee":"90074","nom":"Novillard","codes_postaux":["90340"],"code_dep":"90","code_region":"27","population":300,"surface_km2":3.84,"lat":47.6047,"lon":6.9622,"fibre_pct":94.9},{"code_insee":"90075","nom":"Offemont","codes_postaux":["90300"],"code_dep":"90","code_region":"27","population":4051,"surface_km2":5.53,"lat":47.6639,"lon":6.8734,"fibre_pct":98.4},{"code_insee":"90076","nom":"Pérouse","codes_postaux":["90160"],"code_dep":"90","code_region":"27","population":1196,"surface_km2":4.88,"lat":47.6363,"lon":6.8925,"fibre_pct":99.8},{"code_insee":"90077","nom":"Petit-Croix","codes_postaux":["90130"],"code_dep":"90","code_region":"27","population":308,"surface_km2":3.83,"lat":47.6218,"lon":6.9751,"fibre_pct":96.0},{"code_insee":"90078","nom":"Petitefontaine","codes_postaux":["90360"],"code_dep":"90","code_region":"27","population":193,"surface_km2":3.16,"lat":47.7245,"lon":7.0071,"fibre_pct":100.0},{"code_insee":"90079","nom":"Petitmagny","codes_postaux":["90170"],"code_dep":"90","code_region":"27","population":315,"surface_km2":2.22,"lat":47.7257,"lon":6.9003,"fibre_pct":87.2},{"code_insee":"90080","nom":"Phaffans","codes_postaux":["90150"],"code_dep":"90","code_region":"27","population":432,"surface_km2":3.24,"lat":47.6593,"lon":6.9476,"fibre_pct":100.0},{"code_insee":"90081","nom":"Réchésy","codes_postaux":["90370"],"code_dep":"90","code_region":"27","population":764,"surface_km2":12.65,"lat":47.5169,"lon":7.1175,"fibre_pct":97.4},{"code_insee":"90082","nom":"Autrechêne","codes_postaux":["90140"],"code_dep":"90","code_region":"27","population":281,"surface_km2":2.99,"lat":47.5911,"lon":6.9626,"fibre_pct":100.0},{"code_insee":"90083","nom":"Recouvrance","codes_postaux":["90140"],"code_dep":"90","code_region":"27","population":147,"surface_km2":1.5,"lat":47.5718,"lon":6.977,"fibre_pct":96.0},{"code_insee":"90084","nom":"Reppe","codes_postaux":["90150"],"code_dep":"90","code_region":"27","population":322,"surface_km2":3.89,"lat":47.6623,"lon":7.0279,"fibre_pct":99.4},{"code_insee":"90085","nom":"Riervescemont","codes_postaux":["90200"],"code_dep":"90","code_region":"27","population":83,"surface_km2":8.54,"lat":47.7697,"lon":6.8805,"fibre_pct":80.1},{"code_insee":"90086","nom":"Romagny-sous-Rougemont","codes_postaux":["90110"],"code_dep":"90","code_region":"27","population":213,"surface_km2":2.52,"lat":47.7191,"lon":6.9658,"fibre_pct":73.0},{"code_insee":"90087","nom":"Roppe","codes_postaux":["90380"],"code_dep":"90","code_region":"27","population":1041,"surface_km2":7.52,"lat":47.6773,"lon":6.9073,"fibre_pct":92.1},{"code_insee":"90088","nom":"Rougegoutte","codes_postaux":["90200"],"code_dep":"90","code_region":"27","population":987,"surface_km2":8.39,"lat":47.7335,"lon":6.861,"fibre_pct":93.8},{"code_insee":"90089","nom":"Rougemont-le-Château","codes_postaux":["90110"],"code_dep":"90","code_region":"27","population":1487,"surface_km2":16.78,"lat":47.7468,"lon":6.96,"fibre_pct":87.8},{"code_insee":"90090","nom":"Saint-Dizier-l'Évêque","codes_postaux":["90100"],"code_dep":"90","code_region":"27","population":427,"surface_km2":10.91,"lat":47.4683,"lon":6.9642,"fibre_pct":96.2},{"code_insee":"90091","nom":"Saint-Germain-le-Châtelet","codes_postaux":["90110"],"code_dep":"90","code_region":"27","population":654,"surface_km2":3.39,"lat":47.7035,"lon":6.9637,"fibre_pct":99.7},{"code_insee":"90093","nom":"Sermamagny","codes_postaux":["90300"],"code_dep":"90","code_region":"27","population":929,"surface_km2":8.02,"lat":47.6867,"lon":6.8304,"fibre_pct":95.5},{"code_insee":"90094","nom":"Sevenans","codes_postaux":["90400"],"code_dep":"90","code_region":"27","population":688,"surface_km2":2.05,"lat":47.5898,"lon":6.8718,"fibre_pct":99.4},{"code_insee":"90095","nom":"Suarce","codes_postaux":["90100"],"code_dep":"90","code_region":"27","population":442,"surface_km2":11.83,"lat":47.5638,"lon":7.0789,"fibre_pct":92.2},{"code_insee":"90096","nom":"Thiancourt","codes_postaux":["90100"],"code_dep":"90","code_region":"27","population":286,"surface_km2":2.74,"lat":47.5222,"lon":6.9783,"fibre_pct":100.0},{"code_insee":"90097","nom":"Trévenans","codes_postaux":["90400"],"code_dep":"90","code_region":"27","population":1310,"surface_km2":5.92,"lat":47.5663,"lon":6.8696,"fibre_pct":91.8},{"code_insee":"90098","nom":"Urcerey","codes_postaux":["90800"],"code_dep":"90","code_region":"27","population":257,"surface_km2":3.37,"lat":47.6118,"lon":6.8026,"fibre_pct":99.2},{"code_insee":"90099","nom":"Valdoie","codes_postaux":["90300"],"code_dep":"90","code_region":"27","population":5175,"surface_km2":4.62,"lat":47.6727,"lon":6.8476,"fibre_pct":95.2},{"code_insee":"90100","nom":"Vauthiermont","codes_postaux":["90150"],"code_dep":"90","code_region":"27","population":232,"surface_km2":4.8,"lat":47.6801,"lon":7.0258,"fibre_pct":100.0},{"code_insee":"90101","nom":"Vellescot","codes_postaux":["90100"],"code_dep":"90","code_region":"27","population":257,"surface_km2":3.51,"lat":47.5752,"lon":7.0176,"fibre_pct":100.0},{"code_insee":"90102","nom":"Vescemont","codes_postaux":["90200"],"code_dep":"90","code_region":"27","population":717,"surface_km2":7.47,"lat":47.7539,"lon":6.8621,"fibre_pct":81.7},{"code_insee":"90103","nom":"Vétrigne","codes_postaux":["90300"],"code_dep":"90","code_region":"27","population":636,"surface_km2":2.45,"lat":47.6693,"lon":6.8962,"fibre_pct":100.0},{"code_insee":"90104","nom":"Vézelois","codes_postaux":["90400"],"code_dep":"90","code_region":"27","population":1029,"surface_km2":9.37,"lat":47.6082,"lon":6.9155,"fibre_pct":96.3},{"code_insee":"90105","nom":"Villars-le-Sec","codes_postaux":["90100"],"code_dep":"90","code_region":"27","population":176,"surface_km2":2.98,"lat":47.4572,"lon":6.9862,"fibre_pct":90.6}]