[{"code_insee":"97401","nom":"Les Avirons","codes_postaux":["97425"],"code_dep":"974","code_region":"04","population":11536,"surface_km2":26.4,"lat":-21.2019,"lon":55.3629},{"code_insee":"97402","nom":"Bras-Panon","codes_postaux":["97412"],"code_dep":"974","code_region":"04","population":13012,"surface_km2":87.77,"lat":-21.0316,"lon":55.6265},{"code_insee":"97403","nom":"Entre-Deux","codes_postaux":["97414"],"code_dep":"974","code_region":"04","population":7176,"surface_km2":51.66,"lat":-21.2108,"lon":55.4937},{"code_insee":"97404","nom":"L'Étang-Salé","codes_postaux":["97427"],"code_dep":"974","code_region":"04","population":14464,"surface_km2":38.56,"lat":-21.2348,"lon":55.358},{"code_insee":"97405","nom":"Petite-Île","codes_postaux":["97429"],"code_dep":"974","code_region":"04","population":13067,"surface_km2":34.15,"lat":-21.333,"lon":55.5706},{"code_insee":"97406","nom":"La Plaine-des-Palmistes","codes_postaux":["97431"],"code_dep":"974","code_region":"04","population":6936,"surface_km2":83.51,"lat":-21.153,"lon":55.6442},{"code_insee":"97407","nom":"Le Port","codes_postaux":["97420"],"code_dep":"974","code_region":"04","population":33969,"surface_km2":16.18,"lat":-20.9459,"lon":55.3038},{"code_insee":"97408","nom":"La Possession","codes_postaux":["97419"],"code_dep":"974","code_region":"04","population":36568,"surface_km2":119.39,"lat":-20.9965,"lon":55.3918},{"code_insee":"97409","nom":"Saint-André","codes_postaux":["97440"],"code_dep":"974","code_region":"04","population":58885,"surface_km2":54.66,"lat":-20.9568,"lon":55.6374},{"code_insee":"97410","nom":"Saint-Benoît","codes_postaux":["97437","97470"],"code_dep":"974","code_region":"04","population":38604,"surface_km2":231.06,"lat":-21.0887,"lon":55.6313},{"code_insee":"97411","nom":"Saint-Denis","codes_postaux":["97400","97417","97490"],"code_dep":"974","code_region":"04","population":155634,"surface_km2":142.33,"lat":-20.9434,"lon":55.4444},{"code_insee":"97412","nom":"Saint-Joseph","codes_postaux":["97480"],"code_dep":"974","code_region":"04","population":39207,"surface_km2":178.74,"lat":-21.2921,"lon":55.644},{"code_insee":"97413","nom":"Saint-Leu","codes_postaux":["97416","97424","97436"],"code_dep":"974","code_region":"04","population":36163,"surface_km2":118.74,"lat":-21.1816,"lon":55.3432},{"code_insee":"97414","nom":"Saint-Louis","codes_postaux":["97421","97450"],"code_dep":"974","code_region":"04","population":54941,"surface_km2":99.33,"lat":-21.2254,"lon":55.4224},{"code_insee":"97415","nom":"Saint-Paul","codes_postaux":["97411","97422","97423","97434","97435","97460"],"code_dep":"974","code_region":"04","population":108088,"surface_km2":241.64,"lat":-21.0366,"lon":55.3402},{"code_insee":"97416","nom":"Saint-Pierre","codes_postaux":["97410","97432"],"code_dep":"974","code_region":"04","population":85038,"surface_km2":96.84,"lat":-21.309,"lon":55.5044},{"code_insee":"97417","nom":"Saint-Philippe","codes_postaux":["97442"],"code_dep":"974","code_region":"04","population":5082,"surface_km2":155.47,"lat":-21.3084,"lon":55.7436},{"code_insee":"97418","nom":"Sainte-Marie","codes_postaux":["97438"],"code_dep":"974","code_region":"04","population":37093,"surface_km2":89.0,"lat":-20.9463,"lon":55.5234},{"code_insee":"97419","nom":"Sainte-Rose","codes_postaux":["97439"],"code_dep":"974","code_region":"04","population":6557,"surface_km2":178.5,"lat":-21.1778,"lon":55.7418},{"code_insee":"97420","nom":"Sainte-Suzanne","codes_postaux":["97441"],"code_dep":"974","code_region":"04","population":25551,"surface_km2":58.14,"lat":-20.9507,"lon":55.5936},{"code_insee":"97421","nom":"Salazie","codes_postaux":["97433"],"code_dep":"974","code_region":"04","population":7268,"surface_km2":104.44,"lat":-21.0524,"lon":55.5145},{"code_insee":"97422","nom":"Le Tampon","codes_postaux":["97418","97430"],"code_dep":"974","code_region":"04","population":82579,"surface_km2":182.09,"lat":-21.225,"lon":55.5701},{"code_insee":"97423","nom":"Les Trois-Bassins","codes_postaux":["97426"],"code_dep":"974","code_region":"04","population":7221,"surface_km2":42.75,"lat":-21.1138,"lon":55.3378},{"code_insee":"97424","nom":"Cilaos","codes_postaux":["97413"],"code_dep":"974","code_region":"04","population":5040,"surface_km2":84.82,"lat":-21.1403,"lon":55.4555}]